[{"name":"Pharmacie Zineb","address":"hay Mohammadi, imm. Bayti AGADIR","phone":"05 28 23 10 44","location":"https://www.telecontact.ma/plan-acces/pharmacie-zineb-/3312257/agadir","city":"Agadir"},{"name":"La Grande  Pharmacie Al Farah","address":"hay El Farah 1, n°218 AGADIR","phone":"05 28 28 12 87","location":"https://www.telecontact.ma/plan-acces/la-grande-pharmacie-al-farah-/3332222/agadir","city":"Agadir"},{"name":"pharmacie  Tarik El Kheir","address":"5, hay Tarik Elkhair , ilto 9 AGADIR","phone":"06 44 00 56 40","location":"https://www.telecontact.ma/plan-acces/pharmacie-tarik-el-kheir-/9015654/agadir","city":"Agadir"},{"name":"Pharmacie 20 Aout","address":"180, bd Imam El Boukhari, Erac Bouargane AGADIR","phone":"05 28 23 32 79","location":"https://www.telecontact.ma/plan-acces/pharmacie-20-aout-/3040650/agadir","city":"Agadir"},{"name":"Pharmacie 2000","address":"bd Moulay Abdallah, résid. Karam AGADIR","phone":"05 28 84 25 97","location":"https://www.telecontact.ma/plan-acces/pharmacie-2000-/3064069/agadir","city":"Agadir"},{"name":"Pharmacie Abousaid","address":"22, bd Abderrahim Bouabid, imm. Zerktouni bloc F AGADIR","phone":"05 28 22 24 92","location":"https://www.telecontact.ma/plan-acces/pharmacie-abousaid-/3051887/agadir","city":"Agadir"},{"name":"Pharmacie Adam","address":"701, z.i Tilila, rue Mekka AGADIR","phone":"05 28 28 80 80","location":"https://www.telecontact.ma/plan-acces/pharmacie-adam-/3265362/agadir","city":"Agadir"},{"name":"Pharmacie Adlouni","address":"hay Al Houda, bloc K n°370 AGADIR","phone":"05 28 32 11 12","location":"https://www.telecontact.ma/plan-acces/pharmacie-adlouni-/3197374/agadir","city":"Agadir"},{"name":"Pharmacie Adoha","address":"hay Mohammadi, cplxe Adoha AGADIR","phone":"05 28 23 85 95","location":"https://www.telecontact.ma/plan-acces/pharmacie-adoha-/3223563/agadir","city":"Agadir"},{"name":"Pharmacie Adouz","address":"hay Essalam, imm. Bicha, cplxe Azrou AGADIR","phone":"05 28 21 18 74","location":"https://www.telecontact.ma/plan-acces/pharmacie-adouz-/3197372/agadir","city":"Agadir"},{"name":"Pharmacie Adrar","address":"quartier Adrar, résid. Saâda imm. 23 AGADIR","phone":"05 28 28 80 99","location":"https://www.telecontact.ma/plan-acces/pharmacie-adrar-/3282395/agadir","city":"Agadir"},{"name":"Pharmacie Africaine","address":"quartier Adrar, résid. AlBaraka GH.1 n°5 AGADIR","phone":"05 28 28 86 16","location":"https://www.telecontact.ma/plan-acces/pharmacie-africaine-/3282396/agadir","city":"Agadir"},{"name":"Pharmacie Agadir Bay","address":"mag.3 , imm.10 AGADIR","phone":"05 28 23 23 03","location":"https://www.telecontact.ma/plan-acces/pharmacie-agadir-bay-/3339923/agadir","city":"Agadir"},{"name":"Pharmacie Agadir Oufella","address":"6, bd Mohammed V, imm. Sabri Rte du Port AGADIR","phone":"05 28 82 81 65","location":"https://www.telecontact.ma/plan-acces/pharmacie-agadir-oufella-/3220090/agadir","city":"Agadir"},{"name":"Pharmacie Agdal","address":"z.i Tilila, rue Ghaza, imm. Agdal, n°47 AGADIR","phone":"05 28 28 55 20","location":"https://www.telecontact.ma/plan-acces/pharmacie-agdal-/3245635/agadir","city":"Agadir"},{"name":"Pharmacie Agharass","address":"95, bd Allal El Fassi, Bouargane AGADIR","phone":"05 28 22 10 15","location":"https://www.telecontact.ma/plan-acces/pharmacie-agharass-/3064668/agadir","city":"Agadir"},{"name":"Pharmacie Aghroud Bensergao","address":"Hay Bensergao, bloc C, hay Jaanouj Aghroud AGADIR","phone":"05 28 28 33 39","location":"https://www.telecontact.ma/plan-acces/pharmacie-aghroud-bensergao-/3197370/agadir","city":"Agadir"},{"name":"Pharmacie Aicha","address":"107, Hay Bensergao, lot. Militaire AGADIR","phone":"05 28 28 20 19","location":"https://www.telecontact.ma/plan-acces/pharmacie-aicha-/3242466/agadir","city":"Agadir"},{"name":"Pharmacie Ait M'hand","address":"avenue B , bloc 5, n° 85 AGADIR","phone":"05 28 26 25 86","location":"","city":"Agadir"},{"name":"Pharmacie Ait Souss","address":"hay Mohammadi, n°2934 AGADIR","phone":"05 28 29 25 76","location":"https://www.telecontact.ma/plan-acces/pharmacie-ait-souss-/3245671/agadir","city":"Agadir"},{"name":"Pharmacie Sonaba","address":"Quartier Founty, Sonaba imm. Mimosas AGADIR","phone":"05 28 23 03 48","location":"https://www.telecontact.ma/plan-acces/pharmacie-sonaba-/3221078/agadir","city":"Agadir"},{"name":"Pharmacie Soufi","address":"4, bd Abdelkrim Khattabi, hay Al Massira AGADIR","phone":"05 28 23 38 32","location":"https://www.telecontact.ma/plan-acces/pharmacie-soufi-/3064699/agadir","city":"Agadir"},{"name":"Pharmacie Souika","address":"217, Hay Bensergao bloc 4, Ben Sergao AGADIR","phone":"05 28 28 05 80","location":"https://www.telecontact.ma/plan-acces/pharmacie-souika-/3064766/agadir","city":"Agadir"},{"name":"Pharmacie Souk El Had","address":"13 Bis, lotiss. Kasbah, q.i AGADIR","phone":"05 28 22 65 84","location":"https://www.telecontact.ma/plan-acces/pharmacie-souk-el-had-/2213059/agadir","city":"Agadir"},{"name":"Pharmacie Taddart","address":"z.i Anza  AGADIR","phone":"05 28 20 45 77","location":"https://www.telecontact.ma/plan-acces/pharmacie-taddart-/3064737/agadir","city":"Agadir"},{"name":"Pharmacie Tahiri","address":"rue Allal Ben Abdallah, Talborjt, 80000  AGADIR","phone":"05 28 82 35 08","location":"https://www.telecontact.ma/plan-acces/pharmacie-tahiri-/0277000/agadir","city":"Agadir"},{"name":"Pharmacie Taiba","address":"2658, z.i Anza, route Principale, Taddart AGADIR","phone":"05 28 20 59 61","location":"https://www.telecontact.ma/plan-acces/pharmacie-taiba-/3262944/agadir","city":"Agadir"},{"name":"Pharmacie Tikida","address":"hay Al Houda, imm. Tikida n°10 AGADIR","phone":"05 28 32 00 19","location":"https://www.telecontact.ma/plan-acces/pharmacie-tikida-/3197265/agadir","city":"Agadir"},{"name":"Pharmacie Tildi","address":"lotiss. Tildi, rue Oued Ziz Bloc 4 n°8, q.i. AGADIR","phone":"05 28 82 11 78","location":"https://www.telecontact.ma/plan-acces/pharmacie-tildi-/3064672/agadir","city":"Agadir"},{"name":"Pharmacie Tilila","address":"z.i Tilila, Bd El Oulfa, lot. n°3165 AGADIR","phone":"05 28 28 55 48","location":"https://www.telecontact.ma/plan-acces/pharmacie-tilila-/3255345/agadir","city":"Agadir"},{"name":"Pharmacie Toubkal","address":"74, bd Abderrahman Al Houdaigui, cité ElMassira, 80000  AGADIR","phone":"05 28 23 78 72","location":"https://www.telecontact.ma/plan-acces/pharmacie-toubkal-/3041013/agadir","city":"Agadir"},{"name":"Pharmacie Valtur","address":"1, Secteur Touristique et balnéaire, Hôtel Valtur AGADIR","phone":"05 28 82 21 32","location":"https://www.telecontact.ma/plan-acces/pharmacie-valtur-/3064692/agadir","city":"Agadir"},{"name":"Pharmacie Yusra","address":"8, bd Ghandi, cité Dakhla AGADIR","phone":"06 11 27 34 47","location":"https://www.telecontact.ma/plan-acces/pharmacie-yusra-/3064680/agadir","city":"Agadir"},{"name":"Pharmacie Zerktouni","address":"Hay Khiam 2, rue 676, n° 13 AGADIR","phone":"05 28 22 22 58","location":"https://www.telecontact.ma/plan-acces/pharmacie-zerktouni-/3098922/agadir","city":"Agadir"},{"name":"Pharmacie Zhor","address":"4 Bis, bd Moulay Youssef, bloc 10 Ihchach C.p.h, 80000  AGADIR","phone":"05 28 84 37 78","location":"https://www.telecontact.ma/plan-acces/pharmacie-zhor-/2213057/agadir","city":"Agadir"},{"name":"Pharmacie Azizi","address":"3, bd Mansour Eddahbi, cité Dakhla, 80000  AGADIR","phone":"05 28 23 97 97","location":"https://www.telecontact.ma/plan-acces/pharmacie-azizi-/3041000/agadir","city":"Agadir"},{"name":"Pharmacie Azmi","address":"hay Riad Essalam, rue Omar Ben Jelloun, 80000  AGADIR","phone":"05 28 22 84 82","location":"https://www.telecontact.ma/plan-acces/pharmacie-azmi-/3041007/agadir","city":"Agadir"},{"name":"Pharmacie Bab AlHay","address":"hay Mohammadi, Entré A n°3608 AGADIR","phone":"05 28 21 45 77","location":"https://www.telecontact.ma/plan-acces/pharmacie-bab-alhay-/3266469/agadir","city":"Agadir"},{"name":"Pharmacie Bachouch","address":"445, Extention Dakhla , 80000  AGADIR","phone":"05 28 23 82 07","location":"https://www.telecontact.ma/plan-acces/pharmacie-bachouch-/3051829/agadir","city":"Agadir"},{"name":"Pharmacie Badr","address":"hay Znagui , Aourir AGADIR","phone":"05 28 31 46 87","location":"https://www.telecontact.ma/plan-acces/pharmacie-badr-/3303680/agadir","city":"Agadir"},{"name":"Pharmacie Bayti","address":"hay Mohammadi, résid. Bayti M1 B18 AGADIR","phone":"05 28 23 51 51","location":"https://www.telecontact.ma/plan-acces/pharmacie-bayti-/3245664/agadir","city":"Agadir"},{"name":"Pharmacie bd Mohamed V","address":"3 Bis, bd Mohammed V, cplx. Almoggar, 80000  AGADIR","phone":"05 28 82 45 91","location":"https://www.telecontact.ma/plan-acces/pharmacie-bd-mohamed-v-/3042310/agadir","city":"Agadir"},{"name":"Pharmacie Ben Omar","address":"63, Riad Anza , imm. C13 AGADIR","phone":"05 28 20 58 98","location":"https://www.telecontact.ma/plan-acces/pharmacie-ben-omar-/9014711/agadir","city":"Agadir"},{"name":"Pharmacie Ben Rahal El batoire","address":"rue Fès, bloc 6 les Abattoires AGADIR","phone":"05 28 23 08 90","location":"https://www.telecontact.ma/plan-acces/pharmacie-ben-rahal-el-batoire-/3064042/agadir","city":"Agadir"},{"name":"Pharmacie Benchrif","address":"62, Hay Bensergao, bloc7, 80000  AGADIR","phone":"05 28 28 08 95","location":"https://www.telecontact.ma/plan-acces/pharmacie-benchrif-/2213146/agadir","city":"Agadir"},{"name":"Pharmacie Bensergao","address":"50, Hay Bensergao, bloc 1, rte Principale AGADIR","phone":"05 28 28 06 77","location":"https://www.telecontact.ma/plan-acces/pharmacie-bensergao-/2213132/agadir","city":"Agadir"},{"name":"Pharmacie Bir Anzarane","address":"Quartier Bir Anzarane , 10 bloc12, Tikiouine AGADIR","phone":"05 28 29 09 19","location":"https://www.telecontact.ma/plan-acces/pharmacie-bir-anzarane-/3041956/agadir","city":"Agadir"},{"name":"Pharmacie Borj Taddart","address":"45, bd des F.a.r., imm.Tigmi N°14 AGADIR","phone":"05 28 82 32 13","location":"https://www.telecontact.ma/plan-acces/pharmacie-borj-taddart-/3064703/agadir","city":"Agadir"},{"name":"Pharmacie Bouargane","address":"831, Hay Khiam 2 , 80000  AGADIR","phone":"05 28 23 11 45","location":"https://www.telecontact.ma/plan-acces/pharmacie-bouargane-/1620200/agadir","city":"Agadir"},{"name":"Pharmacie Bouloiz","address":"cité Drarga, n°40 lot. Alimam Fatima, rte Principale AGADIR","phone":"05 28 28 72 83","location":"https://www.telecontact.ma/plan-acces/pharmacie-bouloiz-/3197333/agadir","city":"Agadir"},{"name":"Pharmacie Boussaïd","address":"hay Farha, bd Hadj Lahbib, bloc 14 n°1 AGADIR","phone":"05 28 23 86 36","location":"","city":"Agadir"},{"name":"Pharmacie Boutasra","address":"394 J, hay Al Wifaq, Ben Sergao AGADIR","phone":"05 28 28 00 79","location":"https://www.telecontact.ma/plan-acces/pharmacie-boutasra-/3089061/agadir","city":"Agadir"},{"name":"Pharmacie Cadi Ayad","address":"124, bd Cadi Ayad, q.i. AGADIR","phone":"05 28 22 16 94","location":"https://www.telecontact.ma/plan-acces/pharmacie-cadi-ayad-/3040554/agadir","city":"Agadir"},{"name":"Pharmacie Cadi Ben Driss","address":"hay Dakhla, AL Fiddia I AGADIR","phone":"05 28 23 39 39","location":"https://www.telecontact.ma/plan-acces/pharmacie-cadi-ben-driss-/3064686/agadir","city":"Agadir"},{"name":"Pharmacie Centrale","address":"101, bd Al Moukaouama , 80000  AGADIR","phone":"05 28 82 21 01","location":"https://www.telecontact.ma/plan-acces/pharmacie-centrale-/0276200/agadir","city":"Agadir"},{"name":"Pharmacie Ouahbi","address":"56, rue Al Wahda Al Wataniya Les Amicales AGADIR","phone":"05 28 23 33 17","location":"https://www.telecontact.ma/plan-acces/pharmacie-ouahbi-/2212997/agadir","city":"Agadir"},{"name":"Pharmacie Paris","address":"rue Talaâ, résid. Darna imm.6, q. Adrar, 80000  AGADIR","phone":"05 28 26 27 20","location":"https://www.telecontact.ma/plan-acces/pharmacie-paris-/3332421/agadir","city":"Agadir"},{"name":"Pharmacie Pasteur","address":"hay Dakhla, bloc H6, n°4 AGADIR","phone":"05 28 21 21 21","location":"https://www.telecontact.ma/plan-acces/pharmacie-pasteur-/3217502/agadir","city":"Agadir"},{"name":"Pharmacie Principale","address":"1, rue Principale, Tagadirt AGADIR","phone":"05 28 28 70 07","location":"https://www.telecontact.ma/plan-acces/pharmacie-principale-/9014672/agadir","city":"Agadir"},{"name":"Pharmacie Rachid","address":"20, bd Ferhat Hachad, q. Dakhla AGADIR","phone":"05 28 22 11 92","location":"https://www.telecontact.ma/plan-acces/pharmacie-rachid-/2213154/agadir","city":"Agadir"},{"name":"Pharmacie Rady","address":"150, bd Ibn Khaldoun  AGADIR","phone":"05 28 28 31 63","location":"https://www.telecontact.ma/plan-acces/pharmacie-rady-/3319743/agadir","city":"Agadir"},{"name":"Pharmacie Rajaa","address":"1026, bd Abderrahman Benzidane, cité Salam, 80000  AGADIR","phone":"05 28 23 56 70","location":"https://www.telecontact.ma/plan-acces/pharmacie-rajaa-/3044862/agadir","city":"Agadir"},{"name":"Pharmacie Reda","address":"512, hay Mohammadi, hay abaraz AGADIR","phone":"05 28 22 22 30","location":"https://www.telecontact.ma/plan-acces/pharmacie-reda-/3316823/agadir","city":"Agadir"},{"name":"Pharmacie Riad AlHouda","address":"1176, hay Al Houda  AGADIR","phone":"05 28 32 17 74","location":"https://www.telecontact.ma/plan-acces/pharmacie-riad-alhouda-/3197278/agadir","city":"Agadir"},{"name":"Pharmacie Riad Salam","address":"c. com. Sidi Youssef, n°2  AGADIR","phone":"05 28 22 05 98","location":"https://www.telecontact.ma/plan-acces/pharmacie-riad-salam-/3064688/agadir","city":"Agadir"},{"name":"Pharmacie Salam","address":"bd El Haj Massoud El Wafkaoui, Hay Salam AGADIR","phone":"05 28 23 56 36","location":"https://www.telecontact.ma/plan-acces/pharmacie-salam-/3051843/agadir","city":"Agadir"},{"name":"Pharmacie Sefrihi","address":"lotiss. Zaitoune, bloc F n° 9 Tikiouine AGADIR","phone":"05 28 29 09 39","location":"https://www.telecontact.ma/plan-acces/pharmacie-sefrihi-/3345625/agadir","city":"Agadir"},{"name":"Pharmacie Sidi Hssain","address":"quartier Assaka , bloc C n° 87, Tikouine AGADIR","phone":"06 69 47 83 39","location":"https://www.telecontact.ma/plan-acces/pharmacie-sidi-hssain-/3345614/agadir","city":"Agadir"},{"name":"Pharmacie Aiyar","address":"hay Mohammadi, imm. A1B16 Assafa AGADIR","phone":"05 28 23 77 06","location":"https://www.telecontact.ma/plan-acces/pharmacie-aiyar-/3245649/agadir","city":"Agadir"},{"name":"Pharmacie des F.a.r.","address":"7, bd des F.a.r., imm. ElManzeh, 80000  AGADIR","phone":"05 28 82 43 32","location":"","city":"Agadir"},{"name":"Pharmacie des Facultés","address":"6, bd Onze Janvier, Projet Al Wid AGADIR","phone":"05 28 29 27 96","location":"","city":"Agadir"},{"name":"Pharmacie Drarga","address":"rte Drarga, Sidi Elhaj Saïd AGADIR","phone":"05 28 28 71 27","location":"https://www.telecontact.ma/plan-acces/pharmacie-drarga-/3064845/agadir","city":"Agadir"},{"name":"Pharmacie du Palais","address":"7, bd Al Moukaouama ang. av Med V imm. Errachad, 80000  AGADIR","phone":"05 28 82 81 78","location":"https://www.telecontact.ma/plan-acces/pharmacie-du-palais-/3040883/agadir","city":"Agadir"},{"name":"Pharmacie du quartier","address":"32, rue Sidi Bouknadel, q.i., 80000  AGADIR","phone":"05 28 82 13 15","location":"https://www.telecontact.ma/plan-acces/pharmacie-du-quartier-/1202900/agadir","city":"Agadir"},{"name":"Pharmacie du Quartier Militaire","address":"Hay Bensergao, n°8, cité Al Anwar (Wifaq) AGADIR","phone":"05 28 28 39 46","location":"https://www.telecontact.ma/plan-acces/pharmacie-du-quartier-militaire-/3242395/agadir","city":"Agadir"},{"name":"Pharmacie du soleil","address":"bd John Kennedy, Talborjt, 80000  AGADIR","phone":"05 28 84 80 04","location":"https://www.telecontact.ma/plan-acces/pharmacie-du-soleil-/2107374/agadir","city":"Agadir"},{"name":"Pharmacie El Alami","address":"hay Riad Essalam, imm. Aferni n°22 AGADIR","phone":"05 28 23 29 57","location":"https://www.telecontact.ma/plan-acces/pharmacie-el-alami-/3098898/agadir","city":"Agadir"},{"name":"Pharmacie El Amri","address":"1, rue Anzi, cité Salam AGADIR","phone":"05 28 22 52 06","location":"https://www.telecontact.ma/plan-acces/pharmacie-el-amri-/3064707/agadir","city":"Agadir"},{"name":"Pharmacie El Bakri","address":"1173, Quartier Founty  AGADIR","phone":"05 28 29 16 46","location":"https://www.telecontact.ma/plan-acces/pharmacie-el-bakri-/3319741/agadir","city":"Agadir"},{"name":"Pharmacie El Bradii","address":"bd Bir Anzarane, Bloc n°11 Tikiouine AGADIR","phone":"05 28 29 02 21","location":"https://www.telecontact.ma/plan-acces/pharmacie-el-bradii-/3271350/agadir","city":"Agadir"},{"name":"Pharmacie El Hajouji","address":"129 Bis, rue Idrissi, Nouveau Talborjt AGADIR","phone":"05 28 82 20 70","location":"https://www.telecontact.ma/plan-acces/pharmacie-el-hajouji-/3064694/agadir","city":"Agadir"},{"name":"Pharmacie El Mira","address":"lotiss. Tilila, rue Arreda n°932 AGADIR","phone":"05 28 28 59 59","location":"https://www.telecontact.ma/plan-acces/pharmacie-el-mira-/3332517/agadir","city":"Agadir"},{"name":"Pharmacie El Ouazzany","address":"hay Mohammadi, résid. Fal Oumlil n°206 AGADIR","phone":"05 28 22 06 81","location":"https://www.telecontact.ma/plan-acces/pharmacie-el-ouazzany-/3245660/agadir","city":"Agadir"},{"name":"Pharmacie El Qods","address":"69, rue Imam Chafii, bloc A5 AGADIR","phone":"05 40 01 19 28","location":"https://www.telecontact.ma/plan-acces/pharmacie-el-qods-/3313010/agadir","city":"Agadir"},{"name":"Pharmacie El Wafa","address":"25 Bis, bd Abderrahim Bouabid, cité El Wafa AGADIR","phone":"05 28 22 59 46","location":"https://www.telecontact.ma/plan-acces/pharmacie-el-wafa-/3064677/agadir","city":"Agadir"},{"name":"Pharmacie ElBahara","address":"lotiss. Marins Pêcheurs, rue 502 bis n°22 AGADIR","phone":"05 28 21 11 86","location":"https://www.telecontact.ma/plan-acces/pharmacie-elbahara-/3144246/agadir","city":"Agadir"},{"name":"Pharmacie ElHassania","address":"56, lotiss. Hassania, Bloc B AGADIR","phone":"05 28 20 52 44","location":"https://www.telecontact.ma/plan-acces/pharmacie-elhassania-/3064732/agadir","city":"Agadir"},{"name":"Pharmacie ElKachla","address":"Hay Bensergao, n°39 bloc 6 AGADIR","phone":"05 28 28 06 62","location":"https://www.telecontact.ma/plan-acces/pharmacie-elkachla-/3041592/agadir","city":"Agadir"},{"name":"Pharmacie ElMghari","address":"5, bd Hassan 1er imm. AlWifaq, cité Dakhla AGADIR","phone":"05 28 23 97 64","location":"https://www.telecontact.ma/plan-acces/pharmacie-elmghari-/3064664/agadir","city":"Agadir"},{"name":"Pharmacie ElWifaq","address":"101, Hay Bensergao, Cité AlWifaq AGADIR","phone":"05 28 29 19 62","location":"https://www.telecontact.ma/plan-acces/pharmacie-elwifaq-/3064789/agadir","city":"Agadir"},{"name":"Pharmacie Ennahda","address":"bd Moulay Ismail q. Ennahda, 80000  AGADIR","phone":"05 28 82 50 45","location":"https://www.telecontact.ma/plan-acces/pharmacie-ennahda-/0276500/agadir","city":"Agadir"},{"name":"Pharmacie Ennajah","address":"bd Massira El Khadra, les amicales des Fonctionnaires, 80000  AGADIR","phone":"05 28 22 25 03","location":"https://www.telecontact.ma/plan-acces/pharmacie-ennajah-/3044507/agadir","city":"Agadir"},{"name":"Pharmacie Ennajd","address":"bd Hassan 1er, 11 bloc G4 cité Dakhla, 80000  AGADIR","phone":"05 28 22 69 07","location":"https://www.telecontact.ma/plan-acces/pharmacie-ennajd-/3040918/agadir","city":"Agadir"},{"name":"Pharmacie Errahma","address":"161, hay Mohammadi  AGADIR","phone":"05 28 23 23 33","location":"https://www.telecontact.ma/plan-acces/pharmacie-errahma-/3197319/agadir","city":"Agadir"},{"name":"Pharmacie Erraji","address":"12, bd Aboujihad, cité AlMassira, 80000  AGADIR","phone":"05 28 23 62 73","location":"https://www.telecontact.ma/plan-acces/pharmacie-erraji-/3040971/agadir","city":"Agadir"},{"name":"Pharmacie Errami","address":"Hay Najah, Mosquée Najah n°1 AGADIR","phone":"05 28 23 69 25","location":"https://www.telecontact.ma/plan-acces/pharmacie-errami-/3082414/agadir","city":"Agadir"},{"name":"Pharmacie Etissir","address":"Commune rurale Drarga  AGADIR","phone":"05 28 29 78 31","location":"https://www.telecontact.ma/plan-acces/pharmacie-etissir-/9014594/agadir","city":"Agadir"},{"name":"Pharmacie Europa","address":"bd Vingt Août, Hôtel Kenzi Europa AGADIR","phone":"05 28 82 49 46","location":"https://www.telecontact.ma/plan-acces/pharmacie-europa-/3120741/agadir","city":"Agadir"},{"name":"Pharmacie Extension Dakhla","address":"Extension Dakhla , K1005, 80000  AGADIR","phone":"05 28 23 94 45","location":"https://www.telecontact.ma/plan-acces/pharmacie-extension-dakhla-/3051937/agadir","city":"Agadir"},{"name":"Pharmacie Fadissa","address":"6, rue Gharnata, resid. Ben Iznass, Dcheira El Jihadia AGADIR","phone":"05 28 83 86 99","location":"https://www.telecontact.ma/plan-acces/pharmacie-fadissa-/3286031/agadir","city":"Agadir"},{"name":"Pharmacie Faicel","address":"1042, Extension Dakhla  AGADIR","phone":"05 28 23 83 83","location":"https://www.telecontact.ma/plan-acces/pharmacie-faicel-/3040947/agadir","city":"Agadir"},{"name":"Pharmacie Fatihat Alkheir","address":"111, lotiss. El Farah  AGADIR","phone":"05 28 29 10 48","location":"https://www.telecontact.ma/plan-acces/pharmacie-fatihat-alkheir-/3319744/agadir","city":"Agadir"},{"name":"Pharmacie Founty","address":"11, bd Hassan II , 80000  AGADIR","phone":"05 28 84 40 23","location":"https://www.telecontact.ma/plan-acces/pharmacie-founty-/1623000/agadir","city":"Agadir"},{"name":"Pharmacie Grand Tilila","address":"1910, rue Makka, bloc 7 Tilila AGADIR","phone":"05 28 26 67 51","location":"https://www.telecontact.ma/plan-acces/pharmacie-grand-tilila-/9016719/agadir","city":"Agadir"},{"name":"Pharmacie Nour Al Houda","address":"hay Al Houda, bloc 5 n°16 bis AGADIR","phone":"05 28 32 14 25","location":"https://www.telecontact.ma/plan-acces/pharmacie-nour-al-houda-/3197280/agadir","city":"Agadir"},{"name":"Pharmacie Nour AlFarah III","address":"454, AlFarah III  AGADIR","phone":"05 28 29 10 50","location":"https://www.telecontact.ma/plan-acces/pharmacie-nour-alfarah-iii-/3279316/agadir","city":"Agadir"},{"name":"Pharmacie Nouvelle Adrar","address":"1183, quartier Adrar, rue 9 bloc 2 AGADIR","phone":"06 11 86 80 38","location":"https://www.telecontact.ma/plan-acces/pharmacie-nouvelle-adrar-/9014690/agadir","city":"Agadir"},{"name":"Pharmacie Odessa","address":"hay Essalam, résid. Tarik Al Kheir 1, imm. 2, mag. 4, 80070  AGADIR","phone":"05 28 28 28 82","location":"https://www.telecontact.ma/plan-acces/pharmacie-odessa-/3336654/agadir","city":"Agadir"}]