[{"name":"Pharmacie Hafidi","address":"21, bd Laatigui , hay Awatif II AHFIR","phone":"05 36 62 83 98","location":"https://www.telecontact.ma/plan-acces/pharmacie-hafidi-/3286731/ahfir","city":"Ahfir"},{"name":"Pharmacie Ibn El Haitam","address":"24 Bis, rue d'Oujda  AHFIR","phone":"05 36 62 79 75","location":"https://www.telecontact.ma/plan-acces/pharmacie-ibn-el-haitam-/3197249/ahfir","city":"Ahfir"},{"name":"Pharmacie Imam Malik","address":"rue Oued Eddahab ang. rue Ghandi AHFIR","phone":"05 36 62 93 77","location":"https://www.telecontact.ma/plan-acces/pharmacie-imam-malik-/3197248/ahfir","city":"Ahfir"},{"name":"Pharmacie Mansour","address":"140 Bis, bd Saidia  AHFIR","phone":"05 36 62 60 81","location":"https://www.telecontact.ma/plan-acces/pharmacie-mansour-/3161858/ahfir","city":"Ahfir"},{"name":"Pharmacie Principale d'Ahfir","address":"2, rue de Tlemcen  AHFIR","phone":"05 36 62 87 28","location":"","city":"Ahfir"},{"name":"Pharmacie Ahfir","address":"47 Bis, bd Saidia  AHFIR","phone":"05 36 62 94 84","location":"https://www.telecontact.ma/plan-acces/pharmacie-ahfir-/3197253/ahfir","city":"Ahfir"},{"name":"Pharmacie Alqods","address":"48, bd. Mohammed V , 60050  AHFIR","phone":"05 36 62 81 88","location":"https://www.telecontact.ma/plan-acces/pharmacie-alqods-/0317700/ahfir","city":"Ahfir"},{"name":"Pharmacie Assalam","address":"52, bd Berkane  AHFIR","phone":"05 36 62 83 59","location":"https://www.telecontact.ma/plan-acces/pharmacie-assalam-/3270938/ahfir","city":"Ahfir"},{"name":"Pharmacie Centrale","address":"88, rue Chouhada  AHFIR","phone":"05 36 62 99 05","location":"https://www.telecontact.ma/plan-acces/pharmacie-centrale-/3284558/ahfir","city":"Ahfir"},{"name":"Pharmacie de L'Oriental","address":"bd Khalid Ibn Oualid  AHFIR","phone":"05 36 62 96 66","location":"","city":"Ahfir"},{"name":"Pharmacie de la Renaissance","address":"100, bd Berkane  AHFIR","phone":"05 36 62 99 04","location":"https://www.telecontact.ma/plan-acces/pharmacie-de-la-renaissance-/3197239/ahfir","city":"Ahfir"},{"name":"Pharmacie du Carrefour","address":"4, av. Saidia  AHFIR","phone":"05 36 62 90 14","location":"https://www.telecontact.ma/plan-acces/pharmacie-du-carrefour-/3271026/ahfir","city":"Ahfir"},{"name":"Pharmacie El Mahi","address":"12, bd Chouhada  AHFIR","phone":"05 36 62 72 39","location":"https://www.telecontact.ma/plan-acces/pharmacie-el-mahi-/3197250/ahfir","city":"Ahfir"},{"name":"Pharmacie Errahma","address":"6, bd. Hassan II , 60050  AHFIR","phone":"05 36 61 81 20","location":"https://www.telecontact.ma/plan-acces/pharmacie-errahma-/1787000/ahfir","city":"Ahfir"}]