[{"name":"Pharmacie Al Manzah","address":"20, rue Med Hassan El Ouazzani  AL HOCEIMA","phone":"05 39 84 02 82","location":"https://www.telecontact.ma/plan-acces/pharmacie-al-manzah-/3197106/al-hoceima","city":"Al-Hoceima"},{"name":"Pharmacie Al Qods","address":"24, bd El Qods, rte Sidi Mansour AL HOCEIMA","phone":"05 39 84 06 69","location":"https://www.telecontact.ma/plan-acces/pharmacie-al-qods-/3272373/al-hoceima","city":"Al-Hoceima"},{"name":"Pharmacie AlOuahda","address":"20, rue AlOuahda , imzouren AL HOCEIMA","phone":"05 39 80 78 78","location":"https://www.telecontact.ma/plan-acces/pharmacie-alouahda-/3175233/al-hoceima","city":"Al-Hoceima"},{"name":"Pharmacie AlWafa","address":"90, av. Hassan II ang. M'Barek ElBekkai AL HOCEIMA","phone":"05 39 98 34 49","location":"https://www.telecontact.ma/plan-acces/pharmacie-alwafa-/3068272/al-hoceima","city":"Al-Hoceima"},{"name":"Pharmacie Andalous","address":"158, rue Hajrat Nekkor  AL HOCEIMA","phone":"05 39 98 28 99","location":"https://www.telecontact.ma/plan-acces/pharmacie-andalous-/1787200/al-hoceima","city":"Al-Hoceima"},{"name":"Pharmacie Anissa","address":"33, av 9 juillet  AL HOCEIMA","phone":"05 39 98 42 34","location":"https://www.telecontact.ma/plan-acces/pharmacie-anissa-/3197105/al-hoceima","city":"Al-Hoceima"},{"name":"Pharmacie Anoual","address":"47, av. Imzouren , 32000  AL HOCEIMA","phone":"05 39 98 29 17","location":"https://www.telecontact.ma/plan-acces/pharmacie-anoual-/1621200/al-hoceima","city":"Al-Hoceima"},{"name":"Pharmacie Avicenne","address":"av. Tarik Ibnou Ziad , Imm. Caballo, 32000  AL HOCEIMA","phone":"05 39 98 29 16","location":"https://www.telecontact.ma/plan-acces/pharmacie-avicenne-/1787100/al-hoceima","city":"Al-Hoceima"},{"name":"Pharmacie Azir","address":"161, rue Sidi Abid  AL HOCEIMA","phone":"05 39 98 53 88","location":"https://www.telecontact.ma/plan-acces/pharmacie-azir-/3197104/al-hoceima","city":"Al-Hoceima"},{"name":"Pharmacie Bni Bouayache","address":"132, av Hassan II , Beni Bouayach AL HOCEIMA","phone":"05 39 80 30 77","location":"https://www.telecontact.ma/plan-acces/pharmacie-bni-bouayache-/3197103/al-hoceima","city":"Al-Hoceima"},{"name":"Pharmacie Cala Bonita","address":"28, hay Cala Bonita , résid. Firadaous AL HOCEIMA","phone":"05 39 98 58 64","location":"https://www.telecontact.ma/plan-acces/pharmacie-cala-bonita-/3068255/al-hoceima","city":"Al-Hoceima"},{"name":"Pharmacie centrale du Rif","address":"23, Avenue Hassan II , 32000  AL HOCEIMA","phone":"05 39 98 25 82","location":"https://www.telecontact.ma/plan-acces/pharmacie-centrale-du-rif-/0277300/al-hoceima","city":"Al-Hoceima"},{"name":"Pharmacie ElMoustachfa","address":"89, av. AlIskandaria  AL HOCEIMA","phone":"05 39 98 11 31","location":"https://www.telecontact.ma/plan-acces/pharmacie-elmoustachfa-/3175241/al-hoceima","city":"Al-Hoceima"},{"name":"Pharmacie Essalam","address":"350, rue Casablanca , Imzouren AL HOCEIMA","phone":"05 39 80 66 67","location":"https://www.telecontact.ma/plan-acces/pharmacie-essalam-/3223171/al-hoceima","city":"Al-Hoceima"},{"name":"Pharmacie Granada","address":"12, av. Madagascar  AL HOCEIMA","phone":"05 39 84 02 04","location":"https://www.telecontact.ma/plan-acces/pharmacie-granada-/3067098/al-hoceima","city":"Al-Hoceima"},{"name":"Pharmacie Ibnou Rochd","address":"168, av Hassan II  AL HOCEIMA","phone":"05 39 98 17 57","location":"https://www.telecontact.ma/plan-acces/pharmacie-ibnou-rochd-/3197101/al-hoceima","city":"Al-Hoceima"},{"name":"Pharmacie Ikaouen","address":"Tarik ElWahda , Ikaouen AL HOCEIMA","phone":"05 39 68 74 42","location":"https://www.telecontact.ma/plan-acces/pharmacie-ikaouen-/3197100/al-hoceima","city":"Al-Hoceima"},{"name":"Pharmacie Khalid Ibn Alwalid","address":"17, av. Hajarat Nekour  AL HOCEIMA","phone":"05 39 84 08 63","location":"https://www.telecontact.ma/plan-acces/pharmacie-khalid-ibn-alwalid-/3067103/al-hoceima","city":"Al-Hoceima"},{"name":"Pharmacie le Port","address":"24, place 9 Avril  AL HOCEIMA","phone":"05 39 98 06 06","location":"https://www.telecontact.ma/plan-acces/pharmacie-le-port-/3068265/al-hoceima","city":"Al-Hoceima"},{"name":"Pharmacie Meditérraneo","address":"41, rue Houman El Fetouaki  AL HOCEIMA","phone":"05 39 84 08 08","location":"","city":"Al-Hoceima"},{"name":"Pharmacie Achifa","address":"1, av. Abbas M'Saadi  AL HOCEIMA","phone":"05 39 98 06 55","location":"https://www.telecontact.ma/plan-acces/pharmacie-achifa-/3272375/al-hoceima","city":"Al-Hoceima"},{"name":"Pharmacie Ajdir","address":"centre Ajdir ,rp.39 AL HOCEIMA","phone":"05 39 80 20 98","location":"https://www.telecontact.ma/plan-acces/pharmacie-ajdir-/3197109/al-hoceima","city":"Al-Hoceima"},{"name":"Pharmacie Al Hilal","address":"105, av Sidi Abid  AL HOCEIMA","phone":"05 39 98 00 33","location":"https://www.telecontact.ma/plan-acces/pharmacie-al-hilal-/3222564/al-hoceima","city":"Al-Hoceima"},{"name":"Pharmacie Al Hoceima","address":"97, bd. Tarik Ibn Ziad  AL HOCEIMA","phone":"05 39 84 15 96","location":"https://www.telecontact.ma/plan-acces/pharmacie-al-hoceima-/3068274/al-hoceima","city":"Al-Hoceima"},{"name":"Pharmacie Al Hoda","address":"166, bd Tarik Ibn Ziad  AL HOCEIMA","phone":"05 39 98 09 44","location":"https://www.telecontact.ma/plan-acces/pharmacie-al-hoda-/3271860/al-hoceima","city":"Al-Hoceima"},{"name":"Pharmacie Al Khair","address":"bd Abou Fariss Hamadani , hay Mirador AL HOCEIMA","phone":"05 39 84 18 46","location":"https://www.telecontact.ma/plan-acces/pharmacie-al-khair-/3271146/al-hoceima","city":"Al-Hoceima"}]