[{"name":"Pharmacie Loukili","address":"18, av. Prince Heritier Sidi Mohamed , 90050  ASILAH","phone":"05 39 41 72 78","location":"https://www.telecontact.ma/plan-acces/pharmacie-loukili-/1787300/asilah","city":"Asilah"},{"name":"Pharmacie Principale d'Asilah","address":"101, av. Abou Firas AlHamadani  ASILAH","phone":"05 39 41 69 20","location":"","city":"Asilah"},{"name":"Pharmacie Ain AlAhmar","address":"av Hassan II , 90050  ASILAH","phone":"05 39 41 75 62","location":"https://www.telecontact.ma/plan-acces/pharmacie-ain-alahmar-/3148115/asilah","city":"Asilah"},{"name":"Pharmacie Asilah","address":"12, av Hassan II  ASILAH","phone":"05 39 41 66 47","location":"https://www.telecontact.ma/plan-acces/pharmacie-asilah-/3148123/asilah","city":"Asilah"},{"name":"Pharmacie Avicenne","address":"14, av. Khadir Ghailan  ASILAH","phone":"05 39 41 60 70","location":"https://www.telecontact.ma/plan-acces/pharmacie-avicenne-/3220161/asilah","city":"Asilah"},{"name":"Pharmacie Bab Alhomar","address":"105, av. Hassan II  ASILAH","phone":"05 39 41 77 92","location":"https://www.telecontact.ma/plan-acces/pharmacie-bab-alhomar-/3064118/asilah","city":"Asilah"},{"name":"Pharmacie de l'Océan","address":"19, pl. Zellaqa , 90050  ASILAH","phone":"05 39 41 70 35","location":"","city":"Asilah"},{"name":"Pharmacie Ibn Toumert","address":"30, rue Mehdi Ben Toumert  ASILAH","phone":"05 39 41 67 09","location":"https://www.telecontact.ma/plan-acces/pharmacie-ibn-toumert-/3064089/asilah","city":"Asilah"},{"name":"Pharmacie Imam Malek","address":"19, av. Errachidia  ASILAH","phone":"05 39 41 80 10","location":"https://www.telecontact.ma/plan-acces/pharmacie-imam-malek-/3148216/asilah","city":"Asilah"},{"name":"Pharmacie l'Hôpital","address":"12, av Hansali  ASILAH","phone":"05 39 41 76 40","location":"","city":"Asilah"}]