[{"name":"Pharmacie Nour","address":"387, av. Hassan II  BENI MELLAL","phone":"05 23 48 02 00","location":"https://www.telecontact.ma/plan-acces/pharmacie-nour-/3144988/beni-mellal","city":"Beni Mellal"},{"name":"Pharmacie Nouredine","address":"centre ouled Youssef  BENI MELLAL","phone":"05 23 48 77 04","location":"https://www.telecontact.ma/plan-acces/pharmacie-nouredine-/3197147/beni-mellal","city":"Beni Mellal"},{"name":"Pharmacie Omnia","address":"pl. Mohammed V, lotiss. Essabah n°4 BENI MELLAL","phone":"05 23 48 52 33","location":"","city":"Beni Mellal"},{"name":"Pharmacie Orangers","address":"cité Limoune , villa Geoise, bloc 2 n°2 BENI MELLAL","phone":"05 23 42 03 40","location":"","city":"Beni Mellal"},{"name":"Pharmacie Ouled Ayad","address":"av. 20 Août Ouled Ayad , Lagrabzia n°19, 23040  BENI MELLAL","phone":"05 23 48 40 90","location":"","city":"Beni Mellal"},{"name":"Pharmacie Ouled Hamdane N'Zala","address":"lotiss. Maâkil , rue 5 n°4 N'zala Ouled Hamdane BENI MELLAL","phone":"05 23 48 31 38","location":"","city":"Beni Mellal"},{"name":"Pharmacie Ouled Said","address":"centre ouled Said l'Oued  BENI MELLAL","phone":"05 23 50 00 95","location":"","city":"Beni Mellal"},{"name":"Pharmacie Ouled Youssef","address":"centre ouled Youssef  BENI MELLAL","phone":"05 23 48 07 30","location":"","city":"Beni Mellal"},{"name":"Pharmacie Ouled Zemam","address":"Rte de Fkih ben Salah , ouled Zmam BENI MELLAL","phone":"05 23 43 04 43","location":"","city":"Beni Mellal"},{"name":"Pharmacie Oum Rabia","address":"centre ouled Said l'oued  BENI MELLAL","phone":"05 23 50 01 89","location":"","city":"Beni Mellal"},{"name":"Pharmacie Ourbia","address":"quartier Zaarati , Ourbia BENI MELLAL","phone":"05 23 48 12 54","location":"","city":"Beni Mellal"},{"name":"Pharmacie Populaire","address":"205, bd Laâyoune , 23000  BENI MELLAL","phone":"05 23 48 38 70","location":"","city":"Beni Mellal"},{"name":"Pharmacie Principale","address":"bd Vingt Août, Fadila 9 n°13 cplxe Oumnia BENI MELLAL","phone":"05 23 42 30 59","location":"","city":"Beni Mellal"},{"name":"Pharmacie Quartier Administratif","address":"hay Darkoum , bloc 7 n°14 BENI MELLAL","phone":"05 23 42 99 97","location":"","city":"Beni Mellal"},{"name":"Pharmacie Rabat","address":"Rue de Rabat , q. Elhouda, bloc 2 n°40 BENI MELLAL","phone":"05 23 48 28 51","location":"","city":"Beni Mellal"},{"name":"Pharmacie Rachdaoui","address":"quartier Al Atlas  BENI MELLAL","phone":"05 23 48 99 15","location":"","city":"Beni Mellal"},{"name":"Pharmacie Ram","address":"imm. Belle vue  BENI MELLAL","phone":"05 23 42 98 24","location":"","city":"Beni Mellal"},{"name":"Pharmacie Riad Essalam","address":"Riad Essalam  BENI MELLAL","phone":"05 23 42 96 47","location":"","city":"Beni Mellal"},{"name":"Pharmacie Rmila","address":"173, bd 9 Septembre  BENI MELLAL","phone":"05 23 48 56 60","location":"","city":"Beni Mellal"},{"name":"Pharmacie Sabraoui","address":"douar Lahlalma  BENI MELLAL","phone":"05 23 45 58 94","location":"","city":"Beni Mellal"},{"name":"Pharmacie Day","address":"326, av. Hassan II , 23000  BENI MELLAL","phone":"05 23 42 07 49","location":"https://www.telecontact.ma/plan-acces/pharmacie-day-/3125306/beni-mellal","city":"Beni Mellal"},{"name":"Pharmacie Dchira","address":"1, Bab ElKheir , 23000  BENI MELLAL","phone":"05 23 48 37 18","location":"https://www.telecontact.ma/plan-acces/pharmacie-dchira-/3125982/beni-mellal","city":"Beni Mellal"},{"name":"Pharmacie de la gare","address":"238, bd Mohammed V , 23000  BENI MELLAL","phone":"05 23 48 33 72","location":"https://www.telecontact.ma/plan-acces/pharmacie-de-la-gare-/0278800/beni-mellal","city":"Beni Mellal"},{"name":"Pharmacie des Cliniques","address":"bd. Abdelkrim ElKhattabi  BENI MELLAL","phone":"05 23 42 32 77","location":"https://www.telecontact.ma/plan-acces/pharmacie-des-cliniques-/3146959/beni-mellal","city":"Beni Mellal"},{"name":"Pharmacie des F.a.r.","address":"4, av. des F.a.r.  BENI MELLAL","phone":"05 23 48 15 46","location":"","city":"Beni Mellal"},{"name":"Pharmacie du Centre","address":"Ouled M'Barek  BENI MELLAL","phone":"05 23 46 02 02","location":"","city":"Beni Mellal"},{"name":"Pharmacie du marché","address":"84, place du Marché Ibn Batouta , 23000  BENI MELLAL","phone":"05 23 48 22 04","location":"","city":"Beni Mellal"},{"name":"Pharmacie du Maroc","address":"av. Taha Houcine , bloc 6 n°1, 23000  BENI MELLAL","phone":"05 23 48 25 40","location":"","city":"Beni Mellal"},{"name":"Pharmacie El Amryate","address":"1 Bis, rue Sebou , Amria 2 BENI MELLAL","phone":"05 23 42 49 32","location":"","city":"Beni Mellal"},{"name":"Pharmacie El Mamoune","address":"Lagichia  BENI MELLAL","phone":"06 62 70 35 80","location":"","city":"Beni Mellal"},{"name":"Pharmacie El Massira 1","address":"Quartier El Massira 1  BENI MELLAL","phone":"05 23 48 53 23","location":"","city":"Beni Mellal"},{"name":"Pharmacie El Massira 2","address":"route Bezzaza  BENI MELLAL","phone":"05 23 48 86 60","location":"","city":"Beni Mellal"},{"name":"Pharmacie ElAmal","address":"hay ElAmal , bloc 12 n°43 BENI MELLAL","phone":"05 23 48 49 14","location":"","city":"Beni Mellal"},{"name":"Pharmacie ElAmria","address":"83, av. des F.a.r. , 23000  BENI MELLAL","phone":"05 23 48 36 50","location":"","city":"Beni Mellal"},{"name":"Pharmacie Elhansali","address":"9, bd Ahmed Elhansali , 23000  BENI MELLAL","phone":"05 23 48 21 65","location":"","city":"Beni Mellal"},{"name":"Pharmacie ElHouda","address":"Quartier ElHouda , c. com. ElHouda n°20 BENI MELLAL","phone":"05 23 42 26 39","location":"","city":"Beni Mellal"},{"name":"Pharmacie ElMsalla","address":"Hay Aït Kourchi , rue 1 n°54, Ouled Ayad BENI MELLAL","phone":"05 23 42 27 09","location":"","city":"Beni Mellal"},{"name":"Pharmacie Ennajat","address":"av. Laayoune , n°151, bloc 15 hay El Houda BENI MELLAL","phone":"05 23 48 59 82","location":"","city":"Beni Mellal"},{"name":"Pharmacie Errazi","address":"14, bd Hassan II , 23000  BENI MELLAL","phone":"05 23 48 27 27","location":"","city":"Beni Mellal"},{"name":"Pharmacie Essomaa","address":"34, rue 1 quartier Soumia  BENI MELLAL","phone":"05 23 48 28 01","location":"","city":"Beni Mellal"},{"name":"Pharmacie Farabi","address":"Ighrem Laâlam , Bir Laksiba BENI MELLAL","phone":"05 23 44 74 39","location":"","city":"Beni Mellal"},{"name":"Pharmacie Feryata","address":"centre Feryata , caidat Tagrirt BENI MELLAL","phone":"05 23 48 97 40","location":"","city":"Beni Mellal"},{"name":"Pharmacie Foum Elanceur","address":"centre Foum Elanceur  BENI MELLAL","phone":"05 23 42 05 43","location":"","city":"Beni Mellal"},{"name":"Pharmacie Foum Oudi","address":"centre Foum Oudi  BENI MELLAL","phone":"05 23 46 15 36","location":"","city":"Beni Mellal"},{"name":"Pharmacie Ghanem","address":"av. Baghdad , Kasr Ghozafat, N°468,470 BENI MELLAL","phone":"05 23 48 96 04","location":"","city":"Beni Mellal"},{"name":"Pharmacie Hay Nour","address":"Ouled M'Barek  BENI MELLAL","phone":"05 23 46 17 86","location":"","city":"Beni Mellal"},{"name":"Pharmacie Hay Redouane","address":"lot Redouane  BENI MELLAL","phone":"05 23 48 51 03","location":"","city":"Beni Mellal"},{"name":"Pharmacie Salama","address":"21, av. Hassan II , 23000  BENI MELLAL","phone":"05 23 48 70 69","location":"https://www.telecontact.ma/plan-acces/pharmacie-salama-/0279300/beni-mellal","city":"Beni Mellal"},{"name":"Pharmacie Sidi Abdelhalim","address":"78, bd 9 Decembre , Asfat ElSerhani BENI MELLAL","phone":"05 23 48 72 02","location":"https://www.telecontact.ma/plan-acces/pharmacie-sidi-abdelhalim-/3146923/beni-mellal","city":"Beni Mellal"},{"name":"Pharmacie Sidi Aissa","address":"sidi Aissa , souk Sebt BENI MELLAL","phone":"05 23 43 08 68","location":"https://www.telecontact.ma/plan-acces/pharmacie-sidi-aissa-/3197124/beni-mellal","city":"Beni Mellal"},{"name":"Pharmacie Sidi Jaber","address":"cité Pam , rue 1 n°75 bis sidi Jaber BENI MELLAL","phone":"05 23 45 51 00","location":"https://www.telecontact.ma/plan-acces/pharmacie-sidi-jaber-/3197123/beni-mellal","city":"Beni Mellal"},{"name":"Pharmacie Taghzert","address":"centre Taghzert  BENI MELLAL","phone":"05 23 48 53 88","location":"https://www.telecontact.ma/plan-acces/pharmacie-taghzert-/3197121/beni-mellal","city":"Beni Mellal"},{"name":"Pharmacie Takadoum","address":"lot. Lbaraka , n°10, 23000  BENI MELLAL","phone":"05 23 48 69 49","location":"https://www.telecontact.ma/plan-acces/pharmacie-takadoum-/3126033/beni-mellal","city":"Beni Mellal"},{"name":"Pharmacie Tamagnount","address":"121, av Tamagnount  BENI MELLAL","phone":"05 23 48 18 92","location":"https://www.telecontact.ma/plan-acces/pharmacie-tamagnount-/3145965/beni-mellal","city":"Beni Mellal"},{"name":"Pharmacie Zakaria","address":"Ouled Ayad  BENI MELLAL","phone":"05 23 48 95 62","location":"https://www.telecontact.ma/plan-acces/pharmacie-zakaria-/3274042/beni-mellal","city":"Beni Mellal"},{"name":"Pharmacie Zanane","address":"414, av. Mohammed. V , 23000  BENI MELLAL","phone":"05 23 42 16 97","location":"https://www.telecontact.ma/plan-acces/pharmacie-zanane-/2117280/beni-mellal","city":"Beni Mellal"},{"name":"Pharmacie Zitoune","address":"17, av. AlQods , q. ElFadel II BENI MELLAL","phone":"05 23 48 68 49","location":"https://www.telecontact.ma/plan-acces/pharmacie-zitoune-/3146734/beni-mellal","city":"Beni Mellal"},{"name":"Pharmacie 20 Août","address":"2, bd du 20 Août , 23000  BENI MELLAL","phone":"05 23 48 31 01","location":"","city":"Beni Mellal"},{"name":"Pharmacie Chihab","address":"Lot. Mahrek 1 , bloc 6 n°8 BENI MELLAL","phone":"05 23 48 24 80","location":"https://www.telecontact.ma/plan-acces/pharmacie-chihab-/3146849/beni-mellal","city":"Beni Mellal"},{"name":"Pharmacie Chouhada","address":"hay El Massira 2  BENI MELLAL","phone":"05 23 48 88 12","location":"https://www.telecontact.ma/plan-acces/pharmacie-chouhada-/3274038/beni-mellal","city":"Beni Mellal"},{"name":"Pharmacie Dahbi","address":"16, av. des Far , résid. Nourane BENI MELLAL","phone":"05 23 48 44 59","location":"https://www.telecontact.ma/plan-acces/pharmacie-dahbi-/3145147/beni-mellal","city":"Beni Mellal"},{"name":"Pharmacie Dar Dbagh","address":"107, bd Nouakchot , rue 10 q. dar Dbagh BENI MELLAL","phone":"05 23 42 40 41","location":"https://www.telecontact.ma/plan-acces/pharmacie-dar-dbagh-/3197178/beni-mellal","city":"Beni Mellal"},{"name":"Pharmacie Dar Talib","address":"60, Bd. Rabat , lot Rizk, Hay Takadoum BENI MELLAL","phone":"05 23 42 00 72","location":"https://www.telecontact.ma/plan-acces/pharmacie-dar-talib-/3153678/beni-mellal","city":"Beni Mellal"},{"name":"Pharmacie La Santé","address":"140, bd AlMoutanabi  BENI MELLAL","phone":"05 23 48 55 74","location":"","city":"Beni Mellal"}]