[{"name":"Pharmacie El Hanaa","address":"bd Mohammed v  BERKANE","phone":"05 36 25 56 90","location":"https://www.telecontact.ma/plan-acces/pharmacie-el-hanaa-/3197060/berkane","city":"Berkane"},{"name":"Pharmacie El Harti","address":"15, rue El Madina ELmounaouara , hay Laayoune BERKANE","phone":"05 36 61 68 68","location":"https://www.telecontact.ma/plan-acces/pharmacie-el-harti-/3197059/berkane","city":"Berkane"},{"name":"Pharmacie El Hidaya","address":"rue El Hajeb , hay Massira 5° tranche BERKANE","phone":"05 36 61 52 47","location":"https://www.telecontact.ma/plan-acces/pharmacie-el-hidaya-/3197057/berkane","city":"Berkane"},{"name":"Pharmacie El Kadi Ayad","address":"12, hay Masjid  BERKANE","phone":"05 36 61 43 44","location":"https://www.telecontact.ma/plan-acces/pharmacie-el-kadi-ayad-/3306960/berkane","city":"Berkane"},{"name":"Pharmacie El Madina","address":"8, rue Michlifène , hay El Qods BERKANE","phone":"05 36 61 84 40","location":"https://www.telecontact.ma/plan-acces/pharmacie-el-madina-/3197053/berkane","city":"Berkane"},{"name":"Pharmacie El Majd","address":"57, lot El Majd , Rte de Saidia BERKANE","phone":"05 36 61 71 18","location":"https://www.telecontact.ma/plan-acces/pharmacie-el-majd-/3197050/berkane","city":"Berkane"},{"name":"Pharmacie El Mossalla","address":"6, rue Mly Idriss ang. rue El Karaouine, hay Boukraa BERKANE","phone":"05 36 61 61 01","location":"https://www.telecontact.ma/plan-acces/pharmacie-el-mossalla-/3197043/berkane","city":"Berkane"},{"name":"Pharmacie El Widadia","address":"196, bd. Palestine , hay ElAndalous BERKANE","phone":"05 36 23 14 00","location":"https://www.telecontact.ma/plan-acces/pharmacie-el-widadia-/3126617/berkane","city":"Berkane"},{"name":"Pharmacie ElMassira","address":"67, bd Chouhada , hay ElMassira BERKANE","phone":"05 36 61 84 79","location":"https://www.telecontact.ma/plan-acces/pharmacie-elmassira-/3107597/berkane","city":"Berkane"},{"name":"Pharmacie ElMekteb","address":"132, rue ElMenzel  BERKANE","phone":"05 36 61 28 55","location":"https://www.telecontact.ma/plan-acces/pharmacie-elmekteb-/3271928/berkane","city":"Berkane"},{"name":"Pharmacie Enasr","address":"hay Bougdine , n°150 El Aioun BERKANE","phone":"05 36 69 32 93","location":"","city":"Berkane"},{"name":"Pharmacie Ennour","address":"207, rue Laayoune , hay Moukawama BERKANE","phone":"05 36 61 45 90","location":"","city":"Berkane"},{"name":"Pharmacie Essaada","address":"87, bd Mohammed V  BERKANE","phone":"05 36 23 09 38","location":"","city":"Berkane"},{"name":"Pharmacie Fethi","address":"2, rue Palestine  BERKANE","phone":"05 36 61 30 64","location":"","city":"Berkane"},{"name":"Pharmacie Foufa","address":"10, rue Goulmime, hay El Qods BERKANE","phone":"05 36 61 36 48","location":"","city":"Berkane"},{"name":"Pharmacie Ghazouani","address":"37, bd Hassan II , douar Bouayad rte d'Alkim M'Gaad Ras BERKANE","phone":"05 36 25 64 82","location":"","city":"Berkane"},{"name":"Pharmacie Granada","address":"115, bd Chouhada , q. Al Massira, 63320  BERKANE","phone":"05 36 61 95 51","location":"","city":"Berkane"},{"name":"Pharmacie Handichi","address":"hay El Mohammadi , rue 605 n°50 BERKANE","phone":"05 36 61 56 61","location":"","city":"Berkane"},{"name":"Pharmacie Hay Al Amal","address":"68, bd Al Yarmouk , hay Al Amal BERKANE","phone":"05 36 61 79 86","location":"","city":"Berkane"},{"name":"Pharmacie hay Elqods","address":"51, rue Aïn Soltan , hay Elqods BERKANE","phone":"05 36 61 23 36","location":"","city":"Berkane"},{"name":"Pharmacie Bouyakchar","address":"102, rue souk hebdomadaire  BERKANE","phone":"05 36 23 06 71","location":"https://www.telecontact.ma/plan-acces/pharmacie-bouyakchar-/3197071/berkane","city":"Berkane"},{"name":"Pharmacie Cheraa","address":"26, rue Cheraa , hay Saada BERKANE","phone":"05 36 61 61 22","location":"https://www.telecontact.ma/plan-acces/pharmacie-cheraa-/3197070/berkane","city":"Berkane"},{"name":"Pharmacie Chifae","address":"125, rue El Wifaq , hay Salam BERKANE","phone":"05 36 61 24 77","location":"https://www.telecontact.ma/plan-acces/pharmacie-chifae-/3197068/berkane","city":"Berkane"},{"name":"Pharmacie Chourak","address":"6, bd oued Draa , hay Errachad BERKANE","phone":"05 36 61 80 08","location":"https://www.telecontact.ma/plan-acces/pharmacie-chourak-/3197066/berkane","city":"Berkane"},{"name":"Pharmacie de l'Hôpital","address":"91, bd. Sultan My Mhamed  BERKANE","phone":"05 36 61 39 90","location":"","city":"Berkane"},{"name":"Pharmacie de l'Oriental","address":"49, bd Sultan Mly M'hamed  BERKANE","phone":"05 36 61 20 48","location":"","city":"Berkane"},{"name":"Pharmacie du Complexe Sportif","address":"225, rue AlAzhar , hay Almajd BERKANE","phone":"05 36 61 11 11","location":"https://www.telecontact.ma/plan-acces/pharmacie-du-complexe-sportif-/3298661/berkane","city":"Berkane"},{"name":"Pharmacie du Souk","address":"lotiss. Kassmi , Aklim BERKANE","phone":"05 36 63 41 04","location":"","city":"Berkane"},{"name":"Pharmacie Edderak","address":"19, bd de la Victoire  BERKANE","phone":"05 36 61 75 76","location":"","city":"Berkane"},{"name":"Pharmacie El Ahmadi","address":"rte Ras El Ma, n°11 bloc 1 hay Boudila BERKANE","phone":"05 36 61 39 98","location":"","city":"Berkane"},{"name":"Pharmacie El Baraka","address":"hay Pam, Laâtamna BERKANE","phone":"05 36 25 01 72","location":"","city":"Berkane"},{"name":"Pharmacie Hay Lahbil","address":"2, rue El Bristane , hay Lahbil Sidi Slimane BERKANE","phone":"05 36 25 57 57","location":"","city":"Berkane"},{"name":"Pharmacie Ibn Lbaytar","address":"21, rue Ibn Arabi , hay Eryad BERKANE","phone":"05 36 61 54 06","location":"","city":"Berkane"},{"name":"Pharmacie Ibn Sina","address":"1, av. Ibnou Sina  BERKANE","phone":"05 36 61 26 89","location":"","city":"Berkane"},{"name":"Pharmacie Ismaili","address":"238, rue Laayoune , hay Moukawama BERKANE","phone":"05 36 61 86 00","location":"","city":"Berkane"},{"name":"Pharmacie Jamaa El Kebir","address":"centre Aklim , bloc 2 n°160 BERKANE","phone":"05 36 63 40 78","location":"","city":"Berkane"},{"name":"Pharmacie Karrakchou","address":"bd Fès, mosquée Mirage q. Al Wahda BERKANE","phone":"05 36 61 12 42","location":"","city":"Berkane"},{"name":"Pharmacie Khaiber","address":"184, hay Zitoune, lotiss. Khaiber BERKANE","phone":"05 36 61 63 62","location":"","city":"Berkane"},{"name":"Pharmacie Khalid Ibnou El Walid","address":"hay El Moukawama , rue 387 n°35 BERKANE","phone":"05 36 61 20 20","location":"","city":"Berkane"},{"name":"Pharmacie Kharrouba","address":"Madagh  BERKANE","phone":"05 36 64 53 53","location":"","city":"Berkane"},{"name":"Pharmacie Tzaiest","address":"centre Tzaiest , Caidat Beni Ourinech BERKANE","phone":"05 36 61 75 52","location":"https://www.telecontact.ma/plan-acces/pharmacie-tzaiest-/3196972/berkane","city":"Berkane"},{"name":"Pharmacie Zegzel","address":"hay Tazaghine , Rte Zegzel BERKANE","phone":"05 36 25 67 76","location":"https://www.telecontact.ma/plan-acces/pharmacie-zegzel-/3340740/berkane","city":"Berkane"},{"name":"Pharmacie Zoheir","address":"rte Ourtass Principale , hay Zellaqa BERKANE","phone":"05 36 61 16 16","location":"https://www.telecontact.ma/plan-acces/pharmacie-zoheir-/3197257/berkane","city":"Berkane"},{"name":"Grande  Pharmacie Centrale","address":"20, bd Chouhada , 60300  BERKANE","phone":"05 36 61 20 08","location":"https://www.telecontact.ma/plan-acces/grande-pharmacie-centrale-/0318100/berkane","city":"Berkane"},{"name":"Pharmacie 19 Mai","address":"107, rue El Majd , hay Safaa BERKANE","phone":"05 36 61 46 15","location":"https://www.telecontact.ma/plan-acces/pharmacie-19-mai-/3197114/berkane","city":"Berkane"},{"name":"Pharmacie Abdellah","address":"46 Bis, av. Mly Youssef , hay Saada BERKANE","phone":"05 36 61 13 73","location":"https://www.telecontact.ma/plan-acces/pharmacie-abdellah-/3197113/berkane","city":"Berkane"},{"name":"Pharmacie Abdellaoui","address":"3, rue Taif , hay El Amal BERKANE","phone":"05 36 61 36 36","location":"https://www.telecontact.ma/plan-acces/pharmacie-abdellaoui-/3274073/berkane","city":"Berkane"},{"name":"Pharmacie Abou ElKhayr","address":"4, rue Azrou  BERKANE","phone":"05 36 61 32 32","location":"https://www.telecontact.ma/plan-acces/pharmacie-abou-elkhayr-/3174976/berkane","city":"Berkane"},{"name":"Pharmacie Ain Reggada","address":"Marché Couvert , Reggada BERKANE","phone":"05 36 62 03 19","location":"","city":"Berkane"},{"name":"Pharmacie Al Ahram","address":"hay Al Ahram  BERKANE","phone":"05 36 61 73 36","location":"","city":"Berkane"},{"name":"Pharmacie Al Farah","address":"5, bd Mohamed V , hay Al Farah rte de Nador BERKANE","phone":"05 36 25 79 92","location":"","city":"Berkane"},{"name":"Pharmacie Al Hambra","address":"28 Bis, bd El Ahram , hay El Massira BERKANE","phone":"05 36 61 91 25","location":"","city":"Berkane"},{"name":"Pharmacie Al Khalil","address":"26, rue Afourar , hay Massira BERKANE","phone":"05 36 61 56 56","location":"","city":"Berkane"},{"name":"Pharmacie Al Moumene","address":"81, rue Tétouan , hay Hamza BERKANE","phone":"05 36 61 70 70","location":"","city":"Berkane"},{"name":"Pharmacie Anas Ibnou Malek","address":"douar Wartass  BERKANE","phone":"05 36 61 77 61","location":"","city":"Berkane"},{"name":"Pharmacie Andalous","address":"rue Zerhoun , ang. rue Béni Znassen BERKANE","phone":"05 36 61 35 47","location":"","city":"Berkane"},{"name":"Pharmacie Bachiri","address":"337, bd. Hassan II  BERKANE","phone":"05 36 61 21 45","location":"","city":"Berkane"},{"name":"Pharmacie Bd Mohammed V","address":"87, bd Mohammed V  BERKANE","phone":"05 36 61 29 89","location":"","city":"Berkane"},{"name":"Pharmacie Belfilali","address":"51 Bis, rue Al Madina Elmounaouara  BERKANE","phone":"05 36 23 04 28","location":"","city":"Berkane"},{"name":"Pharmacie Bellamine","address":"50, bd Bni Atiq , hay Moulouya BERKANE","phone":"05 36 61 86 79","location":"","city":"Berkane"}]