[{"name":"Pharmacie Ezzahra","address":"68, bd Hassan ibnou Tabit , lot Ezzahra, 26100  BERRECHID","phone":"05 22 32 80 39","location":"https://www.telecontact.ma/plan-acces/pharmacie-ezzahra-/2226422/berrechid","city":"Berrechid"},{"name":"Pharmacie Faïza","address":"14, rue Oued Zem , bloc B hay Hassani, 26100  BERRECHID","phone":"05 22 53 40 50","location":"","city":"Berrechid"},{"name":"Pharmacie Fatima","address":"rue Okba Bnou Nafia ang. rue Médina, 26100  BERRECHID","phone":"05 22 33 77 77","location":"https://www.telecontact.ma/plan-acces/pharmacie-fatima-/2146875/berrechid","city":"Berrechid"},{"name":"Pharmacie Hania","address":"rte Had Soualem , R 318 BERRECHID","phone":"05 22 51 67 67","location":"https://www.telecontact.ma/plan-acces/pharmacie-hania-/3337006/berrechid","city":"Berrechid"},{"name":"Pharmacie Hay Al Massira","address":"8, bd des F.a.r., lot. Al Amal, 26100  BERRECHID","phone":"05 22 32 75 51","location":"https://www.telecontact.ma/plan-acces/pharmacie-hay-al-massira-/3188542/berrechid","city":"Berrechid"},{"name":"Pharmacie Hay Elfaraj","address":"Lotiss. ElFaraj  BERRECHID","phone":"05 22 53 49 09","location":"https://www.telecontact.ma/plan-acces/pharmacie-hay-elfaraj-/3319321/berrechid","city":"Berrechid"},{"name":"Pharmacie Hay Hassani","address":"239, bd Hassan II , 26100  BERRECHID","phone":"05 22 33 61 61","location":"https://www.telecontact.ma/plan-acces/pharmacie-hay-hassani-/2134747/berrechid","city":"Berrechid"},{"name":"Pharmacie Ibn Rochd","address":"30, rue Mly Idriss AlAzhar , 26100  BERRECHID","phone":"05 22 32 70 47","location":"https://www.telecontact.ma/plan-acces/pharmacie-ibn-rochd-/3061870/berrechid","city":"Berrechid"},{"name":"Pharmacie Ilham","address":"63, bd Charif Radi , lotiss. Massira Al Khadra II, 26100  BERRECHID","phone":"05 22 53 43 14","location":"https://www.telecontact.ma/plan-acces/pharmacie-ilham-/3037615/berrechid","city":"Berrechid"},{"name":"Pharmacie Imane","address":"Hay Hassani , bloc D n°5, 26100  BERRECHID","phone":"05 22 32 77 44","location":"https://www.telecontact.ma/plan-acces/pharmacie-imane-/3188653/berrechid","city":"Berrechid"},{"name":"Pharmacie Isis","address":"143, lotiss. Wafiq , 26100  BERRECHID","phone":"05 22 53 31 71","location":"https://www.telecontact.ma/plan-acces/pharmacie-isis-/3188649/berrechid","city":"Berrechid"},{"name":"Pharmacie Kadi","address":"lotissement Zoubida , n°147 c.com Zoubida BERRECHID","phone":"05 22 33 79 44","location":"","city":"Berrechid"},{"name":"Pharmacie Khadraoui","address":"642, rue Med El Haloui , Tissir II, 26100  BERRECHID","phone":"05 22 32 87 30","location":"","city":"Berrechid"},{"name":"Pharmacie Kolenas","address":"104, rue Halab , lot 264 Tissir I, 26100  BERRECHID","phone":"05 22 32 80 53","location":"","city":"Berrechid"},{"name":"Pharmacie Layali","address":"99, Lotiss. Layali , bd Abderrahmane Sahraoui BERRECHID","phone":"05 22 32 42 30","location":"","city":"Berrechid"},{"name":"Pharmacie Lotissement Jabrane","address":"hay Hassani, n° 72 BERRECHID","phone":"06 15 24 22 23","location":"","city":"Berrechid"},{"name":"Pharmacie Malaika","address":"hay Moulay Rachid, mosquée Rayan n°5 et 6 BERRECHID","phone":"05 22 33 63 57","location":"","city":"Berrechid"},{"name":"Pharmacie Marhaba","address":"26, bd Brahim Roudani , hay Wafik, 26100  BERRECHID","phone":"05 22 33 61 83","location":"","city":"Berrechid"},{"name":"Pharmacie Marocaine","address":"Lotiss Ben Massaoud 2 , Hay Raha, 26100  BERRECHID","phone":"05 22 32 63 63","location":"","city":"Berrechid"},{"name":"Pharmacie Mosquée Riad","address":"Coopérative Ouled Hriz , 26100  BERRECHID","phone":"05 22 33 68 22","location":"","city":"Berrechid"},{"name":"Pharmacie Docteur ElMais","address":"129, bd Omar Abou Richa , 26100  BERRECHID","phone":"06 12 17 71 85","location":"https://www.telecontact.ma/plan-acces/pharmacie-docteur-elmais-/3188699/berrechid","city":"Berrechid"},{"name":"Pharmacie Driss Lahrizi","address":"554, bd Driss Lahrizi , hay Hassani, 26100  BERRECHID","phone":"05 22 33 69 21","location":"https://www.telecontact.ma/plan-acces/pharmacie-driss-lahrizi-/2157057/berrechid","city":"Berrechid"},{"name":"Pharmacie du souk","address":"bd. Abdellah Chefchaouni , hay Hassani, 26100  BERRECHID","phone":"05 22 33 71 41","location":"https://www.telecontact.ma/plan-acces/pharmacie-du-souk-/2157047/berrechid","city":"Berrechid"},{"name":"Pharmacie El Baraka","address":"37, rue Omar Ben Abdelaziz , 26100  BERRECHID","phone":"05 22 53 45 28","location":"https://www.telecontact.ma/plan-acces/pharmacie-el-baraka-/3037712/berrechid","city":"Berrechid"},{"name":"Pharmacie El Fath","address":"460, bd Rahal El Meskini , 26100  BERRECHID","phone":"05 22 33 71 15","location":"https://www.telecontact.ma/plan-acces/pharmacie-el-fath-/2157044/berrechid","city":"Berrechid"},{"name":"Pharmacie El Iraki","address":"267, rue Dakhla , 26100  BERRECHID","phone":"05 22 32 83 45","location":"https://www.telecontact.ma/plan-acces/pharmacie-el-iraki-/3005879/berrechid","city":"Berrechid"},{"name":"Pharmacie El Menzeh","address":"hay Errabii , résid. El Menzeh imm.A n°5 BERRECHID","phone":"05 22 32 82 87","location":"https://www.telecontact.ma/plan-acces/pharmacie-el-menzeh-/3332381/berrechid","city":"Berrechid"},{"name":"Pharmacie ElKissaria","address":"35, Ali Ibn Talib , 26100  BERRECHID","phone":"05 22 53 36 84","location":"https://www.telecontact.ma/plan-acces/pharmacie-elkissaria-/3191598/berrechid","city":"Berrechid"},{"name":"Pharmacie ElOualidaine","address":"Zaouia de Nouasser , 26100  BERRECHID","phone":"05 22 33 47 79","location":"","city":"Berrechid"},{"name":"Pharmacie Errabii","address":"173, bd. Hiraa , lotiss. Errabii BERRECHID","phone":"05 22 33 69 00","location":"","city":"Berrechid"},{"name":"Pharmacie Arrazi","address":"118 Bis, bd Bir Anzarane , 26100  BERRECHID","phone":"05 22 32 68 39","location":"https://www.telecontact.ma/plan-acces/pharmacie-arrazi-/3188656/berrechid","city":"Berrechid"},{"name":"Pharmacie Assiha","address":"320, bd Idrissi Lahrizi , hay Erraha, 26100  BERRECHID","phone":"05 22 32 51 95","location":"https://www.telecontact.ma/plan-acces/pharmacie-assiha-/3037608/berrechid","city":"Berrechid"},{"name":"Pharmacie Assila","address":"35, hay El Hassani , bloc H, 26100  BERRECHID","phone":"05 22 53 47 81","location":"https://www.telecontact.ma/plan-acces/pharmacie-assila-/3061880/berrechid","city":"Berrechid"},{"name":"Pharmacie Attanaouia","address":"123, bd AlMoukaouama , lot Ennour, 26100  BERRECHID","phone":"05 22 32 45 94","location":"https://www.telecontact.ma/plan-acces/pharmacie-attanaouia-/3037703/berrechid","city":"Berrechid"},{"name":"Pharmacie Avicenne","address":"37, bd. Omar ElKhayam, Hay ElHouda , 26100  BERRECHID","phone":"05 22 53 43 29","location":"https://www.telecontact.ma/plan-acces/pharmacie-avicenne-/3037646/berrechid","city":"Berrechid"},{"name":"Pharmacie Bab Berrechid","address":"1, bd Mohammed VI, lotiss. Al Akhawayn, lalayi 2 BERRECHID","phone":"06 82 22 61 55","location":"","city":"Berrechid"},{"name":"Pharmacie Badr","address":"161, rue Rahal Meskini , bloc H, 26100  BERRECHID","phone":"05 22 32 86 72","location":"","city":"Berrechid"},{"name":"Pharmacie Berrechid","address":"93, bd. Mohammed V , Cité ElKadiri, 26100  BERRECHID","phone":"05 22 32 40 68","location":"","city":"Berrechid"},{"name":"Pharmacie Bir Anzarane","address":"bd Bir Anzarane , cplxe Riad Benchaib, imm.3 n°21, 26100  BERRECHID","phone":"05 22 53 33 53","location":"","city":"Berrechid"},{"name":"Pharmacie Chaouia","address":"182, av Moulay Ismail , 26102  BERRECHID","phone":"05 22 33 72 29","location":"","city":"Berrechid"},{"name":"Pharmacie Chifaa","address":"17, rue Bir Anzarane , 26100  BERRECHID","phone":"05 22 33 79 62","location":"","city":"Berrechid"},{"name":"Pharmacie Conservation","address":"18, rue de la Gare , Lotiss. Laamiri, 26100  BERRECHID","phone":"05 22 32 45 71","location":"","city":"Berrechid"},{"name":"Pharmacie de Médina","address":"86, rue de Médina , 26100  BERRECHID","phone":"05 22 33 71 33","location":"","city":"Berrechid"},{"name":"Pharmacie des Familles","address":"229, bd Abdellah Echafchaouni , bloc \"F\", hay Hassani, 26100  BERRECHID","phone":"05 22 32 58 23","location":"","city":"Berrechid"},{"name":"Pharmacie Al Houria","address":"7, bd Al Houria , Tissir I, 26100  BERRECHID","phone":"05 22 32 83 28","location":"https://www.telecontact.ma/plan-acces/pharmacie-al-houria-/2211514/berrechid","city":"Berrechid"},{"name":"Pharmacie Al Izdihar","address":"hay El Izdihar, n° 141 BERRECHID","phone":"05 22 32 54 61","location":"https://www.telecontact.ma/plan-acces/pharmacie-al-izdihar-/3336467/berrechid","city":"Berrechid"},{"name":"Pharmacie Al Manar","address":"45, bd Moulay Ismaïl , 26100  BERRECHID","phone":"05 22 33 76 00","location":"https://www.telecontact.ma/plan-acces/pharmacie-al-manar-/2114527/berrechid","city":"Berrechid"},{"name":"Pharmacie Al Mandar Al Jamil","address":"quartier Al Mandar Al Jamil , n°42 BERRECHID","phone":"05 22 32 85 85","location":"https://www.telecontact.ma/plan-acces/pharmacie-al-mandar-al-jamil-/3188639/berrechid","city":"Berrechid"},{"name":"Pharmacie Al Matar","address":"25, bd Ghandi , lotiss. Benssy, 26100  BERRECHID","phone":"05 22 53 42 33","location":"https://www.telecontact.ma/plan-acces/pharmacie-al-matar-/3037761/berrechid","city":"Berrechid"},{"name":"Pharmacie Al Mouna","address":"71, rue Ibn Roumi , hay Al Wahda, 26100  BERRECHID","phone":"05 22 32 62 63","location":"https://www.telecontact.ma/plan-acces/pharmacie-al-mouna-/3145422/berrechid","city":"Berrechid"},{"name":"Pharmacie Al-Oum","address":"52, bd ElHouria, Maghrib Eljadid , 26100  BERRECHID","phone":"05 22 32 41 76","location":"https://www.telecontact.ma/plan-acces/pharmacie-al-oum-/2156993/berrechid","city":"Berrechid"},{"name":"Pharmacie AlFalah","address":"209, bd Rachidi , Tissir II, 26100  BERRECHID","phone":"05 22 33 74 64","location":"https://www.telecontact.ma/plan-acces/pharmacie-alfalah-/3188787/berrechid","city":"Berrechid"},{"name":"Pharmacie AlHamd","address":"lotiss. Almandar Aljamil , bd Mennan, n°146G, 26100  BERRECHID","phone":"05 22 53 32 82","location":"https://www.telecontact.ma/plan-acces/pharmacie-alhamd-/3188239/berrechid","city":"Berrechid"},{"name":"Pharmacie AlHikma","address":"Lotis. ElYousr , lot.35 n°41, 26100  BERRECHID","phone":"05 22 53 31 21","location":"https://www.telecontact.ma/plan-acces/pharmacie-alhikma-/3040250/berrechid","city":"Berrechid"},{"name":"Pharmacie Alia","address":"4, bd Mohammed V , imm. F cité ElWahda, 26100  BERRECHID","phone":"05 22 32 48 38","location":"https://www.telecontact.ma/plan-acces/pharmacie-alia-/3037611/berrechid","city":"Berrechid"},{"name":"Pharmacie AlIhsane","address":"20, bd Mohammed V , résid. la Gare, 26100  BERRECHID","phone":"05 22 32 65 79","location":"https://www.telecontact.ma/plan-acces/pharmacie-alihsane-/3188691/berrechid","city":"Berrechid"},{"name":"Pharmacie AlMasjid","address":"rue Yacoub Almansour , imm. Habous, 26100  BERRECHID","phone":"05 22 33 75 58","location":"https://www.telecontact.ma/plan-acces/pharmacie-almasjid-/2186381/berrechid","city":"Berrechid"},{"name":"Pharmacie AlWahda","address":"257, bd Brahim Roudani , lotiss. Al Wahda, 26100  BERRECHID","phone":"05 22 32 40 76","location":"https://www.telecontact.ma/plan-acces/pharmacie-alwahda-/2198329/berrechid","city":"Berrechid"},{"name":"Pharmacie Arafat","address":"hay El Houda  BERRECHID","phone":"05 22 32 84 94","location":"https://www.telecontact.ma/plan-acces/pharmacie-arafat-/3274883/berrechid","city":"Berrechid"},{"name":"Pharmacie Mouaouia","address":"226, bd Abdellah Guennoun , rue Yasmina, 26100  BERRECHID","phone":"05 22 53 38 77","location":"https://www.telecontact.ma/plan-acces/pharmacie-mouaouia-/3188240/berrechid","city":"Berrechid"},{"name":"Pharmacie Nadia","address":"9, passage port Saïd , Tissir 1 BERRECHID","phone":"05 22 32 82 02","location":"https://www.telecontact.ma/plan-acces/pharmacie-nadia-/3339705/berrechid","city":"Berrechid"},{"name":"Pharmacie Najah","address":"156, bd Mohammed V , 26100  BERRECHID","phone":"05 22 33 74 04","location":"https://www.telecontact.ma/plan-acces/pharmacie-najah-/2134746/berrechid","city":"Berrechid"}]