[{"name":"Pharmacie les Familles","address":"av Kadi Ayad  BOUJDOUR","phone":"05 28 88 03 18","location":"https://www.telecontact.ma/plan-acces/pharmacie-les-familles-/3237987/boujdour","city":"Boujdour"},{"name":"Pharmacie Populaire","address":"39, bd Hassan II  BOUJDOUR","phone":"05 28 89 69 69","location":"https://www.telecontact.ma/plan-acces/pharmacie-populaire-/3196909/boujdour","city":"Boujdour"},{"name":"Grande  Pharmacie","address":"108, av Hassan II  BOUJDOUR","phone":"05 28 89 60 07","location":"https://www.telecontact.ma/plan-acces/grande-pharmacie-/3196918/boujdour","city":"Boujdour"},{"name":"Pharmacie Boujdour","address":"16, av. Mohammed V  BOUJDOUR","phone":"05 28 89 64 64","location":"https://www.telecontact.ma/plan-acces/pharmacie-boujdour-/3196917/boujdour","city":"Boujdour"},{"name":"Pharmacie El Khair","address":"boulevard Naaimia  BOUJDOUR","phone":"05 28 88 00 48","location":"https://www.telecontact.ma/plan-acces/pharmacie-el-khair-/3196914/boujdour","city":"Boujdour"},{"name":"Pharmacie la Corniche","address":"av. Mohammed V  BOUJDOUR","phone":"05 28 89 61 74","location":"https://www.telecontact.ma/plan-acces/pharmacie-la-corniche-/3196912/boujdour","city":"Boujdour"}]