[{"name":"Pharmacie Achorafaa","address":"6 A, Bouskoura centre  BOUSKOURA","phone":"06 61 10 75 86","location":"https://www.telecontact.ma/plan-acces/pharmacie-achorafaa-/3058475/bouskoura","city":"Bouskoura"},{"name":"Pharmacie Al Hamd","address":"2, z.i. Oulad Saleh  BOUSKOURA","phone":"05 22 59 00 64","location":"https://www.telecontact.ma/plan-acces/pharmacie-al-hamd-/3276432/bouskoura","city":"Bouskoura"},{"name":"Pharmacie Al Miftah","address":"lotiss Lahwami , rue 16 n°10 BOUSKOURA","phone":"05 22 32 01 24","location":"","city":"Bouskoura"},{"name":"Pharmacie Annassira","address":"douar AlFokra , km16, 20180  BOUSKOURA","phone":"05 22 32 03 01","location":"","city":"Bouskoura"},{"name":"Pharmacie Chaimae","address":"douar Rmal Lahlal  BOUSKOURA","phone":"05 22 32 01 92","location":"","city":"Bouskoura"},{"name":"Pharmacie Chokr","address":"douar Ouled Malek , km 14 BOUSKOURA","phone":"05 22 59 03 81","location":"","city":"Bouskoura"},{"name":"Pharmacie Dawaa","address":"route de Médiouna, km 12, Q. Sbata, 20452  BOUSKOURA","phone":"05 22 97 03 96","location":"","city":"Bouskoura"},{"name":"Pharmacie Eden Bouskoura","address":"Ouled Ben Amer  BOUSKOURA","phone":"05 22 32 01 03","location":"","city":"Bouskoura"},{"name":"Pharmacie El Malki","address":"route de Médiouna, douar Lamkansa, bloc D, rue 14 n°10, 20480  BOUSKOURA","phone":"05 22 52 59 29","location":"","city":"Bouskoura"},{"name":"Pharmacie ElMasjid","address":"Bouskoura Centre , 20180  BOUSKOURA","phone":"05 22 59 04 01","location":"","city":"Bouskoura"},{"name":"Pharmacie Enassiha","address":"bd Mohammed VI, hay Mkanssa I bloc c rue 10 n° 23, 20480  BOUSKOURA","phone":"05 22 97 01 57","location":"","city":"Bouskoura"},{"name":"Pharmacie Ibn Rochd","address":"hay ElJamaâ , n°2, 20180  BOUSKOURA","phone":"05 22 33 42 67","location":"","city":"Bouskoura"},{"name":"Pharmacie Ichrak","address":"rte 109 , km 15, Oulad Ben Ameur, 20180  BOUSKOURA","phone":"05 22 32 04 39","location":"","city":"Bouskoura"},{"name":"Pharmacie Kenz Bouskoura","address":"lotiss. Izdihar , bloc 1 BOUSKOURA","phone":"05 22 78 20 21","location":"","city":"Bouskoura"},{"name":"Pharmacie Laamamra","address":"douar Laamamra , mosquée Al Kawtar Oulad Saleh BOUSKOURA","phone":"05 22 33 44 15","location":"","city":"Bouskoura"},{"name":"Pharmacie Lahfaya","address":"rte Mediouna , km 10, Mekanssa 1, 20480  BOUSKOURA","phone":"05 22 97 03 80","location":"","city":"Bouskoura"},{"name":"Pharmacie Lamzabienne","address":"douar Lamzabienne , ouled kadi BOUSKOURA","phone":"05 22 59 10 95","location":"","city":"Bouskoura"},{"name":"Pharmacie Maria","address":"Bouskoura centre  BOUSKOURA","phone":"05 22 33 46 61","location":"","city":"Bouskoura"},{"name":"Pharmacie Parc Ib","address":"Parc Industriel Cfcim , lot. n° 95 n°1, 20180  BOUSKOURA","phone":"05 22 59 23 59","location":"","city":"Bouskoura"},{"name":"Pharmacie Pharmaparc","address":"Park Industriel de Ouled Saleh  BOUSKOURA","phone":"05 22 32 09 59","location":"","city":"Bouskoura"}]