[{"name":"Pharmacie Tafilalet","address":"45, bd Hassan II , 13100  BOUZNIKA","phone":"05 37 64 92 68","location":"https://www.telecontact.ma/plan-acces/pharmacie-tafilalet-/3080160/bouznika","city":"Bouznika"},{"name":"Pharmacie Tazi","address":"Hay Riad n째110 , 13100  BOUZNIKA","phone":"05 37 74 59 84","location":"https://www.telecontact.ma/plan-acces/pharmacie-tazi-/3213012/bouznika","city":"Bouznika"},{"name":"Pharmacie Wardigha","address":"901, hay Riad  BOUZNIKA","phone":"05 37 74 55 71","location":"","city":"Bouznika"},{"name":"Pharmacie Yassin","address":"47, hay Mly Idriss Al Akbar  BOUZNIKA","phone":"05 37 74 57 63","location":"","city":"Bouznika"},{"name":"Pharmacie Zahra","address":"rue ElHouria , n째111 N'Bichatte, 13100  BOUZNIKA","phone":"05 37 74 51 93","location":"","city":"Bouznika"},{"name":"Pharmacie AlAmal","address":"59, av. Bir Anzarane , 13100  BOUZNIKA","phone":"05 37 74 59 90","location":"","city":"Bouznika"},{"name":"Pharmacie Azir","address":"513, hay Essalam  BOUZNIKA","phone":"05 37 74 54 36","location":"","city":"Bouznika"},{"name":"Pharmacie Bic-Mar","address":"43, rue Khnifra, lot.Othmane , 13100  BOUZNIKA","phone":"05 37 74 50 75","location":"","city":"Bouznika"},{"name":"Pharmacie Bir Anzarane","address":"205, bloc communal, bd Bir Anzarane , 13100  BOUZNIKA","phone":"05 37 74 35 33","location":"","city":"Bouznika"},{"name":"Pharmacie Bismillah","address":"1361, Hay Riad  BOUZNIKA","phone":"05 37 64 91 45","location":"","city":"Bouznika"},{"name":"Pharmacie Centrale de Bouznika","address":"av Hassan II ang. av Bir Anzarane, 13100  BOUZNIKA","phone":"05 37 64 91 63","location":"","city":"Bouznika"},{"name":"Pharmacie de Bouznika","address":"513, Bd Bir Anzarane ang. rue Oued Eddahab , 13100  BOUZNIKA","phone":"06 61 15 34 91","location":"","city":"Bouznika"},{"name":"Pharmacie de la famille","address":"bd Hassan II, hay Othmane , groupe 1, n째4, 13100  BOUZNIKA","phone":"05 37 74 55 51","location":"","city":"Bouznika"},{"name":"Pharmacie ElHouda","address":"55, bd la Victoire , hay Riad, 13100  BOUZNIKA","phone":"05 37 64 91 95","location":"","city":"Bouznika"},{"name":"Pharmacie Eucalyptus","address":"281, Hay Riad , 13100  BOUZNIKA","phone":"05 37 74 55 98","location":"","city":"Bouznika"},{"name":"Pharmacie Harim","address":"59, Avenue Hassan II , imm. Harim, 13100  BOUZNIKA","phone":"05 37 74 31 02","location":"","city":"Bouznika"},{"name":"Pharmacie Hay Essalam","address":"615, hay Essalam, rte de Benslimane BOUZNIKA","phone":"05 37 64 91 16","location":"","city":"Bouznika"},{"name":"Pharmacie Hay Othmane","address":"hay Othmane , lot 45, rue Tiznit n째24, 13100  BOUZNIKA","phone":"05 37 74 30 53","location":"","city":"Bouznika"},{"name":"Pharmacie Hay Riad","address":"1065, av. Bir Anzarane , 13100  BOUZNIKA","phone":"05 37 64 95 64","location":"","city":"Bouznika"},{"name":"Pharmacie Ibn Rochd","address":"96, bd Bir Anzarane , hay ElAmal, 13100  BOUZNIKA","phone":"05 37 74 37 04","location":"","city":"Bouznika"}]