[{"name":"Univers Rangement","address":"52, lotiss. Kadiria , Lissasfa, 20190  CASABLANCA","phone":"05 22 65 09 74","location":"https://www.telecontact.ma/plan-acces/univers-rangement-/2200893/casablanca","city":"Casablanca"},{"name":"Pharmacie Dennay","address":"hay Sidi Moumen, Dyar Essaâda, mag. n°1 et 3, Q. Sidi Moumen, 20400  CASABLANCA","phone":"05 22 70 90 79","location":"https://www.telecontact.ma/plan-acces/pharmacie-dennay-/3098605/casablanca","city":"Casablanca"},{"name":"Pharmacie Derb Bouchentouf","address":"derb Bouchentouf, rue 40 n°223, Q. Nouvelle Médina, 20550  CASABLANCA","phone":"05 22 28 45 24","location":"https://www.telecontact.ma/plan-acces/pharmacie-derb-bouchentouf-/2110267/casablanca","city":"Casablanca"},{"name":"Pharmacie Derb Elkabir","address":"262, bd El Mahata -ex La Croix, lot.Ouled Ziane, Q. Hay El Farah, 20530  CASABLANCA","phone":"05 22 80 41 69","location":"https://www.telecontact.ma/plan-acces/pharmacie-derb-elkabir-/1625800/casablanca","city":"Casablanca"},{"name":"Pharmacie Derb Omar","address":"14, rue Oulad Ziane, passage Souak, Q. Derb Omar, 20090  CASABLANCA","phone":"05 22 30 56 73","location":"https://www.telecontact.ma/plan-acces/pharmacie-derb-omar-/3077958/casablanca","city":"Casablanca"},{"name":"Pharmacie Derb Sultan","address":"Derb Baladia (nvlle médina), rue Chaouia, n°24/25/26, Q. Nouvelle Médina CASABLANCA","phone":"05 22 82 82 10","location":"https://www.telecontact.ma/plan-acces/pharmacie-derb-sultan-/3263153/casablanca","city":"Casablanca"},{"name":"Pharmacie derb Takadoum","address":"hay Takadoum, rue 26 n°5, Q. Hay Mohammadi, 20570  CASABLANCA","phone":"05 22 61 31 10","location":"https://www.telecontact.ma/plan-acces/pharmacie-derb-takadoum-/2171593/casablanca","city":"Casablanca"},{"name":"Pharmacie Derb Tazi","address":"22, rue de Tiznit , Q. Bourgogne, 20030  CASABLANCA","phone":"05 22 20 85 74","location":"https://www.telecontact.ma/plan-acces/pharmacie-derb-tazi-/2207956/casablanca","city":"Casablanca"},{"name":"Pharmacie des Abattoirs","address":"78, rue Abou Bakr El Wahrani , Q. Hay Mohammadi, 20320  CASABLANCA","phone":"05 22 62 56 51","location":"https://www.telecontact.ma/plan-acces/pharmacie-des-abattoirs-/0280000/casablanca","city":"Casablanca"},{"name":"Pharmacie des Acacias","address":"76, bd Batali Med Ben Mekki-ex Gergovie , Q. Roches noires, 20290  CASABLANCA","phone":"05 22 24 81 81","location":"https://www.telecontact.ma/plan-acces/pharmacie-des-acacias-/2207472/casablanca","city":"Casablanca"},{"name":"Pharmacie des Amis","address":"12, rue de Guise 4, Lotiss. Bahmad, Q. Roches noires, 20300  CASABLANCA","phone":"05 22 40 40 20","location":"https://www.telecontact.ma/plan-acces/pharmacie-des-amis-/2207900/casablanca","city":"Casablanca"},{"name":"Pharmacie des Anges","address":"quartier Oulad Taleb, rue10 n°9 résid. Sans Pareil Majorelle, Q. Inara CASABLANCA","phone":"05 22 21 88 86","location":"https://www.telecontact.ma/plan-acces/pharmacie-des-anges-/3266934/casablanca","city":"Casablanca"},{"name":"Pharmacie des Archers","address":"1, avenue Lalla Yacout , Q. Centre Ville, 20080  CASABLANCA","phone":"05 22 20 34 90","location":"https://www.telecontact.ma/plan-acces/pharmacie-des-archers-/0282100/casablanca","city":"Casablanca"},{"name":"Pharmacie des Auto-Routes","address":"1, rue Jabal Habri (Antaria I) , Q. Hay Mohammadi, 20350  CASABLANCA","phone":"05 22 60 91 63","location":"https://www.telecontact.ma/plan-acces/pharmacie-des-auto-routes-/2171572/casablanca","city":"Casablanca"},{"name":"Pharmacie des Champions","address":"140, rue Brahim Nakhai - ex Mont Cinto , Q. Maarif, 20370  CASABLANCA","phone":"05 22 23 78 41","location":"","city":"Casablanca"},{"name":"Pharmacie des Citronniers","address":"29 Bis, allée des Citronniers , Q. Aïn Sebaâ CASABLANCA","phone":"05 22 34 46 70","location":"https://www.telecontact.ma/plan-acces/pharmacie-des-citronniers-/3264955/casablanca","city":"Casablanca"},{"name":"Pharmacie des clubs","address":"18, rue Ennasrine-ex Glaieuls , Q. Beauséjour, 20200  CASABLANCA","phone":"05 22 36 26 32","location":"https://www.telecontact.ma/plan-acces/pharmacie-des-clubs-/1563400/casablanca","city":"Casablanca"},{"name":"Pharmacie des consulats","address":"81 Bis, bd Moulay Youssef , Q. Bourgogne, 20020  CASABLANCA","phone":"05 22 26 24 18","location":"https://www.telecontact.ma/plan-acces/pharmacie-des-consulats-/0285300/casablanca","city":"Casablanca"},{"name":"Pharmacie des Cygnes","address":"256, route de l' Oasis , Q. Oasis, 20410  CASABLANCA","phone":"05 22 98 85 17","location":"https://www.telecontact.ma/plan-acces/pharmacie-des-cygnes-/2171616/casablanca","city":"Casablanca"},{"name":"Pharmacie des Dalias","address":"492 Bis, bd Panoramique , Q. Aïn Chok, 20460  CASABLANCA","phone":"05 22 52 75 60","location":"https://www.telecontact.ma/plan-acces/pharmacie-des-dalias-/2206184/casablanca","city":"Casablanca"},{"name":"Pharmacie Tramway","address":"lotiss. Rahmani, rue 27 n°43, Q. Sidi Moumen, 20640  CASABLANCA","phone":"05 22 70 64 66","location":"https://www.telecontact.ma/plan-acces/pharmacie-tramway-/3115946/casablanca","city":"Casablanca"},{"name":"Pharmacie Univers","address":"10, bd Moulay Ismaïl ang. bd Emile Zola, Q. Belvédère, 20300  CASABLANCA","phone":"05 22 24 25 55","location":"https://www.telecontact.ma/plan-acces/pharmacie-univers-/3201227/casablanca","city":"Casablanca"},{"name":"Pharmacie Univers Santé","address":"116, rue Haj Jillali Eloufir-ex Guillotte , Q. Maarif, 20370  CASABLANCA","phone":"05 22 98 09 06","location":"","city":"Casablanca"},{"name":"Pharmacie Universelle","address":"398, bd Brahim Roudani , Q. Maarif, 20330  CASABLANCA","phone":"05 22 25 31 42","location":"https://www.telecontact.ma/plan-acces/pharmacie-universelle-/0299300/casablanca","city":"Casablanca"},{"name":"Pharmacie Val d'Anfa","address":"194, bd d' Anfa , Q. Racine CASABLANCA","phone":"05 22 36 43 48","location":"","city":"Casablanca"},{"name":"Pharmacie Val Fleuri","address":"87, avenue Stendhal , Q. Val Fleuri, 20390  CASABLANCA","phone":"05 22 23 24 80","location":"https://www.telecontact.ma/plan-acces/pharmacie-val-fleuri-/3006468/casablanca","city":"Casablanca"},{"name":"Pharmacie Valencia","address":"quartier Ahl Loghlam, Salam 1, lot. 372, Q. Sidi Moumen CASABLANCA","phone":"05 22 74 38 79","location":"https://www.telecontact.ma/plan-acces/pharmacie-valencia-/3305422/casablanca","city":"Casablanca"},{"name":"Pharmacie Velodrome","address":"16, Rd Pt des Sports , Q. Racine, 20050  CASABLANCA","phone":"05 22 36 20 65","location":"https://www.telecontact.ma/plan-acces/pharmacie-velodrome-/2129871/casablanca","city":"Casablanca"},{"name":"Pharmacie Verdun","address":"7, rue Abou Abdellah AlMahassibi -ex Lecouvreu , Q. Ancienne Médina, 20000  CASABLANCA","phone":"05 22 27 46 62","location":"https://www.telecontact.ma/plan-acces/pharmacie-verdun-/1454900/casablanca","city":"Casablanca"},{"name":"Pharmacie Victoria","address":"21, avenue de Nice ang. rue Ahmed Benbouchta, Q. Bourgogne, 20160  CASABLANCA","phone":"05 22 39 14 66","location":"https://www.telecontact.ma/plan-acces/pharmacie-victoria-/3118000/casablanca","city":"Casablanca"},{"name":"Pharmacie Vidal","address":"404, bd de la Grande Ceinture (A.Sebaa) , Q. Aïn Sebaâ, 20250  CASABLANCA","phone":"05 22 34 32 18","location":"https://www.telecontact.ma/plan-acces/pharmacie-vidal-/3154393/casablanca","city":"Casablanca"},{"name":"Pharmacie Vie","address":"bd Ba Hmad ang. rue Berlioz, Q. Belvédère, 20300  CASABLANCA","phone":"05 22 40 59 01","location":"https://www.telecontact.ma/plan-acces/pharmacie-vie-/2145729/casablanca","city":"Casablanca"},{"name":"Pharmacie Violette","address":"lotiss. Violette, 57 rue 2 n°51, Q. Aïn Chok, 20460  CASABLANCA","phone":"05 22 52 67 57","location":"https://www.telecontact.ma/plan-acces/pharmacie-violette-/3034025/casablanca","city":"Casablanca"},{"name":"Pharmacie Vita","address":"463, bd Brahim Roudani -ex route El Jadida, résid. Saâda Val Fleurie, Q. Al Batha CASABLANCA","phone":"05 22 98 43 63","location":"https://www.telecontact.ma/plan-acces/pharmacie-vita-/2195706/casablanca","city":"Casablanca"},{"name":"Pharmacie Walili","address":"7, hay Alwalaa, sect. 3, SM 09, Q. Sidi Moumen, 20640  CASABLANCA","phone":"05 22 72 53 61","location":"https://www.telecontact.ma/plan-acces/pharmacie-walili-/3098621/casablanca","city":"Casablanca"},{"name":"Pharmacie Wato","address":"153, bd Day Ould Sidi Baba -ex Watteau , Q. Derb Ghalef, 20340  CASABLANCA","phone":"05 22 25 16 07","location":"https://www.telecontact.ma/plan-acces/pharmacie-wato-/1222900/casablanca","city":"Casablanca"},{"name":"Pharmacie Widad's","address":"av. Habib Sinaceur -ex Assa et Nantes, lotiss. M'zouka n°27, Q. Bourgogne, 20160  CASABLANCA","phone":"05 22 94 20 29","location":"","city":"Casablanca"},{"name":"Pharmacie Wouroud Essaada","address":"hay El Oulfa, résid. Essaada GH 1 mag.n° 11/12, Q. Oulfa CASABLANCA","phone":"05 22 65 85 96","location":"https://www.telecontact.ma/plan-acces/pharmacie-wouroud-essaada-/3339489/casablanca","city":"Casablanca"},{"name":"Pharmacie Yacoub ElMansour","address":"63, bd Yacoub El Mansour , Q. Maarif, 20370  CASABLANCA","phone":"05 22 25 52 04","location":"https://www.telecontact.ma/plan-acces/pharmacie-yacoub-elmansour-/0299500/casablanca","city":"Casablanca"},{"name":"Pharmacie Yafa","address":"hay Moubaraka, q. Moubaraka imm.52, Q. Sidi Bernoussi CASABLANCA","phone":"05 22 73 94 44","location":"https://www.telecontact.ma/plan-acces/pharmacie-yafa-/2119155/casablanca","city":"Casablanca"},{"name":"Pharmacie Yakine","address":"326, rue Ahmed Sebbagh, derb ElKabir, Q. Derb El Kabir, 20500  CASABLANCA","phone":"05 22 81 66 60","location":"https://www.telecontact.ma/plan-acces/pharmacie-yakine-/2195703/casablanca","city":"Casablanca"},{"name":"Pharmacie Yana","address":"102, avenue du Cdt Driss Lharti - ex A, Al Baraka lot 605, Q. Sbata CASABLANCA","phone":"05 22 71 07 03","location":"https://www.telecontact.ma/plan-acces/pharmacie-yana-/3339927/casablanca","city":"Casablanca"},{"name":"Pharmacie Yasmina","address":"hay Moulay Abdallah, rue 232 n°69, Q. Aïn Chok, 20480  CASABLANCA","phone":"05 22 21 95 37","location":"https://www.telecontact.ma/plan-acces/pharmacie-yasmina-/1563300/casablanca","city":"Casablanca"},{"name":"Pharmacie Yasmine","address":"207, bd Sidi Abderrahman , Q. Hay El Hana, 20200  CASABLANCA","phone":"05 22 36 54 72","location":"https://www.telecontact.ma/plan-acces/pharmacie-yasmine-/1168600/casablanca","city":"Casablanca"},{"name":"Pharmacie Yass","address":"lotiss. Jnane Louz, unité 1 terrain 4 mag.2 projet Ouled Azzouz, Q. Oulfa CASABLANCA","phone":"05 40 15 09 05","location":"https://www.telecontact.ma/plan-acces/pharmacie-yass-/3331437/casablanca","city":"Casablanca"},{"name":"Pharmacie Yasser","address":"derb Sidi Maarouf VI (Al Fida), rue 4 n°14, Q. Nouvelle Médina, 20520  CASABLANCA","phone":"05 22 83 01 39","location":"https://www.telecontact.ma/plan-acces/pharmacie-yasser-/2216476/casablanca","city":"Casablanca"},{"name":"Pharmacie Yassine","address":"19, rue de Lille , Q. Belvédère, 20310  CASABLANCA","phone":"05 22 44 37 87","location":"https://www.telecontact.ma/plan-acces/pharmacie-yassine-/2155398/casablanca","city":"Casablanca"},{"name":"Pharmacie Yathrib","address":"lotiss. Al Moustakbal, Gh 4, n°24 Sidi Maârouf, Q. Sidi Maarouf CASABLANCA","phone":"05 22 97 25 73","location":"https://www.telecontact.ma/plan-acces/pharmacie-yathrib-/3158504/casablanca","city":"Casablanca"},{"name":"Pharmacie Youness","address":"18, avenue Ali Yata -ex Foum Lahsan, résid. Alhadika, Q. Beausite, 20250  CASABLANCA","phone":"05 22 35 75 27","location":"https://www.telecontact.ma/plan-acces/pharmacie-youness-/3196156/casablanca","city":"Casablanca"},{"name":"Pharmacie Yousra","address":"avenue Mehdi Ben Berka -ex Cimetière, Kiss. El Hank n°8, Q. Bourgogne, 20160  CASABLANCA","phone":"05 22 36 36 30","location":"https://www.telecontact.ma/plan-acces/pharmacie-yousra-/2110273/casablanca","city":"Casablanca"},{"name":"Pharmacie Zahra","address":"Route 1029, Bloc de la commune , Ouled Haddou, Q. Sidi Maarouf, 20280  CASABLANCA","phone":"05 22 32 12 74","location":"https://www.telecontact.ma/plan-acces/pharmacie-zahra-/2157863/casablanca","city":"Casablanca"},{"name":"Pharmacie Zaitoun","address":"16, avenue Jaudar Mohamed Ben Abdellah , Q. Hay Moulay Rachid, 20650  CASABLANCA","phone":"05 20 72 72 70","location":"https://www.telecontact.ma/plan-acces/pharmacie-zaitoun-/3031161/casablanca","city":"Casablanca"},{"name":"Pharmacie Ghaza","address":"hay Sidi Moumen, Essalam II n°4, Q. Sidi Moumen CASABLANCA","phone":"05 22 76 61 61","location":"https://www.telecontact.ma/plan-acces/pharmacie-ghaza-/3268472/casablanca","city":"Casablanca"},{"name":"Pharmacie Ghazali","address":"hay Omar Ibn Khattab , Q. Hay El Farah CASABLANCA","phone":"05 22 80 65 97","location":"https://www.telecontact.ma/plan-acces/pharmacie-ghazali-/3226161/casablanca","city":"Casablanca"},{"name":"Pharmacie Ghizlane","address":"120 Bis, bd du Fouarat, hay Jamal, Q. Ain Borja, 20570  CASABLANCA","phone":"05 22 62 00 50","location":"https://www.telecontact.ma/plan-acces/pharmacie-ghizlane-/2172382/casablanca","city":"Casablanca"},{"name":"Pharmacie Ghofrane","address":"hay El Qods, bloc c, rue 2, n°116, Q. Sidi Bernoussi, 20600  CASABLANCA","phone":"05 22 73 26 31","location":"https://www.telecontact.ma/plan-acces/pharmacie-ghofrane-/2165988/casablanca","city":"Casablanca"},{"name":"Pharmacie Ghouziel","address":"253, allée des Mimosas (Aïn Sebâa) , Q. Aïn Sebaâ, 20680  CASABLANCA","phone":"05 22 67 46 67","location":"https://www.telecontact.ma/plan-acces/pharmacie-ghouziel-/3061623/casablanca","city":"Casablanca"},{"name":"Pharmacie Ghziwat","address":"bd de Fès, lotiss. Bled Elaâz, rue1, n°2, Mosquée Essabil, Q. Aïn Chok CASABLANCA","phone":"05 22 87 41 30","location":"https://www.telecontact.ma/plan-acces/pharmacie-ghziwat-/3253678/casablanca","city":"Casablanca"},{"name":"Pharmacie Goumri","address":"bd Tah, Rue 2 n°2 Dar Chaoui, Q. Aïn Chok, 20480  CASABLANCA","phone":"05 22 87 45 60","location":"https://www.telecontact.ma/plan-acces/pharmacie-goumri-/3167467/casablanca","city":"Casablanca"},{"name":"Pharmacie Gouraud","address":"142, avenue Moulay Hassan 1er , Q. Lusitania, 20070  CASABLANCA","phone":"05 22 27 61 46","location":"https://www.telecontact.ma/plan-acces/pharmacie-gouraud-/0290000/casablanca","city":"Casablanca"},{"name":"Pharmacie Granada","address":"bd Abdelhadi Boutaleb ex rte d'Azemmour, lotiss. Mestouna lot. n°39 rue 25 n°27, Q. Hay Hassani, 20220  CASABLANCA","phone":"05 22 89 48 44","location":"https://www.telecontact.ma/plan-acces/pharmacie-granada-/3213327/casablanca","city":"Casablanca"},{"name":"Pharmacie Grar","address":"cité Sidi Bernoussi, Imm 13, n°7, hay Alazhar, Ahl Loughlam, Q. Sidi Moumen, 20630  CASABLANCA","phone":"05 22 74 12 43","location":"https://www.telecontact.ma/plan-acces/pharmacie-grar-/3077736/casablanca","city":"Casablanca"},{"name":"Pharmacie Guessous","address":"hay El Qods, rue 23 n°69, Q. Sidi Bernoussi, 20600  CASABLANCA","phone":"05 22 73 78 28","location":"https://www.telecontact.ma/plan-acces/pharmacie-guessous-/2146388/casablanca","city":"Casablanca"},{"name":"Pharmacie H2O","address":"326, quartier Lissasfa II (route d'El Jadida), q. Nassim, Q. Lissasfa, 20190  CASABLANCA","phone":"05 22 89 05 00","location":"https://www.telecontact.ma/plan-acces/pharmacie-h2o-/3269873/casablanca","city":"Casablanca"},{"name":"Pharmacie Habib","address":"84, rue Allal Ben Ahmed Amkik , Q. Belvédère, 20300  CASABLANCA","phone":"05 22 24 36 25","location":"https://www.telecontact.ma/plan-acces/pharmacie-habib-/1421500/casablanca","city":"Casablanca"},{"name":"Pharmacie Habiba","address":"275, bd Jabal Toubkal (Lissasfa), Extension, Q. Oulfa, 20230  CASABLANCA","phone":"05 22 65 03 48","location":"https://www.telecontact.ma/plan-acces/pharmacie-habiba-/2182738/casablanca","city":"Casablanca"},{"name":"Pharmacie Hachad","address":"derb Koréa, rue 5 n°142, Q. Nouvelle Médina, 20520  CASABLANCA","phone":"05 22 28 39 46","location":"https://www.telecontact.ma/plan-acces/pharmacie-hachad-/1564500/casablanca","city":"Casablanca"},{"name":"Pharmacie Hafida","address":"hay El Osra II, rue 33 n°19, Q. Aïn Chok, 20480  CASABLANCA","phone":"05 22 21 87 49","location":"https://www.telecontact.ma/plan-acces/pharmacie-hafida-/3001949/casablanca","city":"Casablanca"},{"name":"Pharmacie Haj Fateh","address":"520, lotiss. Haj Fateh, Lissasfa, Q. Oulfa, 20230  CASABLANCA","phone":"05 22 89 79 26","location":"https://www.telecontact.ma/plan-acces/pharmacie-haj-fateh-/2216249/casablanca","city":"Casablanca"},{"name":"Pharmacie Hajar","address":"2, cité Sidi Bernoussi, imm. 56, Riad Bernoussi, Q. Sidi Bernoussi CASABLANCA","phone":"05 22 76 85 92","location":"https://www.telecontact.ma/plan-acces/pharmacie-hajar-/9016096/casablanca","city":"Casablanca"},{"name":"Pharmacie Hajji","address":"895, bd El Fida Prolongé, hay Tissir, Q. Hay El Farah, 20540  CASABLANCA","phone":"05 22 83 06 69","location":"https://www.telecontact.ma/plan-acces/pharmacie-hajji-/0290300/casablanca","city":"Casablanca"},{"name":"Pharmacie Hakam","address":"442, bd Ibn Tachfine , Q. Ain Borja, 20320  CASABLANCA","phone":"05 22 62 08 00","location":"https://www.telecontact.ma/plan-acces/pharmacie-hakam-/0290400/casablanca","city":"Casablanca"},{"name":"Pharmacie Zamzam","address":"lotiss. Lina, H2 lot. Hammam, Sidi Maârouf, Q. Sidi Maarouf CASABLANCA","phone":"05 22 58 01 98","location":"https://www.telecontact.ma/plan-acces/pharmacie-zamzam-/3097186/casablanca","city":"Casablanca"},{"name":"Pharmacie Zaouia","address":"121, rue El Maaden -ex Fragonard , Q. Derb Ghalef CASABLANCA","phone":"05 22 23 79 51","location":"https://www.telecontact.ma/plan-acces/pharmacie-zaouia-/2110169/casablanca","city":"Casablanca"},{"name":"Pharmacie Zaraba","address":"hay Sidi Moumen, El Outtour rue 8 n°43, Q. Sidi Moumen, 20400  CASABLANCA","phone":"05 22 72 21 94","location":"https://www.telecontact.ma/plan-acces/pharmacie-zaraba-/3174170/casablanca","city":"Casablanca"},{"name":"Pharmacie Zénata","address":"178, route Zenata , Q. Aïn Sebaâ, 20250  CASABLANCA","phone":"05 22 35 11 72","location":"","city":"Casablanca"},{"name":"Pharmacie Zenith Millenium","address":"162, lotiss. Florida , California, Q. Sidi Maarouf, 20270  CASABLANCA","phone":"05 22 32 15 16","location":"https://www.telecontact.ma/plan-acces/pharmacie-zenith-millenium-/3058503/casablanca","city":"Casablanca"},{"name":"Pharmacie Zerhouni","address":"lotiss. Riad El Oulfa, grp. 13 n°373, Q. Hay Hassani CASABLANCA","phone":"05 22 90 50 11","location":"https://www.telecontact.ma/plan-acces/pharmacie-zerhouni-/3229045/casablanca","city":"Casablanca"},{"name":"Pharmacie Zerktouni","address":"252, bd Moukaouama - ex Résistance , Q. Benjdia, 20000  CASABLANCA","phone":"05 22 22 22 82","location":"https://www.telecontact.ma/plan-acces/pharmacie-zerktouni-/0299900/casablanca","city":"Casablanca"},{"name":"Pharmacie Zeroual","address":"lot. Anassi, Bab Anassi II entree n°8 Gh6 n°74, Q. Sidi Moumen CASABLANCA","phone":"05 22 75 32 64","location":"https://www.telecontact.ma/plan-acces/pharmacie-zeroual-/3294696/casablanca","city":"Casablanca"},{"name":"Pharmacie Zhour","address":"lotiss. Farah Essalam, Gh 82, imm. 130A, n°1, Q. Oulfa CASABLANCA","phone":"05 22 90 91 66","location":"https://www.telecontact.ma/plan-acces/pharmacie-zhour-/3275623/casablanca","city":"Casablanca"},{"name":"Pharmacie Ziraoui","address":"236, bd Ziraoui , Q. Bourgogne, 20040  CASABLANCA","phone":"07 00 89 90 19","location":"https://www.telecontact.ma/plan-acces/pharmacie-ziraoui-/0300000/casablanca","city":"Casablanca"},{"name":"Pharmacie Zone Industrielle","address":"avenue Abdelkader Essahraoui, Mly Rachid grp.6 rue 26 n°1, Q. Hay Moulay Rachid, 20660  CASABLANCA","phone":"05 22 70 91 90","location":"https://www.telecontact.ma/plan-acces/pharmacie-zone-industrielle-/3112854/casablanca","city":"Casablanca"},{"name":"Pharmacie Zoraiai","address":"quartier Lissasfa II (route d'El Jadida), bloc D n° 250, Q. Lissasfa, 20230  CASABLANCA","phone":"05 22 65 10 74","location":"https://www.telecontact.ma/plan-acces/pharmacie-zoraiai-/3053989/casablanca","city":"Casablanca"},{"name":"Pharmacie Zoubir","address":"185 I, lotiss. Zoubeir, imm.6 grp. Doha, Q. Oulfa, 20240  CASABLANCA","phone":"05 22 93 41 90","location":"https://www.telecontact.ma/plan-acces/pharmacie-zoubir-/3053807/casablanca","city":"Casablanca"},{"name":"Pharmacie Zouhair","address":"bd Oulad Haddou, rue 30 n°39 bis Lakrimat, Q. Aïn Chok, 20460  CASABLANCA","phone":"05 22 50 60 26","location":"https://www.telecontact.ma/plan-acces/pharmacie-zouhair-/3034012/casablanca","city":"Casablanca"},{"name":"Pharmacie du Nil","address":"451, bd Oued Oum Errabia , Q. Oulfa, 20220  CASABLANCA","phone":"05 22 90 07 48","location":"https://www.telecontact.ma/plan-acces/pharmacie-du-nil-/1398900/casablanca","city":"Casablanca"},{"name":"Pharmacie du Palais","address":"101, bd Victor Hugo , Q. Mers Sultan, 21490  CASABLANCA","phone":"05 22 30 68 42","location":"https://www.telecontact.ma/plan-acces/pharmacie-du-palais-/0295800/casablanca","city":"Casablanca"},{"name":"Pharmacie du palmier","address":"39, rue Ibn Tofaïl , Q. Palmiers, 20340  CASABLANCA","phone":"05 22 23 62 19","location":"https://www.telecontact.ma/plan-acces/pharmacie-du-palmier-/3034826/casablanca","city":"Casablanca"},{"name":"Pharmacie du Paradis","address":"dar Lamane, bloc L n°8, Q. Hay Mohammadi, 20570  CASABLANCA","phone":"05 22 60 80 71","location":"https://www.telecontact.ma/plan-acces/pharmacie-du-paradis-/2110073/casablanca","city":"Casablanca"},{"name":"Pharmacie du parc","address":"123, avenue Hassan II , Q. Centre Ville, 20140  CASABLANCA","phone":"05 22 22 11 29","location":"https://www.telecontact.ma/plan-acces/pharmacie-du-parc-/0296100/casablanca","city":"Casablanca"},{"name":"Pharmacie du Peuple","address":"251, rue Abou Ali Kali , Q. Hay Mohammadi, 20560  CASABLANCA","phone":"05 22 62 30 56","location":"https://www.telecontact.ma/plan-acces/pharmacie-du-peuple-/0296500/casablanca","city":"Casablanca"},{"name":"Pharmacie Du Phare","address":"16, avenue Mohamed Sijelmassi -ex Phare , Q. Racine, 20050  CASABLANCA","phone":"05 22 26 68 19","location":"https://www.telecontact.ma/plan-acces/pharmacie-du-phare-/2110159/casablanca","city":"Casablanca"},{"name":"Pharmacie du Polo","address":"56 Bis, avenue de Nador , Q. Aïn Chok, 20460  CASABLANCA","phone":"05 22 50 11 77","location":"https://www.telecontact.ma/plan-acces/pharmacie-du-polo-/2181667/casablanca","city":"Casablanca"},{"name":"Pharmacie du port","address":"357, bd Tahar El Alaoui , Q. Ancienne Médina, 20000  CASABLANCA","phone":"05 22 26 47 94","location":"https://www.telecontact.ma/plan-acces/pharmacie-du-port-/0296900/casablanca","city":"Casablanca"},{"name":"Pharmacie du Progrès","address":"9, place du Seize Novembre , Q. Centre Ville, 20080  CASABLANCA","phone":"05 22 22 05 20","location":"","city":"Casablanca"},{"name":"Pharmacie du Quartier","address":"avenue Souhaib Erroumi -ex H, bloc 50 n°48 Mansour 1, Q. Sidi Bernoussi, 20600  CASABLANCA","phone":"05 22 73 22 58","location":"https://www.telecontact.ma/plan-acces/pharmacie-du-quartier-/0297300/casablanca","city":"Casablanca"},{"name":"Pharmacie du Quartier industriel","address":"quartier Lissasfa II (route d'El Jadida), bloc A n°508, Q. Oulfa, 20190  CASABLANCA","phone":"05 22 65 15 75","location":"https://www.telecontact.ma/plan-acces/pharmacie-du-quartier-industriel-/3053994/casablanca","city":"Casablanca"},{"name":"Pharmacie du Rond Point","address":"210, bd Moulay Mohamed El Baamrani -ex M, Amal 3, Q. Sidi Bernoussi, 20600  CASABLANCA","phone":"05 22 73 15 16","location":"https://www.telecontact.ma/plan-acces/pharmacie-du-rond-point-/2107370/casablanca","city":"Casablanca"},{"name":"Pharmacie du Soleil","address":"43, rue Mohamed Diouri , Q. Centre Ville, 20110  CASABLANCA","phone":"05 22 30 11 09","location":"https://www.telecontact.ma/plan-acces/pharmacie-du-soleil-/0298800/casablanca","city":"Casablanca"},{"name":"Pharmacie du Tac","address":"bd Bir Anzarane, marché derb Ghallef, Q. Maarif, 20340  CASABLANCA","phone":"05 22 98 73 61","location":"https://www.telecontact.ma/plan-acces/pharmacie-du-tac-/2152242/casablanca","city":"Casablanca"},{"name":"Pharmacie du Théâtre","address":"38, avenue Akid Allam, Salama 3, Q. Hay Moulay Rachid, 20670  CASABLANCA","phone":"05 22 37 01 22","location":"","city":"Casablanca"},{"name":"Pharmacie du Voisinage","address":"bd Ibn Sina - ex Avicenne , Q. Oulfa, 20220  CASABLANCA","phone":"05 22 89 70 30","location":"","city":"Casablanca"},{"name":"Pharmacie du Zoo","address":"ancienne route de Rabat, n°7, Q. Aïn Sebaâ CASABLANCA","phone":"05 22 66 02 92","location":"","city":"Casablanca"},{"name":"Pharmacie Dune d'Anfa","address":"11, bd Driss Slaoui -ex Témara , Q. Bourgogne, 20160  CASABLANCA","phone":"05 22 39 30 30","location":"","city":"Casablanca"},{"name":"Pharmacie Dyar Al Wafaa","address":"46, bd Oqba Bnou Nafiaa, lotiss. Ouled Haress, Yassir, mag. 2, Q. Hay Moulay Rachid, 20350  CASABLANCA","phone":"05 22 70 07 16","location":"","city":"Casablanca"},{"name":"Pharmacie Oum Errabii","address":"49, bd Oued Oum Errabia , Q. Oulfa, 20220  CASABLANCA","phone":"05 22 90 88 72","location":"https://www.telecontact.ma/plan-acces/pharmacie-oum-errabii-/2110052/casablanca","city":"Casablanca"},{"name":"Pharmacie Oum L'Ghaite","address":"hay Sidi Moumen, lot. Tissir rue n°4 n°92 Tacharouk, Q. Sidi Moumen CASABLANCA","phone":"05 22 70 08 85","location":"","city":"Casablanca"},{"name":"Pharmacie Oumnia","address":"439, bd Aba Chouaïb Doukali, hay Elfarah, Q. Hay El Farah, 20540  CASABLANCA","phone":"05 22 81 17 38","location":"https://www.telecontact.ma/plan-acces/pharmacie-oumnia-/0295700/casablanca","city":"Casablanca"},{"name":"Pharmacie Oussama","address":"hay El Qods 18, imm Moubaraka n°25, Q. Sidi Bernoussi, 20600  CASABLANCA","phone":"05 22 73 57 37","location":"https://www.telecontact.ma/plan-acces/pharmacie-oussama-/2146394/casablanca","city":"Casablanca"},{"name":"Pharmacie Ouzineb","address":"161, bd Oqba Bnou Nafiaa , Q. Hay Mohammadi, 20570  CASABLANCA","phone":"05 22 62 00 95","location":"https://www.telecontact.ma/plan-acces/pharmacie-ouzineb-/1455100/casablanca","city":"Casablanca"},{"name":"Pharmacie Oxygène","address":"1 Bis, bd Oulad Haddou ang. bd Panoramique, quartier Crêtes, Q. Aïn Chok, 20460  CASABLANCA","phone":"05 22 52 07 74","location":"","city":"Casablanca"},{"name":"Pharmacie Panorama","address":"cité Sidi Bernoussi, Panorama Tranche 4, bloc 6, Q. Sidi Moumen, 20630  CASABLANCA","phone":"05 22 76 71 57","location":"https://www.telecontact.ma/plan-acces/pharmacie-panorama-/3098573/casablanca","city":"Casablanca"},{"name":"Pharmacie Panoramique","address":"150, bd Panoramique , Q. Aïn Chok, 20470  CASABLANCA","phone":"05 22 21 14 26","location":"https://www.telecontact.ma/plan-acces/pharmacie-panoramique-/0295900/casablanca","city":"Casablanca"},{"name":"Pharmacie Paranfa","address":"quartier d' Anfa, C. com. Paranfa, Q. Anfa Supérieur, 20050  CASABLANCA","phone":"05 22 39 34 01","location":"https://www.telecontact.ma/plan-acces/pharmacie-paranfa-/2125012/casablanca","city":"Casablanca"},{"name":"Pharmacie parisienne","address":"45, avenue Hassan II , Q. Centre Ville, 20130  CASABLANCA","phone":"05 22 22 07 95","location":"https://www.telecontact.ma/plan-acces/pharmacie-parisienne-/0296300/casablanca","city":"Casablanca"},{"name":"Pharmacie Pitchou","address":"derb Fokara, rue 10, n°7, Q. Nouvelle Médina, 20550  CASABLANCA","phone":"05 22 28 72 11","location":"https://www.telecontact.ma/plan-acces/pharmacie-pitchou-/1563900/casablanca","city":"Casablanca"},{"name":"Pharmacie Place Ahmed Mekwar","address":"1, bd de la Gare (Aïn Sebâa) , Q. Aïn Sebaâ, 20250  CASABLANCA","phone":"05 22 35 47 95","location":"https://www.telecontact.ma/plan-acces/pharmacie-place-ahmed-mekwar-/2110295/casablanca","city":"Casablanca"},{"name":"Pharmacie Polyclinique","address":"58, route Moulay Thami (hay Saada) , Q. Oulfa, 20220  CASABLANCA","phone":"05 22 90 21 67","location":"https://www.telecontact.ma/plan-acces/pharmacie-polyclinique-/0883700/casablanca","city":"Casablanca"},{"name":"Pharmacie Pont de l'Oasis","address":"238, rue Abou Dabi - ex Pierre Teuler ang. rte. de l'Oasis, Q. Oasis CASABLANCA","phone":"05 22 25 20 21","location":"","city":"Casablanca"},{"name":"Pharmacie populaire","address":"94, rue Haj Amar Riffi , Q. Benjdia, 20120  CASABLANCA","phone":"05 22 22 17 04","location":"https://www.telecontact.ma/plan-acces/pharmacie-populaire-/0296800/casablanca","city":"Casablanca"},{"name":"Pharmacie Porte d'Anfa","address":"197, bd de Bourgogne , Q. Racine, 20050  CASABLANCA","phone":"05 22 36 92 59","location":"","city":"Casablanca"},{"name":"Pharmacie Porte de Californie","address":"109, route de la Mecque, Dar Haj Daoui, Q. Californie CASABLANCA","phone":"05 22 81 29 31","location":"https://www.telecontact.ma/plan-acces/pharmacie-porte-de-californie-/3226142/casablanca","city":"Casablanca"},{"name":"Pharmacie Prefecture Bernoussi","address":"cité Sidi Bernoussi, derb Maaguiz bloc 20 n°23, Q. Sidi Bernoussi CASABLANCA","phone":"05 22 73 05 55","location":"https://www.telecontact.ma/plan-acces/pharmacie-prefecture-bernoussi-/3274240/casablanca","city":"Casablanca"},{"name":"Pharmacie Principale","address":"21, rond-point Mers Sultan , Q. Mers Sultan CASABLANCA","phone":"05 22 22 01 74","location":"https://www.telecontact.ma/plan-acces/pharmacie-principale-/3274238/casablanca","city":"Casablanca"},{"name":"Pharmacie Projet Assalam","address":"hay Sidi Moumen, résid. Samip n°8, Q. Sidi Moumen CASABLANCA","phone":"05 22 75 51 19","location":"https://www.telecontact.ma/plan-acces/pharmacie-projet-assalam-/3228734/casablanca","city":"Casablanca"},{"name":"Pharmacie Nassim Islane","address":"318, hay Nassim, Islane, Q. Lissasfa CASABLANCA","phone":"05 22 93 85 98","location":"https://www.telecontact.ma/plan-acces/pharmacie-nassim-islane-/3279847/casablanca","city":"Casablanca"},{"name":"Pharmacie Nassime","address":"130, bd Ambassadeur Ben Aïcha , Q. Roches noires, 20290  CASABLANCA","phone":"05 22 24 26 71","location":"https://www.telecontact.ma/plan-acces/pharmacie-nassime-/1171100/casablanca","city":"Casablanca"},{"name":"Pharmacie Nationale Diouri","address":"396, bd El Fida , Q. Nouvelle Médina, 20520  CASABLANCA","phone":"05 22 28 12 96","location":"https://www.telecontact.ma/plan-acces/pharmacie-nationale-diouri-/0294900/casablanca","city":"Casablanca"},{"name":"Pharmacie Nejma","address":"derb Nejma, bloc 415 n°902, Q. Hay Hassani, 20220  CASABLANCA","phone":"05 22 89 54 35","location":"https://www.telecontact.ma/plan-acces/pharmacie-nejma-/2216335/casablanca","city":"Casablanca"},{"name":"Pharmacie Nejmat Sidi Moumen","address":"hay Sidi Moumen, programme nejmat sidi moumen GH1, imm n°3, Q. Sidi Moumen CASABLANCA","phone":"05 22 74 80 14","location":"https://www.telecontact.ma/plan-acces/pharmacie-nejmat-sidi-moumen-/3321702/casablanca","city":"Casablanca"},{"name":"Pharmacie Newton","address":"lotiss. Alidaa, rue 33 n°35, Q. Aïn Chok, 20480  CASABLANCA","phone":"08 08 52 55 13","location":"https://www.telecontact.ma/plan-acces/pharmacie-newton-/3345416/casablanca","city":"Casablanca"},{"name":"Pharmacie Nice","address":"1, avenue de Nice , Q. Bourgogne, 20160  CASABLANCA","phone":"05 22 94 93 39","location":"https://www.telecontact.ma/plan-acces/pharmacie-nice-/3098405/casablanca","city":"Casablanca"},{"name":"Pharmacie Nigelle","address":"quartier Oulad Taleb, rue 18 n°36, Q. Aïn Chok, 20460  CASABLANCA","phone":"05 22 87 17 70","location":"https://www.telecontact.ma/plan-acces/pharmacie-nigelle-/3171781/casablanca","city":"Casablanca"},{"name":"Pharmacie Nisrine","address":"avenue du Dix Mars, bloc 50 n°80, Q. Sidi Othman, 20700  CASABLANCA","phone":"05 22 57 77 03","location":"https://www.telecontact.ma/plan-acces/pharmacie-nisrine-/2156076/casablanca","city":"Casablanca"},{"name":"Pharmacie Noon","address":"12, rue Abdelkrim El Yazighi , Q. la Villette, 20320  CASABLANCA","phone":"05 22 63 71 02","location":"https://www.telecontact.ma/plan-acces/pharmacie-noon-/3003072/casablanca","city":"Casablanca"},{"name":"Pharmacie Nouamani","address":"quartier Lissasfa III (route d'El Jadida), bloc E n°139, km 9, Q. Lissasfa, 20190  CASABLANCA","phone":"05 22 65 12 42","location":"https://www.telecontact.ma/plan-acces/pharmacie-nouamani-/2160638/casablanca","city":"Casablanca"},{"name":"Pharmacie Nouamania","address":"quartier Ahl Loghlam, km. 10 résid. Nouamania lot. n°17, Q. Sidi Moumen CASABLANCA","phone":"05 22 75 90 80","location":"https://www.telecontact.ma/plan-acces/pharmacie-nouamania-/3300796/casablanca","city":"Casablanca"},{"name":"Pharmacie Nouassi","address":"route 110 (bd Chefchaouni), rue 3 n°1, Q. Sidi Bernoussi, 20250  CASABLANCA","phone":"05 22 35 51 79","location":"https://www.telecontact.ma/plan-acces/pharmacie-nouassi-/3110964/casablanca","city":"Casablanca"},{"name":"Pharmacie Noufissa","address":"2, c.com. Soufiane , Sidi Maârouf, Q. Sidi Maarouf, 20280  CASABLANCA","phone":"05 22 58 14 97","location":"https://www.telecontact.ma/plan-acces/pharmacie-noufissa-/3122546/casablanca","city":"Casablanca"},{"name":"Pharmacie Nour","address":"10 B, bd Yacoub El Mansour ang. bd Sidi Abderrahmane, Q. Hay Salam ex Cil, 20210  CASABLANCA","phone":"05 22 36 89 11","location":"https://www.telecontact.ma/plan-acces/pharmacie-nour-/2216944/casablanca","city":"Casablanca"},{"name":"Pharmacie Nour Al Mostakbal","address":"lotiss. Al Moustakbal, GH49 imm.3A 445 n°3, Q. Sidi Maarouf CASABLANCA","phone":"05 22 33 51 91","location":"https://www.telecontact.ma/plan-acces/pharmacie-nour-al-mostakbal-/3288318/casablanca","city":"Casablanca"},{"name":"Pharmacie Nour Alhouda","address":"hay El Oulfa, Lotiss. Yassine , lot 55 n°3, Q. Oulfa, 20240  CASABLANCA","phone":"05 22 89 89 56","location":"https://www.telecontact.ma/plan-acces/pharmacie-nour-alhouda-/3085711/casablanca","city":"Casablanca"},{"name":"Pharmacie Nouvelle","address":"16, bd de la Liberté , Q. Benjdia, 20120  CASABLANCA","phone":"05 22 31 47 17","location":"https://www.telecontact.ma/plan-acces/pharmacie-nouvelle-/0295200/casablanca","city":"Casablanca"},{"name":"Pharmacie Nouvelle Aïn Borja","address":"136 Bis, bd Ibn Tachfine , Q. la Villette, 20320  CASABLANCA","phone":"05 22 62 17 60","location":"","city":"Casablanca"},{"name":"Pharmacie Nouvelle Ere","address":"rue Choukri Mustapha Petchou, bloc 15, n°1, Q. Maarif, 20370  CASABLANCA","phone":"05 22 94 53 47","location":"https://www.telecontact.ma/plan-acces/pharmacie-nouvelle-ere-/3098411/casablanca","city":"Casablanca"},{"name":"Pharmacie ElAlaoui","address":"lot. El Azhar, tranche 6/1 n°36, Q. Sidi Moumen, 20630  CASABLANCA","phone":"05 22 75 56 31","location":"https://www.telecontact.ma/plan-acces/pharmacie-elalaoui-/3000733/casablanca","city":"Casablanca"},{"name":"Pharmacie ElAnadel","address":"7, bd Abdellatif Ben Kaddour , Q. Racine, 20050  CASABLANCA","phone":"05 22 36 54 38","location":"https://www.telecontact.ma/plan-acces/pharmacie-elanadel-/0883500/casablanca","city":"Casablanca"},{"name":"Pharmacie ElAnbar","address":"bd Aba Chouaïb Doukali ang. rue 62 n°3 derb Sidi Maarouf V, Q. Nouvelle Médina, 20520  CASABLANCA","phone":"05 22 28 52 99","location":"https://www.telecontact.ma/plan-acces/pharmacie-elanbar-/1625900/casablanca","city":"Casablanca"},{"name":"Pharmacie ElAnouar","address":"quartier Bine Lemdoune, rue 17, n°34 bis, Q. Nouvelle Médina, 20550  CASABLANCA","phone":"05 22 28 17 08","location":"https://www.telecontact.ma/plan-acces/pharmacie-elanouar-/2198226/casablanca","city":"Casablanca"},{"name":"Pharmacie ElBachir","address":"62 Bis, bd Haj Ahmed Mekouar -ex C.Caillat , Q. Aïn Sebaâ, 20580  CASABLANCA","phone":"05 22 34 41 27","location":"https://www.telecontact.ma/plan-acces/pharmacie-elbachir-/3010047/casablanca","city":"Casablanca"},{"name":"Pharmacie ElBadie","address":"lot. El Azhar, bloc I4 n°27, Q. Sidi Moumen, 20630  CASABLANCA","phone":"05 22 76 73 76","location":"https://www.telecontact.ma/plan-acces/pharmacie-elbadie-/3115781/casablanca","city":"Casablanca"},{"name":"Pharmacie Elbahia","address":"64, rue Ahmed Sebbagh , Q. Derb El Kabir, 20500  CASABLANCA","phone":"05 22 80 87 56","location":"https://www.telecontact.ma/plan-acces/pharmacie-elbahia-/0286700/casablanca","city":"Casablanca"},{"name":"Pharmacie ElDrabna","address":"rte. de Bouskoura 109 , km 11 Drabna Oulad Haddou, Q. Sidi Maarouf, 20180  CASABLANCA","phone":"05 27 43 72 85","location":"https://www.telecontact.ma/plan-acces/pharmacie-eldrabna-/3099319/casablanca","city":"Casablanca"},{"name":"Pharmacie ElFaiz","address":"avenue Khalid Bnou Loualid, lotiss. Halioua mag.n°5, Q. Aïn Sebaâ, 20250  CASABLANCA","phone":"05 22 35 59 39","location":"https://www.telecontact.ma/plan-acces/pharmacie-elfaiz-/3114822/casablanca","city":"Casablanca"},{"name":"Pharmacie Elfajr","address":"101, place du Marché, rue Bilal, Q. Sidi Moumen, 20400  CASABLANCA","phone":"05 22 70 06 49","location":"https://www.telecontact.ma/plan-acces/pharmacie-elfajr-/1563000/casablanca","city":"Casablanca"},{"name":"Pharmacie ElFarissi","address":"9, rue Souleimane El Farissi , Q. la Villette, 20320  CASABLANCA","phone":"05 22 63 70 14","location":"https://www.telecontact.ma/plan-acces/pharmacie-elfarissi-/3003068/casablanca","city":"Casablanca"},{"name":"Pharmacie Elfida","address":"151, bd El Fida , Q. Nouvelle Médina, 20550  CASABLANCA","phone":"05 22 28 12 37","location":"https://www.telecontact.ma/plan-acces/pharmacie-elfida-/0287100/casablanca","city":"Casablanca"},{"name":"Pharmacie Elfirdaous","address":"hay Jamila VII (cité Djemaa), rue 14 n°90-92, Q. Sbata, 20452  CASABLANCA","phone":"05 22 57 31 18","location":"https://www.telecontact.ma/plan-acces/pharmacie-elfirdaous-/1563800/casablanca","city":"Casablanca"},{"name":"Pharmacie ElHaddaoui","address":"104, lotiss. Dandoune , Ouled Haddou Sidi Maârouf, Q. Sidi Maarouf, 20280  CASABLANCA","phone":"05 22 33 57 74","location":"https://www.telecontact.ma/plan-acces/pharmacie-elhaddaoui-/3018290/casablanca","city":"Casablanca"},{"name":"Pharmacie ElHanaa","address":"140, avenue Wahda El Ifriquia -ex N , Q. Ben M'Sik, 20452  CASABLANCA","phone":"05 22 37 27 47","location":"https://www.telecontact.ma/plan-acces/pharmacie-elhanaa-/0290700/casablanca","city":"Casablanca"},{"name":"Pharmacie ElHank","address":"36, cité El Hank, n°16, Q. Bourgogne, 20160  CASABLANCA","phone":"05 22 94 94 22","location":"https://www.telecontact.ma/plan-acces/pharmacie-elhank-/3073941/casablanca","city":"Casablanca"},{"name":"Pharmacie ElHaouzia","address":"avenue du Dix Mars, bloc 58 n°114, Q. Sidi Othman, 20700  CASABLANCA","phone":"05 22 55 37 80","location":"https://www.telecontact.ma/plan-acces/pharmacie-elhaouzia-/3013391/casablanca","city":"Casablanca"},{"name":"Pharmacie ElHarti","address":"775, avenue du Cdt Driss Lharti - ex A , Q. Sbata, 20450  CASABLANCA","phone":"05 22 37 17 37","location":"https://www.telecontact.ma/plan-acces/pharmacie-elharti-/1779800/casablanca","city":"Casablanca"},{"name":"Pharmacie Elhassani","address":"bd Nabouls, hay El Qods, Q. Sidi Bernoussi CASABLANCA","phone":"05 22 74 08 67","location":"https://www.telecontact.ma/plan-acces/pharmacie-elhassani-/2153907/casablanca","city":"Casablanca"},{"name":"Pharmacie ElHay","address":"dar Lamane, bloc P n°6, Q. Hay Mohammadi, 20570  CASABLANCA","phone":"05 22 63 64 86","location":"https://www.telecontact.ma/plan-acces/pharmacie-elhay-/3071973/casablanca","city":"Casablanca"},{"name":"Pharmacie Régionale","address":"80, bd de la Liberté , Q. Benjdia, 20120  CASABLANCA","phone":"05 22 31 33 94","location":"","city":"Casablanca"},{"name":"Pharmacie Résidence Al Yakine","address":"hay Sidi Moumen, résid. AlYakine GH4 n°2, Q. Sidi Moumen CASABLANCA","phone":"05 22 70 00 56","location":"","city":"Casablanca"},{"name":"Pharmacie Résidence Annaïm","address":"hay El Oulfa, résid. Annaïm n°4, Q. Oulfa, 20260  CASABLANCA","phone":"05 22 89 43 09","location":"","city":"Casablanca"},{"name":"Pharmacie Résidence ElMouahidine","address":"lot. El Mouahidine, Résid. Abdelmoumen 1 n°7, Q. Hay Mohammadi, 20570  CASABLANCA","phone":"05 22 67 45 99","location":"","city":"Casablanca"},{"name":"Pharmacie Résidence Nadia","address":"bd Brahim Roudani -ex route El Jadida, c.com. Nadia, cité plateau, Q. Al Batha, 20390  CASABLANCA","phone":"05 22 23 72 69","location":"","city":"Casablanca"},{"name":"Pharmacie Rhamna","address":"22, avenue Lhoussine Assoussi, hay Sidi Moumen, Q. Sidi Moumen CASABLANCA","phone":"05 22 34 38 40","location":"https://www.telecontact.ma/plan-acces/pharmacie-rhamna-/3269875/casablanca","city":"Casablanca"},{"name":"Pharmacie Rhanime","address":"10, rue Lécrivain , Q. la Villette, 20320  CASABLANCA","phone":"05 22 63 62 65","location":"https://www.telecontact.ma/plan-acces/pharmacie-rhanime-/3034425/casablanca","city":"Casablanca"},{"name":"Pharmacie Riad Al Andalous","address":"hay Andalous 5, rue 19 n°37 bis, Q. Aïn Chok, 20460  CASABLANCA","phone":"05 22 50 01 76","location":"https://www.telecontact.ma/plan-acces/pharmacie-riad-al-andalous-/3080478/casablanca","city":"Casablanca"},{"name":"Pharmacie Riad Al Hadika","address":"lotiss. Alhadika II, rue 13 n°20, Q. Sidi Moumen CASABLANCA","phone":"05 22 70 22 80","location":"https://www.telecontact.ma/plan-acces/pharmacie-riad-al-hadika-/3335844/casablanca","city":"Casablanca"},{"name":"Pharmacie Riad Al Qods","address":"310 Bis, cité Sidi Bernoussi, Zenata, Q. Sidi Bernoussi, 20600  CASABLANCA","phone":"05 22 73 21 91","location":"https://www.telecontact.ma/plan-acces/pharmacie-riad-al-qods-/3153855/casablanca","city":"Casablanca"},{"name":"Pharmacie Riad El Ali","address":"avenue du Deux Mars ang. rue 15, Riad ElAli, Q. Nouvelle Médina, 20550  CASABLANCA","phone":"05 22 28 14 01","location":"https://www.telecontact.ma/plan-acces/pharmacie-riad-el-ali-/0297700/casablanca","city":"Casablanca"},{"name":"Pharmacie Riad El Oulfa","address":"lotiss. Riad El Oulfa, Gh 5 n°241, Q. Hay Hassani CASABLANCA","phone":"05 22 91 45 78","location":"https://www.telecontact.ma/plan-acces/pharmacie-riad-el-oulfa-/3228922/casablanca","city":"Casablanca"},{"name":"Pharmacie Riad ElBernoussi","address":"lot. Anassi, lot Riad El Bernoussi, Gh8 M2, Q. Sidi Moumen CASABLANCA","phone":"05 22 74 22 22","location":"https://www.telecontact.ma/plan-acces/pharmacie-riad-elbernoussi-/3291941/casablanca","city":"Casablanca"},{"name":"Pharmacie Riad Raha","address":"quartier Les Jardins de Lissasfa, GH 4 - 2 entrée 20 n°4, Q. Lissasfa CASABLANCA","phone":"05 22 65 56 89","location":"https://www.telecontact.ma/plan-acces/pharmacie-riad-raha-/3335847/casablanca","city":"Casablanca"},{"name":"Pharmacie Riad Salam","address":"bd de la Corniche , Q. Aïn Diab, 20180  CASABLANCA","phone":"05 22 36 92 99","location":"https://www.telecontact.ma/plan-acces/pharmacie-riad-salam-/2208915/casablanca","city":"Casablanca"},{"name":"Pharmacie Riad Sidi Moumen","address":"lotiss. Riad, résid. Riad Sidi Moumen GH12 imm.3 MG3, Q. Hay Mohammadi CASABLANCA","phone":"05 22 70 00 33","location":"https://www.telecontact.ma/plan-acces/pharmacie-riad-sidi-moumen-/3335331/casablanca","city":"Casablanca"},{"name":"Pharmacie Rifai","address":"135, bd du Fouarat , Q. Hay Mohammadi, 20570  CASABLANCA","phone":"05 22 60 17 24","location":"https://www.telecontact.ma/plan-acces/pharmacie-rifai-/2129545/casablanca","city":"Casablanca"},{"name":"Pharmacie Riff","address":"306, bd Mohammed VI , Q. Nouvelle Médina, 20550  CASABLANCA","phone":"05 22 28 12 87","location":"https://www.telecontact.ma/plan-acces/pharmacie-riff-/0297800/casablanca","city":"Casablanca"},{"name":"Pharmacie Rihab","address":"5, rue Cadi Bakkar - ex Serpolet , Q. Maarif, 20380  CASABLANCA","phone":"05 22 25 46 85","location":"https://www.telecontact.ma/plan-acces/pharmacie-rihab-/0885400/casablanca","city":"Casablanca"},{"name":"Pharmacie Rihame","address":"hay Moulay Abdallah, rue 317, n°3, Q. Aïn Chok, 20480  CASABLANCA","phone":"05 22 21 92 85","location":"https://www.telecontact.ma/plan-acces/pharmacie-rihame-/3033548/casablanca","city":"Casablanca"},{"name":"Pharmacie Bab Taddart","address":"193, bd El Hachemi El Filali , Q. Polo, 20420  CASABLANCA","phone":"05 22 80 49 14","location":"https://www.telecontact.ma/plan-acces/pharmacie-bab-taddart-/3142928/casablanca","city":"Casablanca"},{"name":"Pharmacie Bachkou","address":"lotiss. Bachkou, projet Erac 47-48, Q. Polo, 20420  CASABLANCA","phone":"05 22 83 35 45","location":"https://www.telecontact.ma/plan-acces/pharmacie-bachkou-/2183101/casablanca","city":"Casablanca"},{"name":"Pharmacie Badia","address":"bd Abdelhadi Boutaleb ex rte d'Azemmour, résid. la Corniche EQ3 Zone 3, Q. Hay Hassani, 20200  CASABLANCA","phone":"05 22 91 38 73","location":"https://www.telecontact.ma/plan-acces/pharmacie-badia-/3121772/casablanca","city":"Casablanca"},{"name":"Pharmacie Badr","address":"221, rue Tnaker, abc.Médina, Q. Ancienne Médina, 20000  CASABLANCA","phone":"05 22 27 85 70","location":"https://www.telecontact.ma/plan-acces/pharmacie-badr-/0882800/casablanca","city":"Casablanca"},{"name":"Pharmacie Baghouil","address":"38, bd Nassiba Bent Kaab , Q. Sidi Moumen, 20400  CASABLANCA","phone":"05 22 70 27 26","location":"https://www.telecontact.ma/plan-acces/pharmacie-baghouil-/2109985/casablanca","city":"Casablanca"},{"name":"Pharmacie Bahja","address":"derb El Kheir, rue 135 n°129 et 131, Q. Aïn Chok, 20480  CASABLANCA","phone":"05 22 21 31 54","location":"https://www.telecontact.ma/plan-acces/pharmacie-bahja-/2110165/casablanca","city":"Casablanca"},{"name":"Pharmacie Bakali","address":"1057, avenue du Deux Mars , Q. Aïn Chok, 20480  CASABLANCA","phone":"05 22 50 57 90","location":"https://www.telecontact.ma/plan-acces/pharmacie-bakali-/2184821/casablanca","city":"Casablanca"},{"name":"Pharmacie Balsam El Yassamine","address":"hay Hassani, GH5 or Addouha, lotiss. Al Yassamine imm. 79 n°4, Q. Hay Hassani CASABLANCA","phone":"05 22 65 05 10","location":"https://www.telecontact.ma/plan-acces/pharmacie-balsam-el-yassamine-/3288323/casablanca","city":"Casablanca"},{"name":"Pharmacie Bargach","address":"hay Tarik rue 6 n°21, Q. Sidi Bernoussi, 20600  CASABLANCA","phone":"05 22 74 06 21","location":"https://www.telecontact.ma/plan-acces/pharmacie-bargach-/2199207/casablanca","city":"Casablanca"},{"name":"Pharmacie Basma","address":"35, avenue Akid Allam, Bournazil, Q. Hay Moulay Rachid, 20650  CASABLANCA","phone":"05 22 70 58 16","location":"https://www.telecontact.ma/plan-acces/pharmacie-basma-/2129540/casablanca","city":"Casablanca"},{"name":"Pharmacie Bassatine","address":"158, avenue Abdelkader Essahraoui, massira III., Q. Hay Moulay Rachid, 20660  CASABLANCA","phone":"05 22 71 83 41","location":"https://www.telecontact.ma/plan-acces/pharmacie-bassatine-/3012913/casablanca","city":"Casablanca"},{"name":"Pharmacie Bassatine AlAzhar","address":"hay Hassani, Azhar imm 175 Gh 48 mag 16, Q. Hay Hassani CASABLANCA","phone":"05 22 65 79 48","location":"https://www.telecontact.ma/plan-acces/pharmacie-bassatine-alazhar-/3308823/casablanca","city":"Casablanca"},{"name":"Pharmacie Bayt Alfath","address":"quartier Beausite, résid Bayt AlFath n°6, Q. Aïn Sebaâ, 20250  CASABLANCA","phone":"05 22 34 47 53","location":"https://www.telecontact.ma/plan-acces/pharmacie-bayt-alfath-/3018345/casablanca","city":"Casablanca"},{"name":"Pharmacie Bayti Oulfa","address":"lotiss. Riad El Oulfa, cplexe Résid. Bayti Sakane imm. 32 mag.n°1, Q. Oulfa CASABLANCA","phone":"05 22 93 16 24","location":"https://www.telecontact.ma/plan-acces/pharmacie-bayti-oulfa-/3344518/casablanca","city":"Casablanca"},{"name":"Pharmacie Bd Al Qods","address":"bd El Qods, lotiss. Logemo imm. 54 n°2, Inara I, Q. Aïn Chok, 20460  CASABLANCA","phone":"05 22 52 39 39","location":"https://www.telecontact.ma/plan-acces/pharmacie-bd-al-qods-/3133711/casablanca","city":"Casablanca"},{"name":"Pharmacie Bd Alhoussine Essoussi","address":"6, avenue Lhoussine Assoussi, résid. des jardins de Mimosas, Q. Sidi Moumen, 20400  CASABLANCA","phone":"05 22 72 59 59","location":"https://www.telecontact.ma/plan-acces/pharmacie-bd-alhoussine-essoussi-/3152709/casablanca","city":"Casablanca"},{"name":"Pharmacie bd Mohamed VI","address":"hay Moulay Abdallah, rue 286 n°37, bd. ElKhalil, Q. Aïn Chok, 20480  CASABLANCA","phone":"05 22 50 49 36","location":"https://www.telecontact.ma/plan-acces/pharmacie-bd-mohamed-vi-/2179519/casablanca","city":"Casablanca"},{"name":"Pharmacie Bechar El Kheir","address":"35, hay Mohammadi, Quartier Bechar El Kheir, Q. Hay Mohammadi, 20560  CASABLANCA","phone":"05 22 63 50 29","location":"https://www.telecontact.ma/plan-acces/pharmacie-bechar-el-kheir-/3112194/casablanca","city":"Casablanca"},{"name":"Pharmacie Belakhdar","address":"quartier Ahl Loghlam, Salam I tranche C n°73, Q. Sidi Moumen CASABLANCA","phone":"05 22 73 08 09","location":"https://www.telecontact.ma/plan-acces/pharmacie-belakhdar-/3277813/casablanca","city":"Casablanca"},{"name":"Pharmacie BelAlami","address":"Hay Masjid, rue 23, n°70, Q. Nouvelle Médina, 20520  CASABLANCA","phone":"05 22 80 79 47","location":"https://www.telecontact.ma/plan-acces/pharmacie-belalami-/3019405/casablanca","city":"Casablanca"},{"name":"Pharmacie Agdal Al Hadika","address":"lotiss. Alhadika, M5, Q. Sidi Moumen CASABLANCA","phone":"05 20 28 10 07","location":"https://www.telecontact.ma/plan-acces/pharmacie-agdal-al-hadika-/3345950/casablanca","city":"Casablanca"},{"name":"Pharmacie Ahl Albadr","address":"83, lotiss. Al Badr, GH 09, n° 8, Q. Aïn Sebaâ CASABLANCA","phone":"05 22 34 13 39","location":"https://www.telecontact.ma/plan-acces/pharmacie-ahl-albadr-/3154593/casablanca","city":"Casablanca"},{"name":"Pharmacie Ahl AlFalah","address":"ancienne route de Rabat, résid. Aghanimn°40, Q. Aïn Sebaâ CASABLANCA","phone":"05 22 71 74 91","location":"https://www.telecontact.ma/plan-acces/pharmacie-ahl-alfalah-/3308142/casablanca","city":"Casablanca"},{"name":"Pharmacie Ahl Assalam","address":"quartier Ahl Loghlam, lotiss. Abouab Essalam n° L 94, Q. Sidi Moumen CASABLANCA","phone":"05 22 01 05 98","location":"https://www.telecontact.ma/plan-acces/pharmacie-ahl-assalam-/3280861/casablanca","city":"Casablanca"},{"name":"Pharmacie Ahl Loughlam","address":"quartier Ahl Loghlam, lotiss. Salam I, lot n°380 tranche C, Q. Sidi Moumen CASABLANCA","phone":"05 22 01 04 75","location":"https://www.telecontact.ma/plan-acces/pharmacie-ahl-loughlam-/3275624/casablanca","city":"Casablanca"},{"name":"Pharmacie Ahlan","address":"cité Sidi Othmane II, rue 6 n°2-4,, Q. Sidi Othman, 20700  CASABLANCA","phone":"05 22 29 19 26","location":"https://www.telecontact.ma/plan-acces/pharmacie-ahlan-/2110009/casablanca","city":"Casablanca"},{"name":"Pharmacie Ahmed","address":"hay El Wifak 2, ang. rue 40 n°75 et rue 63 n°3, Q. Oulfa CASABLANCA","phone":"05 22 89 28 23","location":"https://www.telecontact.ma/plan-acces/pharmacie-ahmed-/3086075/casablanca","city":"Casablanca"},{"name":"Pharmacie Ahmed Ali","address":"60 Bis, lotiss. El Fath , Sidi Maârouf, Q. Sidi Maarouf, 20280  CASABLANCA","phone":"05 22 97 32 16","location":"https://www.telecontact.ma/plan-acces/pharmacie-ahmed-ali-/3079415/casablanca","city":"Casablanca"},{"name":"Pharmacie Ahmed Rayan","address":"hay El Oulfa, résid. cité Essalam Gh9, imm. 77 n°1, Q. Oulfa CASABLANCA","phone":"05 22 89 83 34","location":"https://www.telecontact.ma/plan-acces/pharmacie-ahmed-rayan-/3275158/casablanca","city":"Casablanca"},{"name":"Pharmacie Ahmida","address":"rte 1100 , cplxe com. Sidi Maarouf, Oulad Haddou, Q. Sidi Maarouf, 20280  CASABLANCA","phone":"05 22 33 55 87","location":"https://www.telecontact.ma/plan-acces/pharmacie-ahmida-/2222790/casablanca","city":"Casablanca"},{"name":"Pharmacie Aicha","address":"167, bd Modibo Keita , Q. Nouvelle Médina, 20520  CASABLANCA","phone":"05 22 28 17 96","location":"https://www.telecontact.ma/plan-acces/pharmacie-aicha-/0280500/casablanca","city":"Casablanca"},{"name":"Pharmacie Aida","address":"196, bd Mohamed Zerktouni , Q. Gautier, 20060  CASABLANCA","phone":"05 22 26 32 53","location":"https://www.telecontact.ma/plan-acces/pharmacie-aida-/2110047/casablanca","city":"Casablanca"},{"name":"Pharmacie Aïn Chifaa","address":"128, bd Aba Chouaïb Doukali, Aïn Chifaa II, Q. Hay El Farah, 20540  CASABLANCA","phone":"05 22 81 16 97","location":"","city":"Casablanca"},{"name":"Pharmacie Ain Chok","address":"pl. de la Grande Mosquée, bd Temara, Q. Aïn Chok, 20480  CASABLANCA","phone":"05 22 21 03 60","location":"https://www.telecontact.ma/plan-acces/pharmacie-ain-chok-/0280700/casablanca","city":"Casablanca"},{"name":"Pharmacie Aïn-Diab","address":"rue de la Mer Jaune -ex Cap Ferrat , Q. Aïn Diab, 20180  CASABLANCA","phone":"05 22 79 80 13","location":"","city":"Casablanca"},{"name":"Pharmacie Ait Lbacha","address":"rte 109 , Km 10 Ouled Hadou, Sidi Maarouf, Q. Sidi Maarouf CASABLANCA","phone":"05 22 32 12 10","location":"https://www.telecontact.ma/plan-acces/pharmacie-ait-lbacha-/3268498/casablanca","city":"Casablanca"},{"name":"Pharmacie Al Akhawayn","address":"lotiss. Badr -ex Vermont, c. com. Badr n°27, Q. Californie, 20150  CASABLANCA","phone":"05 22 21 48 48","location":"https://www.telecontact.ma/plan-acces/pharmacie-al-akhawayn-/2200828/casablanca","city":"Casablanca"},{"name":"Pharmacie Al Alaa","address":"avenue Lhoussine Assoussi, 11, Imm. G. lot Al Alaa, Q. Sidi Moumen, 20400  CASABLANCA","phone":"05 22 71 96 72","location":"https://www.telecontact.ma/plan-acces/pharmacie-al-alaa-/3077589/casablanca","city":"Casablanca"},{"name":"Pharmacie Al Amana","address":"quartier Ahl Loghlam, lotiss. Al Amana n°419, Q. Sidi Moumen CASABLANCA","phone":"05 22 75 81 45","location":"https://www.telecontact.ma/plan-acces/pharmacie-al-amana-/3294203/casablanca","city":"Casablanca"},{"name":"Pharmacie Al Amne","address":"1, rue du Golo , Q. Polo, 20420  CASABLANCA","phone":"05 22 83 76 30","location":"https://www.telecontact.ma/plan-acces/pharmacie-al-amne-/3115468/casablanca","city":"Casablanca"},{"name":"Pharmacie El Jabr","address":"cité Lalla Mériem, bloc 40 n°61, Q. Sidi Othman, 20660  CASABLANCA","phone":"05 22 55 34 29","location":"https://www.telecontact.ma/plan-acces/pharmacie-el-jabr-/3138833/casablanca","city":"Casablanca"},{"name":"Pharmacie El Jaoui","address":"hay El Hana, rue 22, n°36, Q. Hay El Hana, 20200  CASABLANCA","phone":"05 22 39 91 24","location":"https://www.telecontact.ma/plan-acces/pharmacie-el-jaoui-/3077470/casablanca","city":"Casablanca"},{"name":"Pharmacie El Jazira","address":"lotiss. Elhouria, rue 19 n°65, Q. Sidi Moumen, 20400  CASABLANCA","phone":"05 22 72 90 12","location":"https://www.telecontact.ma/plan-acces/pharmacie-el-jazira-/3119882/casablanca","city":"Casablanca"},{"name":"Pharmacie El Karti","address":"lotiss. Al Moustakbal, Gh 27 imm. 238 A n°1, Sidi Maârouf, Q. Sidi Maarouf CASABLANCA","phone":"05 22 58 38 11","location":"https://www.telecontact.ma/plan-acces/pharmacie-el-karti-/3158508/casablanca","city":"Casablanca"},{"name":"Pharmacie El Mokhtar","address":"19, bd de la Grande Ceinture (A.Sebaa) , Q. Aïn Sebaâ, 20250  CASABLANCA","phone":"05 22 66 49 49","location":"https://www.telecontact.ma/plan-acces/pharmacie-el-mokhtar-/3001047/casablanca","city":"Casablanca"},{"name":"Pharmacie El Mrahi","address":"cité Sidi Bernoussi, rte. de Rabat n° 1, cplxe Attakadoum porte n°4, Q. Sidi Bernoussi CASABLANCA","phone":"05 22 76 68 56","location":"https://www.telecontact.ma/plan-acces/pharmacie-el-mrahi-/3269888/casablanca","city":"Casablanca"},{"name":"Pharmacie El Warda","address":"Derb Warda (H. Hassani), rue 1 bloc 1 n°19/21, Q. Hay Hassani, 20220  CASABLANCA","phone":"05 22 91 34 37","location":"https://www.telecontact.ma/plan-acces/pharmacie-el-warda-/2110094/casablanca","city":"Casablanca"},{"name":"Pharmacie El Wifak","address":"hay El Oulfa, ElWifak 3 rue 65 ang. rue 63, Q. Oulfa, 20220  CASABLANCA","phone":"05 22 90 05 56","location":"https://www.telecontact.ma/plan-acces/pharmacie-el-wifak-/3087182/casablanca","city":"Casablanca"},{"name":"Pharmacie El Youssoufi","address":"lotiss. Ennour, rue 9 n°19, cité Sidi Othmane, Q. Hay Moulay Rachid, 20700  CASABLANCA","phone":"05 22 57 96 62","location":"https://www.telecontact.ma/plan-acces/pharmacie-el-youssoufi-/3138303/casablanca","city":"Casablanca"},{"name":"Pharmacie Chadili","address":"hay Sidi Moumen, Lot. Amal n°4, rue 24, bd Houssine Soussi, Q. Sidi Moumen, 20400  CASABLANCA","phone":"05 22 72 80 91","location":"https://www.telecontact.ma/plan-acces/pharmacie-chadili-/3119880/casablanca","city":"Casablanca"},{"name":"Pharmacie Chafik","address":"bd Abdelhadi Boutaleb ex rte d'Azemmour, hay ElMassaoudi rue 1 n°40 bis, Q. Aïn Diab, 20170  CASABLANCA","phone":"05 22 39 04 80","location":"https://www.telecontact.ma/plan-acces/pharmacie-chafik-/3123230/casablanca","city":"Casablanca"},{"name":"Pharmacie Chama","address":"92, bd El Adarissa , Q. Sidi Moumen, 20400  CASABLANCA","phone":"05 22 70 36 59","location":"https://www.telecontact.ma/plan-acces/pharmacie-chama-/2110217/casablanca","city":"Casablanca"},{"name":"Pharmacie Chaoui","address":"497, bd El Fida , Q. Nouvelle Médina, 20550  CASABLANCA","phone":"05 22 28 08 21","location":"https://www.telecontact.ma/plan-acces/pharmacie-chaoui-/0284600/casablanca","city":"Casablanca"},{"name":"Pharmacie Charai","address":"hay Moulay Rachid, grp. 2 rue 45 n°9, Q. Hay Moulay Rachid, 20650  CASABLANCA","phone":"05 22 72 66 64","location":"https://www.telecontact.ma/plan-acces/pharmacie-charai-/3114759/casablanca","city":"Casablanca"},{"name":"Pharmacie Charif Idrissi","address":"quartier Lissasfa (route d'El Jadida), Riad Sofia Gh9 n°201, Q. Lissasfa CASABLANCA","phone":"05 22 65 01 91","location":"https://www.telecontact.ma/plan-acces/pharmacie-charif-idrissi-/3275622/casablanca","city":"Casablanca"},{"name":"Pharmacie Charles Nicolle","address":"19, place Louis Pasteur -ex Charles Nicolle , Q. les Hôpitaux, 20360  CASABLANCA","phone":"05 22 47 56 44","location":"https://www.telecontact.ma/plan-acces/pharmacie-charles-nicolle-/2152710/casablanca","city":"Casablanca"},{"name":"Pharmacie Chefchaouni","address":"168, bd Chefchaouni , Q. Aïn Sebaâ, 20250  CASABLANCA","phone":"05 22 35 78 79","location":"https://www.telecontact.ma/plan-acces/pharmacie-chefchaouni-/2132570/casablanca","city":"Casablanca"},{"name":"Pharmacie Chems","address":"quartier Lissasfa (route d'El Jadida), Assalam II imm. 4 GH 8, Q. Oulfa, 20230  CASABLANCA","phone":"05 22 89 39 88","location":"https://www.telecontact.ma/plan-acces/pharmacie-chems-/3072250/casablanca","city":"Casablanca"},{"name":"Pharmacie Cherkaoui","address":"9, rue de l' Avenir, derb Abdellah, Q. Bourgogne, 20000  CASABLANCA","phone":"05 22 27 97 60","location":"https://www.telecontact.ma/plan-acces/pharmacie-cherkaoui-/3035614/casablanca","city":"Casablanca"},{"name":"Pharmacie Chifa","address":"bd d' Afghanistan , Q. Hay Hassani, 20220  CASABLANCA","phone":"05 22 90 32 63","location":"https://www.telecontact.ma/plan-acces/pharmacie-chifa-/0284800/casablanca","city":"Casablanca"},{"name":"Pharmacie Chifaa Al Anassi","address":"lot. Anassi, extension 43, entrée 14 n°232, Q. Sidi Moumen CASABLANCA","phone":"05 22 74 84 85","location":"https://www.telecontact.ma/plan-acces/pharmacie-chifaa-al-anassi-/3335321/casablanca","city":"Casablanca"},{"name":"Pharmacie Chloropytum","address":"avenue du Dix Mars, B24 gal.Marchande Marjane, Q. Sidi Othman CASABLANCA","phone":"05 22 57 28 31","location":"https://www.telecontact.ma/plan-acces/pharmacie-chloropytum-/3339491/casablanca","city":"Casablanca"},{"name":"Pharmacie Choroke","address":"hay Moulay Abdallah, rue 48 n°8-10, Q. Aïn Chok, 20480  CASABLANCA","phone":"05 22 50 08 77","location":"https://www.telecontact.ma/plan-acces/pharmacie-choroke-/2153740/casablanca","city":"Casablanca"},{"name":"Pharmacie Chouhada","address":"253, bd du Nil, cité Mabrouka, Q. Sidi Othman, 20700  CASABLANCA","phone":"05 22 37 34 71","location":"https://www.telecontact.ma/plan-acces/pharmacie-chouhada-/0284900/casablanca","city":"Casablanca"},{"name":"Pharmacie Choura","address":"bd Ibn Louennane, résid. AlAssil n°4 A 003, Q. Hay Mohammadi, 20350  CASABLANCA","phone":"05 22 60 30 63","location":"https://www.telecontact.ma/plan-acces/pharmacie-choura-/2215396/casablanca","city":"Casablanca"},{"name":"Pharmacie Chrifa","address":"Hay Chrifa, rue 15 n°2, Q. Aïn Chok, 20460  CASABLANCA","phone":"05 22 52 35 16","location":"https://www.telecontact.ma/plan-acces/pharmacie-chrifa-/2197655/casablanca","city":"Casablanca"},{"name":"Pharmacie Chtaiba","address":"derb Moulay Larbi Alaoui - ex Fomar, rue 50 n°38, Q. Hay Moulay Rachid, 20700  CASABLANCA","phone":"05 22 56 32 37","location":"https://www.telecontact.ma/plan-acces/pharmacie-chtaiba-/2182812/casablanca","city":"Casablanca"},{"name":"Pharmacie Cinéma Anfa","address":"141 Bis, bd Sidi Abderrahman , Q. Hay El Hana, 20200  CASABLANCA","phone":"05 22 36 87 62","location":"","city":"Casablanca"},{"name":"Pharmacie Cité Addaman","address":"bd Dakhla -ex H, résid. addaman GH 9B n° 4, Q. Aïn Chok, 20460  CASABLANCA","phone":"05 22 21 34 99","location":"","city":"Casablanca"},{"name":"Pharmacie du 15 Ramadan","address":"lot. le Comptoir (Ben Jdia) 161, bloc F, Q. Benjdia, 20120  CASABLANCA","phone":"05 22 45 25 21","location":"https://www.telecontact.ma/plan-acces/pharmacie-du-15-ramadan-/2149416/casablanca","city":"Casablanca"},{"name":"Pharmacie du 2 Mars","address":"575, avenue du Deux Mars , Q. Nouvelle Médina, 20550  CASABLANCA","phone":"05 22 28 57 84","location":"https://www.telecontact.ma/plan-acces/pharmacie-du-2-mars-/0286300/casablanca","city":"Casablanca"},{"name":"Pharmacie du 20 Août","address":"17, rue Lahcen El Arjoune -ex Dalton, q. des hôpitaux, Q. les Hôpitaux, 20360  CASABLANCA","phone":"05 22 86 38 92","location":"","city":"Casablanca"},{"name":"Pharmacie du bloc","address":"cité Sidi Othmane, bloc 63 n°4, Q. Sidi Othman, 20700  CASABLANCA","phone":"05 22 57 29 36","location":"https://www.telecontact.ma/plan-acces/pharmacie-du-bloc-/2148199/casablanca","city":"Casablanca"},{"name":"Pharmacie du Caf","address":"1, rue Oukhouane - ex Capit. Portalis , Q. Beauséjour, 20200  CASABLANCA","phone":"05 22 39 89 73","location":"https://www.telecontact.ma/plan-acces/pharmacie-du-caf-/2148730/casablanca","city":"Casablanca"},{"name":"Pharmacie du Caire","address":"65, rue Beni M'Guild , Q. Nouvelle Médina, 20500  CASABLANCA","phone":"05 22 28 12 32","location":"https://www.telecontact.ma/plan-acces/pharmacie-du-caire-/0284100/casablanca","city":"Casablanca"},{"name":"Pharmacie du Carrefour","address":"271, bd Ibn Tachfine , Q. Ain Borja, 20320  CASABLANCA","phone":"05 22 61 83 65","location":"https://www.telecontact.ma/plan-acces/pharmacie-du-carrefour-/2142250/casablanca","city":"Casablanca"},{"name":"Pharmacie du Cèdre","address":"rue Errazi ang. rue Rodin, Q. Palmiers, 20340  CASABLANCA","phone":"05 22 25 14 67","location":"","city":"Casablanca"},{"name":"Pharmacie du Centre","address":"387, bd Mohammed V , Q. Belvédère, 20300  CASABLANCA","phone":"05 22 40 52 59","location":"https://www.telecontact.ma/plan-acces/pharmacie-du-centre-/1563100/casablanca","city":"Casablanca"},{"name":"Pharmacie du Complexe Sportif","address":"63, rue Mamoun Mohamed -ex Platon , Q. Maarif, 20380  CASABLANCA","phone":"05 22 36 05 07","location":"https://www.telecontact.ma/plan-acces/pharmacie-du-complexe-sportif-/1566800/casablanca","city":"Casablanca"},{"name":"Pharmacie Du Conseil","address":"637, bd Mohammed V , Q. Belvédère, 20300  CASABLANCA","phone":"05 22 24 94 80","location":"https://www.telecontact.ma/plan-acces/pharmacie-du-conseil-/2110224/casablanca","city":"Casablanca"},{"name":"Pharmacie du Croissant","address":"3, bd Sour Jdid , Q. Ancienne Médina, 20000  CASABLANCA","phone":"05 22 22 02 61","location":"https://www.telecontact.ma/plan-acces/pharmacie-du-croissant-/0285600/casablanca","city":"Casablanca"},{"name":"Pharmacie du Dispensaire","address":"110, rue Bachir Belhoucine, Jamila 4, Q. Sbata, 20452  CASABLANCA","phone":"05 22 38 40 50","location":"https://www.telecontact.ma/plan-acces/pharmacie-du-dispensaire-/2107371/casablanca","city":"Casablanca"},{"name":"Pharmacie du Gharb","address":"13, rue des Aït Yafalmane , Q. Nouvelle Médina, 20550  CASABLANCA","phone":"05 22 28 03 46","location":"https://www.telecontact.ma/plan-acces/pharmacie-du-gharb-/0289800/casablanca","city":"Casablanca"},{"name":"Pharmacie du Golf d'Anfa","address":"5 C, av. Habib Sinaceur -ex Assa et Nantes , Q. Anfa Supérieur, 20050  CASABLANCA","phone":"05 22 39 74 58","location":"","city":"Casablanca"},{"name":"Pharmacie du Grand Maghreb","address":"hay Moulay Rachid, grp. 2 rue 11 n°110, Q. Hay Moulay Rachid, 20650  CASABLANCA","phone":"05 22 70 95 60","location":"https://www.telecontact.ma/plan-acces/pharmacie-du-grand-maghreb-/2185037/casablanca","city":"Casablanca"},{"name":"Pharmacie du Jasmin","address":"61, avenue du Deux Mars , Q. Mers Sultan, 21490  CASABLANCA","phone":"05 22 81 17 67","location":"https://www.telecontact.ma/plan-acces/pharmacie-du-jasmin-/2181948/casablanca","city":"Casablanca"},{"name":"Pharmacie du Jura","address":"129 Bis, rue Oussama Ibn Zaid - ex Jura , Q. Maarif, 20330  CASABLANCA","phone":"05 22 25 34 41","location":"https://www.telecontact.ma/plan-acces/pharmacie-du-jura-/0291700/casablanca","city":"Casablanca"},{"name":"Pharmacie du Liban","address":"504, av du Six Novembre 1975 - ex B, cité Djemaâ, Q. Ben M'Sik, 20452  CASABLANCA","phone":"05 22 37 11 27","location":"https://www.telecontact.ma/plan-acces/pharmacie-du-liban-/0292100/casablanca","city":"Casablanca"},{"name":"Pharmacie du Louvre","address":"36, bd du 9 Avril -ex Cl. Perrault , Q. Palmiers, 20340  CASABLANCA","phone":"05 22 25 32 05","location":"https://www.telecontact.ma/plan-acces/pharmacie-du-louvre-/0292600/casablanca","city":"Casablanca"},{"name":"Pharmacie Ifni","address":"rue d' Ifni ang. bd Mohamed VI, imm.Wafabank n°7, Q. la Gironde, 20300  CASABLANCA","phone":"05 22 44 94 66","location":"https://www.telecontact.ma/plan-acces/pharmacie-ifni-/3053171/casablanca","city":"Casablanca"},{"name":"Pharmacie Ikbal","address":"avenue Mohamed Bouziane, lot. 81, hay My Rachid, grp. 4, Q. Hay Moulay Rachid, 20670  CASABLANCA","phone":"05 22 71 48 96","location":"https://www.telecontact.ma/plan-acces/pharmacie-ikbal-/3138390/casablanca","city":"Casablanca"},{"name":"Pharmacie Ikhlas","address":"136, bd Ibn Louennane , Q. Hay Mohammadi, 20560  CASABLANCA","phone":"05 22 60 07 19","location":"https://www.telecontact.ma/plan-acces/pharmacie-ikhlas-/2155681/casablanca","city":"Casablanca"},{"name":"Pharmacie Iklilia","address":"bd Mohamed Jamal Addorra, Résid. ElHamd, q. beaussite, Q. Aïn Sebaâ, 20250  CASABLANCA","phone":"05 22 66 33 67","location":"https://www.telecontact.ma/plan-acces/pharmacie-iklilia-/3076258/casablanca","city":"Casablanca"},{"name":"Pharmacie Ilham","address":"rue Nabigha Doubiani -ex Bazas ang. rue St Savin, Q. Belvédère, 20310  CASABLANCA","phone":"05 22 54 34 33","location":"https://www.telecontact.ma/plan-acces/pharmacie-ilham-/2223698/casablanca","city":"Casablanca"},{"name":"Pharmacie Ilyass","address":"hay Sidi Moumen, résid. Fadle 2, GH9, imm. 1, n° 3, Q. Sidi Moumen, 20640  CASABLANCA","phone":"05 22 71 92 46","location":"https://www.telecontact.ma/plan-acces/pharmacie-ilyass-/3153746/casablanca","city":"Casablanca"},{"name":"Pharmacie Inès","address":"hay Moulay Abdallah, rue 75 n°40, Q. Aïn Chok, 20480  CASABLANCA","phone":"05 22 50 24 80","location":"","city":"Casablanca"},{"name":"Pharmacie Internationale","address":"rue Mohamed El Hansali -ex Cdt Provost , Q. Ancienne Médina, 20000  CASABLANCA","phone":"05 22 22 02 32","location":"https://www.telecontact.ma/plan-acces/pharmacie-internationale-/0291500/casablanca","city":"Casablanca"},{"name":"Pharmacie Isaaf","address":"douar Lahraouine , Q. Hay Moulay Rachid CASABLANCA","phone":"05 22 59 95 01","location":"","city":"Casablanca"},{"name":"Pharmacie Ismailia","address":"43, rue Abou Al Waqt Khalaf -ex Forest, Lahjajma, Q. Bourgogne, 20160  CASABLANCA","phone":"05 22 36 97 44","location":"","city":"Casablanca"},{"name":"Pharmacie Itqane","address":"lot. Zakaria, rue 10 n°50, Q. Aïn Chok, 20460  CASABLANCA","phone":"05 22 50 86 78","location":"","city":"Casablanca"},{"name":"Pharmacie Jabir Bnou Hayane","address":"500, bd Abdellah Senhaji - ex C, Drissia 2, Q. Hay El Farah, 20530  CASABLANCA","phone":"05 22 81 53 64","location":"","city":"Casablanca"},{"name":"Pharmacie Jabrane","address":"zone indus. El Wifak, rte H H24, n°52, Q. Oulfa CASABLANCA","phone":"05 22 90 58 81","location":"","city":"Casablanca"},{"name":"Pharmacie Jacaranda","address":"1 Bis, rue El Gara, bd. Mly Slimane, Q. Oukacha, 20580  CASABLANCA","phone":"05 22 67 30 06","location":"","city":"Casablanca"},{"name":"Pharmacie Jader","address":"bd El Qods (Sidi Maârouf), Casanearshore, park 1100, Q. Sidi Maarouf CASABLANCA","phone":"06 71 98 77 27","location":"","city":"Casablanca"},{"name":"Pharmacie Jamai","address":"hay El Oulfa, ensemble immobilier AlFirdaous Gh 15 imm. A 80 n°1, Q. Oulfa CASABLANCA","phone":"05 22 93 30 25","location":"","city":"Casablanca"},{"name":"Pharmacie Jamea AlAdarissa","address":"lotiss. Loubna , mag. n°B1 Sidi Maarouf, Q. Sidi Maarouf CASABLANCA","phone":"05 22 58 09 32","location":"","city":"Casablanca"},{"name":"Pharmacie Jamila","address":"326, avenue du Cdt Driss Lharti - ex A , Q. Sbata, 20452  CASABLANCA","phone":"05 22 37 21 07","location":"","city":"Casablanca"},{"name":"Pharmacie Janquière","address":"39, rue Beni Amar , Q. Hay Mohammadi, 20320  CASABLANCA","phone":"05 22 61 69 56","location":"","city":"Casablanca"},{"name":"Pharmacie Jardin d'Omar","address":"4, quartier Lissasfa III (route d'El Jadida), Kasbat Al Amine 2, GH1, imm. 1, Q. Oulfa CASABLANCA","phone":"05 22 65 07 06","location":"","city":"Casablanca"},{"name":"Pharmacie Dyar ElManzeh","address":"quartier Lissasfa (route d'El Jadida), résid. Prestige Oulfa GH12 imm1, Q. Lissasfa CASABLANCA","phone":"05 22 93 14 41","location":"https://www.telecontact.ma/plan-acces/pharmacie-dyar-elmanzeh-/3267913/casablanca","city":"Casablanca"},{"name":"Pharmacie Eden","address":"13, rue Jaafar Ibn Habib (Bourgogne) , Q. Racine, 20050  CASABLANCA","phone":"05 22 49 28 79","location":"https://www.telecontact.ma/plan-acces/pharmacie-eden-/2222278/casablanca","city":"Casablanca"},{"name":"Pharmacie Eden Rock","address":"60, bd Tantan -ex Monte carlo , Q. Bourgogne, 20160  CASABLANCA","phone":"05 22 36 35 30","location":"https://www.telecontact.ma/plan-acces/pharmacie-eden-rock-/3073701/casablanca","city":"Casablanca"},{"name":"Pharmacie El Baraka 2","address":"lot Al Baraka 2, rue 48 n° 18, Q. Aïn Chok CASABLANCA","phone":"05 22 50 87 39","location":"https://www.telecontact.ma/plan-acces/pharmacie-el-baraka-2-/3335850/casablanca","city":"Casablanca"},{"name":"Pharmacie El Bhira","address":"188, bd de Goulmima , Q. Bourgogne, 20020  CASABLANCA","phone":"05 22 26 81 31","location":"https://www.telecontact.ma/plan-acces/pharmacie-el-bhira-/3118492/casablanca","city":"Casablanca"},{"name":"Pharmacie El Boussairi","address":"cité Sidi Bernoussi, bloc 33, n°18 bis, Q. Sidi Bernoussi, 20600  CASABLANCA","phone":"05 22 75 80 99","location":"https://www.telecontact.ma/plan-acces/pharmacie-el-boussairi-/3078129/casablanca","city":"Casablanca"},{"name":"Pharmacie El Fadl","address":"196, bd Smara , Q. Aïn Chok, 20480  CASABLANCA","phone":"05 22 50 36 18","location":"https://www.telecontact.ma/plan-acces/pharmacie-el-fadl-/2110262/casablanca","city":"Casablanca"},{"name":"Pharmacie El Faraj","address":"316, bd Abdellah Senhaji - ex C, hay Idrissia I, Q. Hay El Farah, 20530  CASABLANCA","phone":"05 22 28 85 69","location":"https://www.telecontact.ma/plan-acces/pharmacie-el-faraj-/0287400/casablanca","city":"Casablanca"},{"name":"Pharmacie El Feddane","address":"hay El Wifak 3 rue 41 n°270, Q. Oulfa CASABLANCA","phone":"05 22 89 88 50","location":"https://www.telecontact.ma/plan-acces/pharmacie-el-feddane-/3272341/casablanca","city":"Casablanca"},{"name":"Pharmacie El Fetouaki","address":"hay Mohammadi, rue 2, n°1 bis, lot Tafraout, Q. Hay Mohammadi, 20570  CASABLANCA","phone":"05 22 66 58 50","location":"https://www.telecontact.ma/plan-acces/pharmacie-el-fetouaki-/2215338/casablanca","city":"Casablanca"},{"name":"Pharmacie El Filali","address":"hay Sidi Moumen, rue 4 n°52, Q. Sidi Moumen, 20450  CASABLANCA","phone":"05 22 70 46 35","location":"https://www.telecontact.ma/plan-acces/pharmacie-el-filali-/3077602/casablanca","city":"Casablanca"},{"name":"Pharmacie El Hachemi","address":"bd Anoual -ex Felix Faure, résid. Andaloussia imm.34 n°1, Q. Derb Ghalef, 20340  CASABLANCA","phone":"05 22 99 64 39","location":"https://www.telecontact.ma/plan-acces/pharmacie-el-hachemi-/3201989/casablanca","city":"Casablanca"},{"name":"Pharmacie El Hilal","address":"19, rue El Bachir Laalej -ex F. Ponsard , Q. Val Fleuri, 20390  CASABLANCA","phone":"05 22 98 49 87","location":"https://www.telecontact.ma/plan-acces/pharmacie-el-hilal-/2110207/casablanca","city":"Casablanca"},{"name":"Pharmacie El Houria","address":"149, avenue Chaouki Jilali Meskini ex Lhoucin B.A Toto , Q. Hay Mohammadi, 20570  CASABLANCA","phone":"05 22 62 06 32","location":"https://www.telecontact.ma/plan-acces/pharmacie-el-houria-/3096388/casablanca","city":"Casablanca"},{"name":"Pharmacie Luxembourg","address":"qu. les Crêtes, lot. Yasmina lot. n°24 Bachkou, Q. Polo, 20420  CASABLANCA","phone":"05 22 85 55 56","location":"https://www.telecontact.ma/plan-acces/pharmacie-luxembourg-/3060142/casablanca","city":"Casablanca"},{"name":"Pharmacie Lycée Bnou Rochd","address":"quartier Lissasfa (route d'El Jadida), Lotiss. Itifaq n°11 Bis, Q. Oulfa, 20230  CASABLANCA","phone":"05 22 65 01 81","location":"","city":"Casablanca"},{"name":"Pharmacie Lycée Med V","address":"28 Bis, rue de Salonique , Q. Mers Sultan, 21490  CASABLANCA","phone":"05 22 85 43 95","location":"","city":"Casablanca"},{"name":"Pharmacie M'Jidou","address":"lotiss. Alhouda rue 14 n° 4, Q. Sidi Moumen, 20400  CASABLANCA","phone":"05 22 72 52 33","location":"","city":"Casablanca"},{"name":"Pharmacie Mabrouk","address":"hay Mohammadi, 57 bis cité Zerktouni, Q. Hay Mohammadi, 20560  CASABLANCA","phone":"05 22 62 63 61","location":"https://www.telecontact.ma/plan-acces/pharmacie-mabrouk-/3031099/casablanca","city":"Casablanca"},{"name":"Pharmacie Machaâ Allah","address":"hay El Houda, rue 14 n°162, Q. Sbata, 20550  CASABLANCA","phone":"05 22 38 68 59","location":"","city":"Casablanca"},{"name":"Pharmacie Madinat Nassim","address":"83, hay Nassim, local n°10, Lissasfa, Q. Lissasfa CASABLANCA","phone":"05 22 90 47 96","location":"https://www.telecontact.ma/plan-acces/pharmacie-madinat-nassim-/3058511/casablanca","city":"Casablanca"},{"name":"Pharmacie Madinati","address":"bd Ahl Loghlam, lot. Madinati, Gh3 imm. 1 n°2, Q. Sidi Moumen, 20630  CASABLANCA","phone":"05 22 75 75 68","location":"https://www.telecontact.ma/plan-acces/pharmacie-madinati-/3140956/casablanca","city":"Casablanca"},{"name":"Pharmacie Maghreb Arabe","address":"cité Sidi Bernoussi, bloc 8 n°19, Q. Sidi Bernoussi, 20600  CASABLANCA","phone":"05 22 73 15 48","location":"https://www.telecontact.ma/plan-acces/pharmacie-maghreb-arabe-/1223400/casablanca","city":"Casablanca"},{"name":"Pharmacie Mahmoud","address":"34, lotiss. Saâda III , Sidi Maârouf, Q. Sidi Maarouf, 20280  CASABLANCA","phone":"05 22 97 39 81","location":"https://www.telecontact.ma/plan-acces/pharmacie-mahmoud-/3058544/casablanca","city":"Casablanca"},{"name":"Pharmacie Majal Assiha","address":"256, av. Mokhtar Ben Ahmed Guernaoui , Q. Sidi Bernoussi, 20250  CASABLANCA","phone":"05 22 74 08 37","location":"https://www.telecontact.ma/plan-acces/pharmacie-majal-assiha-/2159964/casablanca","city":"Casablanca"},{"name":"Pharmacie Majorelle","address":"quartier Oulad Taleb, Cooperative Sofaca n°14, Q. Aïn Chok, 20460  CASABLANCA","phone":"05 22 50 81 42","location":"https://www.telecontact.ma/plan-acces/pharmacie-majorelle-/3136804/casablanca","city":"Casablanca"},{"name":"Pharmacie Malak","address":"33, rue Saria Ben Zounaim-ex Louis David , Q. Palmiers, 20340  CASABLANCA","phone":"05 22 25 95 86","location":"https://www.telecontact.ma/plan-acces/pharmacie-malak-/2147932/casablanca","city":"Casablanca"},{"name":"Pharmacie Malika","address":"579, bd Modibo Keita , Q. Polo, 20550  CASABLANCA","phone":"05 22 80 75 59","location":"https://www.telecontact.ma/plan-acces/pharmacie-malika-/2129491/casablanca","city":"Casablanca"},{"name":"Pharmacie Mamounia","address":"20, place Prince Sidi Mohamed -ex Sémard , Q. Belvédère, 20310  CASABLANCA","phone":"05 22 24 56 42","location":"https://www.telecontact.ma/plan-acces/pharmacie-mamounia-/2114435/casablanca","city":"Casablanca"},{"name":"Pharmacie Mandarona","address":"rte de Bouskoura (c.t.1029) , résid. Ennakhil, Sidi Maarouf, Q. Sidi Maarouf, 20270  CASABLANCA","phone":"05 22 33 56 99","location":"https://www.telecontact.ma/plan-acces/pharmacie-mandarona-/2198613/casablanca","city":"Casablanca"},{"name":"Pharmacie Marché Crio","address":"cité Lalla Mériem, bloc 8 n°10, Q. Sidi Othman CASABLANCA","phone":"05 22 56 44 17","location":"","city":"Casablanca"},{"name":"Pharmacie Marché Municipal Ain Chok","address":"174, bd El Khalil, hay Mly Abdellah, Q. Aïn Chok, 20480  CASABLANCA","phone":"05 22 21 79 68","location":"","city":"Casablanca"},{"name":"Pharmacie Marché Santra","address":"cité Lalla Mériem, marché 5, n°11, Q. Sidi Othman, 20660  CASABLANCA","phone":"05 22 37 65 23","location":"","city":"Casablanca"},{"name":"Pharmacie Marhaba","address":"61, av des Forces Armées Royales , Q. Sidi Belyout, 20000  CASABLANCA","phone":"05 22 31 16 40","location":"https://www.telecontact.ma/plan-acces/pharmacie-marhaba-/0293100/casablanca","city":"Casablanca"},{"name":"Pharmacie Naïma","address":"124, bd Sidi Abderrahman, derb Elhouria bloc 211, Q. Hay Hassani, 20220  CASABLANCA","phone":"05 22 90 31 00","location":"","city":"Casablanca"},{"name":"Pharmacie Najd","address":"1 Bis, rue Ibn Chahid - ex Rigaud , Q. Palmiers, 20340  CASABLANCA","phone":"05 22 25 60 64","location":"https://www.telecontact.ma/plan-acces/pharmacie-najd-/0294700/casablanca","city":"Casablanca"},{"name":"Pharmacie Napoleon","address":"1, rue d' Oradour sur Glane , Q. Oasis, 20410  CASABLANCA","phone":"05 22 25 08 84","location":"https://www.telecontact.ma/plan-acces/pharmacie-napoleon-/3111829/casablanca","city":"Casablanca"},{"name":"Pharmacie Narcisses","address":"hay Salama III, grp.4 bloc A lot.7, Q. Sidi Othman, 20670  CASABLANCA","phone":"05 22 38 63 20","location":"https://www.telecontact.ma/plan-acces/pharmacie-narcisses-/2197653/casablanca","city":"Casablanca"},{"name":"Pharmacie Narjis","address":"141, bd Yacoub El Mansour , Q. Maarif, 20380  CASABLANCA","phone":"05 22 25 00 74","location":"https://www.telecontact.ma/plan-acces/pharmacie-narjis-/1400900/casablanca","city":"Casablanca"},{"name":"Pharmacie Nasma","address":"205, rue des Sraghnas (nouv. médina) , Q. Nouvelle Médina, 20520  CASABLANCA","phone":"05 22 28 08 74","location":"https://www.telecontact.ma/plan-acces/pharmacie-nasma-/1223500/casablanca","city":"Casablanca"},{"name":"Pharmacie Nasri","address":"hay Hassani, bloc 2, n°75 bis cité Commune Urbaine, Q. Oulfa, 20220  CASABLANCA","phone":"05 22 93 28 74","location":"https://www.telecontact.ma/plan-acces/pharmacie-nasri-/3085908/casablanca","city":"Casablanca"},{"name":"Pharmacie Nasser","address":"derb Sidi Maarouf IV (El Fida), rue 48 n°11, Q. Nouvelle Médina, 20550  CASABLANCA","phone":"05 22 28 02 26","location":"https://www.telecontact.ma/plan-acces/pharmacie-nasser-/0294800/casablanca","city":"Casablanca"},{"name":"Pharmacie Milan","address":"hay Omar Ibn Khattab, rue 18 n70, Q. Hay El Farah, 20540  CASABLANCA","phone":"05 22 81 54 39","location":"https://www.telecontact.ma/plan-acces/pharmacie-milan-/1422300/casablanca","city":"Casablanca"},{"name":"Pharmacie Mima","address":"hay Idrissia I, rue 40, n°6, Q. Hay El Farah, 20530  CASABLANCA","phone":"05 22 80 07 60","location":"https://www.telecontact.ma/plan-acces/pharmacie-mima-/2110033/casablanca","city":"Casablanca"},{"name":"Pharmacie Mimosas","address":"400, bd Abdallah Ibrahim ex- Al Jamia , Q. Oasis CASABLANCA","phone":"05 22 98 86 97","location":"https://www.telecontact.ma/plan-acces/pharmacie-mimosas-/2178963/casablanca","city":"Casablanca"},{"name":"Pharmacie minuit","address":"39, bd de Paris , Q. Lusitania, 20070  CASABLANCA","phone":"05 22 27 57 88","location":"https://www.telecontact.ma/plan-acces/pharmacie-minuit-/0294000/casablanca","city":"Casablanca"},{"name":"Pharmacie Mirabel","address":"5, rue des Fauvettes , Q. Oasis, 20410  CASABLANCA","phone":"05 22 23 11 59","location":"https://www.telecontact.ma/plan-acces/pharmacie-mirabel-/3084716/casablanca","city":"Casablanca"},{"name":"Pharmacie Missimi","address":"Lot. Missimi, rue12 ang. rue 24 n°1, Q. Oulfa, 20220  CASABLANCA","phone":"05 22 90 05 29","location":"https://www.telecontact.ma/plan-acces/pharmacie-missimi-/2189767/casablanca","city":"Casablanca"},{"name":"Pharmacie Mly Abdellah","address":"hay Moulay Abdallah rue 300, n°98, Q. Aïn Chok, 20480  CASABLANCA","phone":"05 22 21 73 64","location":"https://www.telecontact.ma/plan-acces/pharmacie-mly-abdellah-/2153579/casablanca","city":"Casablanca"},{"name":"Pharmacie Mly. Thami","address":"cité Essalam, n°1A, Gh 1, Q. Oulfa CASABLANCA","phone":"05 22 89 56 87","location":"https://www.telecontact.ma/plan-acces/pharmacie-mly-thami-/3003544/casablanca","city":"Casablanca"},{"name":"Pharmacie Moderne","address":"68, bd du Onze Janvier , Q. Centre Ville, 20130  CASABLANCA","phone":"05 22 22 49 15","location":"https://www.telecontact.ma/plan-acces/pharmacie-moderne-/0294100/casablanca","city":"Casablanca"},{"name":"Pharmacie Moderne Hay Elfalah","address":"hay El Falah, av O n°128 - 130, Q. Hay Moulay Rachid, 20670  CASABLANCA","phone":"05 22 70 60 71","location":"https://www.telecontact.ma/plan-acces/pharmacie-moderne-hay-elfalah-/2156256/casablanca","city":"Casablanca"},{"name":"Pharmacie Modi Bokeita","address":"728, bd Modibo Keita , Q. Polo, 20550  CASABLANCA","phone":"05 22 82 65 24","location":"https://www.telecontact.ma/plan-acces/pharmacie-modi-bokeita-/2191933/casablanca","city":"Casablanca"},{"name":"Pharmacie Mohamed Amine","address":"74, rue Amzil Moha , Q. Sidi Moumen, 20400  CASABLANCA","phone":"05 22 72 48 67","location":"https://www.telecontact.ma/plan-acces/pharmacie-mohamed-amine-/3115948/casablanca","city":"Casablanca"},{"name":"Pharmacie Mohamed Guessous","address":"Lot. Missimi, rue 20 n°7, bd. Oued Abi Raqraq, Q. Oulfa, 20220  CASABLANCA","phone":"05 22 89 03 79","location":"https://www.telecontact.ma/plan-acces/pharmacie-mohamed-guessous-/2217228/casablanca","city":"Casablanca"},{"name":"Pharmacie Mohamed Zefzaf","address":"lotiss. Alhadika, imm. 11, n° 41, 2° tranche, Q. Sidi Moumen, 20640  CASABLANCA","phone":"05 22 70 03 67","location":"https://www.telecontact.ma/plan-acces/pharmacie-mohamed-zefzaf-/3153753/casablanca","city":"Casablanca"},{"name":"Pharmacie Mohammed V","address":"49, rue Abbasides - ex Abyssinie , Q. Nouvelle Médina, 20500  CASABLANCA","phone":"05 22 28 05 87","location":"https://www.telecontact.ma/plan-acces/pharmacie-mohammed-v-/0294200/casablanca","city":"Casablanca"},{"name":"Pharmacie Mokhtar Soussi","address":"hay Mabrouka, rue 16 n°64, Q. Sidi Othman, 20700  CASABLANCA","phone":"05 22 38 99 97","location":"https://www.telecontact.ma/plan-acces/pharmacie-mokhtar-soussi-/3072995/casablanca","city":"Casablanca"},{"name":"Pharmacie Moncef","address":"76, bd Chefchaouni , Q. Aïn Sebaâ, 20250  CASABLANCA","phone":"05 22 35 34 80","location":"https://www.telecontact.ma/plan-acces/pharmacie-moncef-/0294600/casablanca","city":"Casablanca"},{"name":"Pharmacie Morjana","address":"15, lotiss. Communal , Sidi Maârouf, Q. Sidi Maarouf, 20190  CASABLANCA","phone":"05 22 32 19 31","location":"https://www.telecontact.ma/plan-acces/pharmacie-morjana-/3079389/casablanca","city":"Casablanca"},{"name":"Pharmacie Morsad","address":"93, lotiss. Bouchra , rte 1100 Sidi Maârouf Ouled Haddou, Q. Sidi Maarouf, 20280  CASABLANCA","phone":"05 22 32 19 29","location":"https://www.telecontact.ma/plan-acces/pharmacie-morsad-/3058288/casablanca","city":"Casablanca"},{"name":"Pharmacie Mosquée Hassan II","address":"116, bd Sour Jdid , Q. Bourgogne, 20030  CASABLANCA","phone":"05 22 20 44 23","location":"","city":"Casablanca"},{"name":"Pharmacie l'Orchidée","address":"bd Ghandi ang. bd. Abdelkrim Khattabi, Q. Hay El Hana, 20200  CASABLANCA","phone":"05 22 36 66 22","location":"","city":"Casablanca"},{"name":"Pharmacie la Brise","address":"38, rue Abou Abbas Al Azfi, Maârif, Q. Maarif, 20370  CASABLANCA","phone":"05 22 99 07 10","location":"https://www.telecontact.ma/plan-acces/pharmacie-la-brise-/3123401/casablanca","city":"Casablanca"},{"name":"Pharmacie la Ceinture Verte","address":"hay Sidi Moumen, résid. Safaa rue 1 n°45, Q. Sidi Moumen CASABLANCA","phone":"05 22 71 14 90","location":"https://www.telecontact.ma/plan-acces/pharmacie-la-ceinture-verte-/3268316/casablanca","city":"Casablanca"},{"name":"Pharmacie la Colombe","address":"33, rue Ibn Nafiss - ex Faucilles , Q. Maarif, 20330  CASABLANCA","phone":"05 22 25 71 07","location":"https://www.telecontact.ma/plan-acces/pharmacie-la-colombe-/1566700/casablanca","city":"Casablanca"},{"name":"Pharmacie la corniche","address":"319, bd Moulay Youssef , Q. Bourgogne, 20040  CASABLANCA","phone":"05 22 27 67 03","location":"https://www.telecontact.ma/plan-acces/pharmacie-la-corniche-/0285400/casablanca","city":"Casablanca"},{"name":"Pharmacie La Croix Verte","address":"155, av Hassan Seghir ang. bd Lalla Yacout, Q. Derb Omar, 20090  CASABLANCA","phone":"05 22 30 02 97","location":"https://www.telecontact.ma/plan-acces/pharmacie-la-croix-verte-/0285900/casablanca","city":"Casablanca"},{"name":"Pharmacie La Durance","address":"15, rue de la Durance , Q. Polo CASABLANCA","phone":"05 22 85 66 72","location":"https://www.telecontact.ma/plan-acces/pharmacie-la-durance-/3282184/casablanca","city":"Casablanca"},{"name":"Pharmacie la Faculté","address":"hay Moulay Rachid, grp. 3 rue 1 n°8-9, Q. Hay Moulay Rachid, 20660  CASABLANCA","phone":"05 22 71 25 25","location":"","city":"Casablanca"},{"name":"Pharmacie la Grande Artère","address":"1258, bd Mohammed VI, Souk du bois, Koréa, Q. Nouvelle Médina, 20520  CASABLANCA","phone":"05 22 82 23 30","location":"","city":"Casablanca"},{"name":"Pharmacie la Grande Ceinture","address":"99, bd de la Grande Ceinture (h.Mohammadi), hay Adil, Q. Ain Borja, 20350  CASABLANCA","phone":"05 22 60 10 82","location":"https://www.telecontact.ma/plan-acces/pharmacie-la-grande-ceinture-/1567000/casablanca","city":"Casablanca"},{"name":"Pharmacie la Mission","address":"cité Sidi Bernoussi, km 12 résid. Al Boustane II, Q. Sidi Bernoussi, 20600  CASABLANCA","phone":"05 22 74 19 30","location":"https://www.telecontact.ma/plan-acces/pharmacie-la-mission-/3079032/casablanca","city":"Casablanca"},{"name":"Pharmacie la Palmeraie","address":"hay El Qods, résid. Annakhil, Q. Sidi Bernoussi, 20600  CASABLANCA","phone":"05 22 73 59 93","location":"https://www.telecontact.ma/plan-acces/pharmacie-la-palmeraie-/2206670/casablanca","city":"Casablanca"},{"name":"Pharmacie la Perle Bleue","address":"68, av de la Plage (Aïn Sebâa) , Q. Aïn Sebaâ, 20580  CASABLANCA","phone":"05 22 67 33 68","location":"https://www.telecontact.ma/plan-acces/pharmacie-la-perle-bleue-/3075509/casablanca","city":"Casablanca"},{"name":"Pharmacie la Place","address":"hay Rakbout, rue 12 n°53, Q. Sidi Moumen, 20400  CASABLANCA","phone":"05 22 70 16 39","location":"https://www.telecontact.ma/plan-acces/pharmacie-la-place-/2176308/casablanca","city":"Casablanca"},{"name":"Pharmacie la Porte d'Anassi","address":"lot. Anassi, 1C M1 Bis, 25 Ahl Loghlam, Q. Sidi Moumen, 20630  CASABLANCA","phone":"05 22 76 85 58","location":"","city":"Casablanca"},{"name":"Pharmacie La Prairie","address":"3 Bis, rue de Constantinople , Q. Mers Sultan, 20490  CASABLANCA","phone":"05 22 48 45 47","location":"https://www.telecontact.ma/plan-acces/pharmacie-la-prairie-/2196413/casablanca","city":"Casablanca"},{"name":"Pharmacie la Référence","address":"quartier Beausite, c. com. Makro Aïn Sebaâ, Q. Aïn Sebaâ, 20250  CASABLANCA","phone":"05 22 66 54 86","location":"","city":"Casablanca"},{"name":"Pharmacie la Résidence","address":"149, bd Lahcen Ou Idder ang. bd de la Résistance, Q. Mers Sultan, 20490  CASABLANCA","phone":"05 22 44 57 50","location":"","city":"Casablanca"},{"name":"Pharmacie la Resistance Casablanca","address":"337, bd Mohammed V , Q. Centre Ville, 20110  CASABLANCA","phone":"05 22 30 30 82","location":"https://www.telecontact.ma/plan-acces/pharmacie-la-resistance-casablanca-/0284000/casablanca","city":"Casablanca"},{"name":"Pharmacie la Rosa","address":"7, bd Chefchaouni, rte 110 km 11, Q. Sidi Bernoussi, 20250  CASABLANCA","phone":"05 22 34 33 00","location":"https://www.telecontact.ma/plan-acces/pharmacie-la-rosa-/3196341/casablanca","city":"Casablanca"},{"name":"Pharmacie Taha","address":"lot. Lamia (bd Fouarat), bloc 22, n°18, Q. Ain Borja, 20570  CASABLANCA","phone":"05 22 62 92 92","location":"https://www.telecontact.ma/plan-acces/pharmacie-taha-/2204307/casablanca","city":"Casablanca"},{"name":"Pharmacie Taha Houssine","address":"13, avenue B (Drissia II) , Q. Hay El Farah, 20530  CASABLANCA","phone":"05 22 85 22 25","location":"https://www.telecontact.ma/plan-acces/pharmacie-taha-houssine-/3013185/casablanca","city":"Casablanca"},{"name":"Pharmacie Tahria","address":"lot. Anassi 30 n°9 et 10, Q. Sidi Moumen, 20630  CASABLANCA","phone":"05 22 75 65 65","location":"https://www.telecontact.ma/plan-acces/pharmacie-tahria-/3077745/casablanca","city":"Casablanca"},{"name":"Pharmacie Taif","address":"Hay Massira III , rue 5, n°17, Q. Hay Moulay Rachid, 20670  CASABLANCA","phone":"05 22 71 97 23","location":"https://www.telecontact.ma/plan-acces/pharmacie-taif-/2215081/casablanca","city":"Casablanca"},{"name":"Pharmacie Taj Al Madina","address":"cité Sidi Othmane, q. Al Madina Al jadida, Tranche C, imm.17 n°1, Q. Sidi Othman CASABLANCA","phone":"05 22 55 05 16","location":"https://www.telecontact.ma/plan-acces/pharmacie-taj-al-madina-/3299896/casablanca","city":"Casablanca"},{"name":"Pharmacie Tajmouati","address":"242, bd Mohamed Zerktouni , Q. Gautier, 20060  CASABLANCA","phone":"05 22 22 71 91","location":"https://www.telecontact.ma/plan-acces/pharmacie-tajmouati-/2184146/casablanca","city":"Casablanca"},{"name":"Pharmacie Tam","address":"302, bd Oued Sebou , Q. Oulfa, 20220  CASABLANCA","phone":"05 22 90 18 99","location":"https://www.telecontact.ma/plan-acces/pharmacie-tam-/1398500/casablanca","city":"Casablanca"},{"name":"Pharmacie Tamaarouft","address":"4, rue Tamaarouft -ex Alma , Q. Bourgogne, 20040  CASABLANCA","phone":"05 22 26 56 16","location":"https://www.telecontact.ma/plan-acces/pharmacie-tamaarouft-/3171701/casablanca","city":"Casablanca"},{"name":"Pharmacie Tarik","address":"67, bd Abou Dar Ghafari-ex E , Q. Sidi Bernoussi, 20600  CASABLANCA","phone":"05 22 73 21 48","location":"https://www.telecontact.ma/plan-acces/pharmacie-tarik-/0885700/casablanca","city":"Casablanca"},{"name":"Pharmacie Tarik AlWahda","address":"1, bd Tarik El Ouahda - ex Unité , Q. Oukacha, 20580  CASABLANCA","phone":"05 22 35 91 63","location":"https://www.telecontact.ma/plan-acces/pharmacie-tarik-alwahda-/2126668/casablanca","city":"Casablanca"},{"name":"Pharmacie Tarik El Kheir","address":"hay Tarik Elkheir (Al Qods) rue9 n°3/5, Q. Sidi Bernoussi, 20600  CASABLANCA","phone":"05 22 75 33 52","location":"https://www.telecontact.ma/plan-acces/pharmacie-tarik-el-kheir-/2185953/casablanca","city":"Casablanca"},{"name":"Pharmacie Tassnime","address":"1, lotiss. Al Moustakbal, Sidi Maârouf, Q. Sidi Maarouf CASABLANCA","phone":"05 22 58 41 72","location":"https://www.telecontact.ma/plan-acces/pharmacie-tassnime-/3148678/casablanca","city":"Casablanca"},{"name":"Pharmacie Tawdi","address":"85, avenue Kheidar Ben Abdellah - ex C , Q. Hay Moulay Rachid, 20670  CASABLANCA","phone":"05 22 70 41 68","location":"https://www.telecontact.ma/plan-acces/pharmacie-tawdi-/0299100/casablanca","city":"Casablanca"},{"name":"Pharmacie Tazi","address":"Hay Walâa n°5 , imm. 9, Tranche 17, sect. II, Q. Sidi Moumen, 20640  CASABLANCA","phone":"05 22 71 23 06","location":"https://www.telecontact.ma/plan-acces/pharmacie-tazi-/3062746/casablanca","city":"Casablanca"},{"name":"Pharmacie Tessema","address":"168, avenue Joulan - ex D, Jamila 6 (cité Djemaâ), Q. Sbata, 20452  CASABLANCA","phone":"05 22 55 69 69","location":"https://www.telecontact.ma/plan-acces/pharmacie-tessema-/3016351/casablanca","city":"Casablanca"},{"name":"Pharmacie Thomas","address":"hay Sidi Moumen, résid. Dalia n°286, Q. Sidi Moumen, 20400  CASABLANCA","phone":"05 22 34 16 43","location":"https://www.telecontact.ma/plan-acces/pharmacie-thomas-/3115846/casablanca","city":"Casablanca"},{"name":"Pharmacie Tilila","address":"hay Laimoune, 47 HH Eloulfa, Q. Oulfa CASABLANCA","phone":"05 22 93 86 84","location":"https://www.telecontact.ma/plan-acces/pharmacie-tilila-/3207331/casablanca","city":"Casablanca"},{"name":"Pharmacie Tissir II","address":"hay Tissir II, av A n°58, Q. Ain Borja, 20570  CASABLANCA","phone":"05 22 62 67 01","location":"https://www.telecontact.ma/plan-acces/pharmacie-tissir-ii-/2172971/casablanca","city":"Casablanca"},{"name":"Pharmacie Tmime","address":"lotiss. Jet Sakane , imm. 41 n°1 rte 1100 Sidi Maârouf, Q. Sidi Maarouf, 20280  CASABLANCA","phone":"05 22 97 31 11","location":"https://www.telecontact.ma/plan-acces/pharmacie-tmime-/3122052/casablanca","city":"Casablanca"},{"name":"Pharmacie Touati","address":"zone ind. Lissasfa, Riad Sofia T2 n°223, Q. Lissasfa CASABLANCA","phone":"05 22 65 20 70","location":"https://www.telecontact.ma/plan-acces/pharmacie-touati-/3311749/casablanca","city":"Casablanca"},{"name":"Pharmacie Bensalah","address":"26, avenue Saïd Abou Jemaa , Q. Hay Moulay Rachid, 20670  CASABLANCA","phone":"05 22 70 05 69","location":"https://www.telecontact.ma/plan-acces/pharmacie-bensalah-/2206238/casablanca","city":"Casablanca"},{"name":"Pharmacie Bentaleb","address":"derb Koudia (cité Jemaa), rue 22 n°12, Q. Sbata, 20452  CASABLANCA","phone":"05 22 56 95 13","location":"https://www.telecontact.ma/plan-acces/pharmacie-bentaleb-/3062007/casablanca","city":"Casablanca"},{"name":"Pharmacie Benzit","address":"bd Anoual -ex Felix Faure ang. Hamza Ibn Abdelmoutaleb C. Com. Abdelmoumen Irac n°25, Q. Derb Ghalef, 20340  CASABLANCA","phone":"05 22 23 24 02","location":"https://www.telecontact.ma/plan-acces/pharmacie-benzit-/3015626/casablanca","city":"Casablanca"},{"name":"Pharmacie Beyrouth","address":"99 Bis, rue de Beyrouth, hay Laâyoune CASABLANCA","phone":"05 22 85 59 48","location":"https://www.telecontact.ma/plan-acces/pharmacie-beyrouth-/3276572/casablanca","city":"Casablanca"},{"name":"Pharmacie Bilal","address":"hay El Farah, rue 61 n°160 bis, Q. Hay El Farah, 20540  CASABLANCA","phone":"05 22 80 64 97","location":"https://www.telecontact.ma/plan-acces/pharmacie-bilal-/2142998/casablanca","city":"Casablanca"},{"name":"Pharmacie Bin Lamdoune","address":"derb Sidi Maarouf V (El Fida), rue 50 ang. rue ElFarouki Errahali n°12, Q. Nouvelle Médina CASABLANCA","phone":"05 22 28 14 24","location":"https://www.telecontact.ma/plan-acces/pharmacie-bin-lamdoune-/0283400/casablanca","city":"Casablanca"},{"name":"Pharmacie Bir Anzarane","address":"94, rue Kadi Iass - ex Mont Cénis , Q. Maarif, 20370  CASABLANCA","phone":"05 22 25 43 95","location":"https://www.telecontact.ma/plan-acces/pharmacie-bir-anzarane-/1400600/casablanca","city":"Casablanca"},{"name":"Pharmacie BismiAllah","address":"1531, bd Mohammed VI, Jamila I, Q. Sbata, 20452  CASABLANCA","phone":"05 22 29 19 95","location":"https://www.telecontact.ma/plan-acces/pharmacie-bismiallah-/2110289/casablanca","city":"Casablanca"},{"name":"Pharmacie Bjani","address":"114, lotiss. Saâda 1 , Sidi Maârouf, Q. Sidi Maarouf, 20280  CASABLANCA","phone":"05 22 58 10 86","location":"https://www.telecontact.ma/plan-acces/pharmacie-bjani-/3148698/casablanca","city":"Casablanca"},{"name":"Pharmacie Bloc Koudia","address":"209 Bis, bd de la Grande Ceinture (h.Mohammadi) , Q. Hay Mohammadi CASABLANCA","phone":"05 22 60 19 45","location":"https://www.telecontact.ma/plan-acces/pharmacie-bloc-koudia-/3266932/casablanca","city":"Casablanca"},{"name":"Pharmacie Bnou Zohr","address":"derb Sidi El Khadir, rue 22 n° 31 hay Elhassani, Q. Hay Hassani, 20220  CASABLANCA","phone":"05 22 90 20 67","location":"https://www.telecontact.ma/plan-acces/pharmacie-bnou-zohr-/2171856/casablanca","city":"Casablanca"},{"name":"Pharmacie Borj ElBernoussi","address":"612, avenue Souhaib Erroumi -ex H, Mansour III, Q. Sidi Bernoussi, 20600  CASABLANCA","phone":"05 22 74 06 85","location":"https://www.telecontact.ma/plan-acces/pharmacie-borj-elbernoussi-/2154596/casablanca","city":"Casablanca"},{"name":"Pharmacie Bouabid","address":"cité Sidi Bernoussi, n°1 bloc 113, Q. Sidi Bernoussi, 20600  CASABLANCA","phone":"05 22 73 15 17","location":"https://www.telecontact.ma/plan-acces/pharmacie-bouabid-/0883100/casablanca","city":"Casablanca"},{"name":"Pharmacie Bouafi","address":"550, avenue Oued Dahab (cité Jemâa) , Q. Sbata, 20452  CASABLANCA","phone":"05 22 57 45 09","location":"https://www.telecontact.ma/plan-acces/pharmacie-bouafi-/2215222/casablanca","city":"Casablanca"},{"name":"Pharmacie Boualam","address":"hay Souarete, rue 5 n°54, Q. la Villette, 20300  CASABLANCA","phone":"05 22 62 10 03","location":"https://www.telecontact.ma/plan-acces/pharmacie-boualam-/1563700/casablanca","city":"Casablanca"},{"name":"Pharmacie Bouazzaoui","address":"cité Lalla Mériem, bloc 124 n°6, Q. Sidi Othman, 20660  CASABLANCA","phone":"05 22 55 22 22","location":"https://www.telecontact.ma/plan-acces/pharmacie-bouazzaoui-/3196973/casablanca","city":"Casablanca"},{"name":"Pharmacie Bouih","address":"rte de la Continentale r.p. 36, rue 24 Dr Bouih, Q. Aïn Sebaâ, 20250  CASABLANCA","phone":"05 22 34 20 71","location":"https://www.telecontact.ma/plan-acces/pharmacie-bouih-/3201912/casablanca","city":"Casablanca"},{"name":"Pharmacie Boukhari","address":"hay El Oulfa, Grp. Y rue 33 n°43 bd. Oued Draâ, Q. Oulfa, 20220  CASABLANCA","phone":"05 22 90 52 23","location":"https://www.telecontact.ma/plan-acces/pharmacie-boukhari-/2110004/casablanca","city":"Casablanca"},{"name":"Pharmacie Boulmane","address":"2, bd Boulmane, hay Mly Abdellah, Q. Aïn Chok, 20480  CASABLANCA","phone":"05 22 87 43 21","location":"https://www.telecontact.ma/plan-acces/pharmacie-boulmane-/2129538/casablanca","city":"Casablanca"},{"name":"Pharmacie Bournazel","address":"hay Moulay Rachid II - ex Bournazel, imm 10 mag. 6, Q. Hay Moulay Rachid, 20670  CASABLANCA","phone":"05 22 70 52 70","location":"https://www.telecontact.ma/plan-acces/pharmacie-bournazel-/0283800/casablanca","city":"Casablanca"},{"name":"Pharmacie Bellouch","address":"lot. Salmia II, rue 1, bloc 3 n°116, Q. Hay Moulay Rachid, 20660  CASABLANCA","phone":"05 22 38 36 84","location":"https://www.telecontact.ma/plan-acces/pharmacie-bellouch-/1566500/casablanca","city":"Casablanca"},{"name":"Pharmacie Belvédère","address":"13, rue de Sijilmassa , Q. Belvédère, 20300  CASABLANCA","phone":"05 22 24 26 43","location":"","city":"Casablanca"},{"name":"Pharmacie Ben M'sick","address":"182, avenue Mohamed Bouziane, Hay Salama III, Q. Hay Moulay Rachid, 20670  CASABLANCA","phone":"05 22 37 01 25","location":"","city":"Casablanca"},{"name":"Pharmacie Benali","address":"hay Mansour extension rue 2 bloc 70, n°152, Q. Sidi Bernoussi, 20600  CASABLANCA","phone":"05 22 75 40 50","location":"https://www.telecontact.ma/plan-acces/pharmacie-benali-/2183131/casablanca","city":"Casablanca"},{"name":"Pharmacie Benghazi","address":"quartier Californie, lotiss. Tanay rue 8 n°2, Q. Californie, 20150  CASABLANCA","phone":"05 22 52 27 62","location":"https://www.telecontact.ma/plan-acces/pharmacie-benghazi-/3094749/casablanca","city":"Casablanca"},{"name":"Pharmacie Benjdia","address":"12, rue de Metz, lot Essaada, Q. Benjdia, 20120  CASABLANCA","phone":"05 22 31 66 89","location":"https://www.telecontact.ma/plan-acces/pharmacie-benjdia-/0285000/casablanca","city":"Casablanca"},{"name":"Pharmacie Benmoussa","address":"26, avenue du Cdt Driss Lharti - ex A , Q. Sbata, 20452  CASABLANCA","phone":"05 22 37 38 67","location":"https://www.telecontact.ma/plan-acces/pharmacie-benmoussa-/0283200/casablanca","city":"Casablanca"},{"name":"Pharmacie Bennour","address":"cité Sidi Othmane, bloc 25 n° E, Q. Sidi Othman, 20700  CASABLANCA","phone":"05 22 55 33 16","location":"https://www.telecontact.ma/plan-acces/pharmacie-bennour-/3013046/casablanca","city":"Casablanca"},{"name":"Pharmacie Bensabeur","address":"43, avenue Akid Allam, hay Sadri, Q. Hay Moulay Rachid, 20650  CASABLANCA","phone":"05 22 70 99 74","location":"https://www.telecontact.ma/plan-acces/pharmacie-bensabeur-/2214952/casablanca","city":"Casablanca"},{"name":"Pharmacie Bensaid","address":"hay Amal III, rue 13 n°34, Q. Sidi Bernoussi, 20600  CASABLANCA","phone":"05 22 74 14 63","location":"https://www.telecontact.ma/plan-acces/pharmacie-bensaid-/3011571/casablanca","city":"Casablanca"},{"name":"Pharmacie Chaaoub","address":"quartier Beausite, résid. Al Amane Gh42 n°323, Q. Beausite CASABLANCA","phone":"05 22 66 57 09","location":"https://www.telecontact.ma/plan-acces/pharmacie-chaaoub-/3296741/casablanca","city":"Casablanca"},{"name":"Pharmacie Chabab","address":"cité Chabab, n°38 imm. 4A, Aïn Sébaa, Q. Aïn Sebaâ CASABLANCA","phone":"05 22 75 59 16","location":"https://www.telecontact.ma/plan-acces/pharmacie-chabab-/2199272/casablanca","city":"Casablanca"},{"name":"Pharmacie Chababi","address":"426, avenue Lagouira - ex F (cité Jemaa) , Q. Ben M'Sik, 20452  CASABLANCA","phone":"05 22 37 12 58","location":"https://www.telecontact.ma/plan-acces/pharmacie-chababi-/1534700/casablanca","city":"Casablanca"},{"name":"Pharmacie Ernest Renan","address":"34, rue Ahmed Akrad - ex Aviateurs , Q. Oasis, 20410  CASABLANCA","phone":"05 22 99 49 75","location":"https://www.telecontact.ma/plan-acces/pharmacie-ernest-renan-/3038501/casablanca","city":"Casablanca"},{"name":"Pharmacie Erraha","address":"219, avenue Lahraouine -ex C (cité Djemâa) , Q. Ben M'Sik, 20452  CASABLANCA","phone":"05 22 37 04 42","location":"https://www.telecontact.ma/plan-acces/pharmacie-erraha-/0288100/casablanca","city":"Casablanca"},{"name":"Pharmacie Errahmane","address":"101, bd El Hachemi El Filali, California, Q. Aïn Chok, 20460  CASABLANCA","phone":"05 22 52 30 51","location":"https://www.telecontact.ma/plan-acces/pharmacie-errahmane-/3112114/casablanca","city":"Casablanca"},{"name":"Pharmacie Errayane","address":"1, lotiss. Ennour , Sidi Maârouf, Q. Sidi Maarouf, 20270  CASABLANCA","phone":"05 22 97 32 14","location":"https://www.telecontact.ma/plan-acces/pharmacie-errayane-/3079372/casablanca","city":"Casablanca"},{"name":"Pharmacie Erreda","address":"162, avenue Nkili Ahmed ex A. Bourgadam et Vitalis , Q. Hay Mohammadi, 20320  CASABLANCA","phone":"05 22 60 20 12","location":"https://www.telecontact.ma/plan-acces/pharmacie-erreda-/1563600/casablanca","city":"Casablanca"},{"name":"Pharmacie Escuela","address":"lot. El Azhar, Imm. 1 n°2, Ahl Loghlam, Q. Sidi Moumen, 20630  CASABLANCA","phone":"05 22 75 98 00","location":"https://www.telecontact.ma/plan-acces/pharmacie-escuela-/3077719/casablanca","city":"Casablanca"},{"name":"Pharmacie Espace Naim","address":"hay Sidi Moumen, hay Naim lot 3, Q. Sidi Moumen CASABLANCA","phone":"05 22 70 59 59","location":"https://www.telecontact.ma/plan-acces/pharmacie-espace-naim-/3308583/casablanca","city":"Casablanca"},{"name":"Pharmacie Espace Sihati","address":"55, rue Salomon Dahan , Q. Oukacha, 20580  CASABLANCA","phone":"05 22 67 27 64","location":"https://www.telecontact.ma/plan-acces/pharmacie-espace-sihati-/3037812/casablanca","city":"Casablanca"},{"name":"Pharmacie Espoir Santé","address":"28 Bis, avenue Tizi Ousli , Q. Aïn Sebaâ, 20580  CASABLANCA","phone":"05 22 67 36 00","location":"","city":"Casablanca"},{"name":"Pharmacie Essaada","address":"2, avenue Ali Yata -ex Foum Lahsan , Q. Hay Mohammadi, 20560  CASABLANCA","phone":"05 22 62 03 53","location":"https://www.telecontact.ma/plan-acces/pharmacie-essaada-/0288200/casablanca","city":"Casablanca"},{"name":"Pharmacie Essadik","address":"lot. El Azhar, dyar El Hanaa 2, GH 2 imm. 1 mag. n°3, Q. Sidi Moumen CASABLANCA","phone":"05 22 01 11 80","location":"https://www.telecontact.ma/plan-acces/pharmacie-essadik-/3344521/casablanca","city":"Casablanca"},{"name":"Pharmacie Essaegh","address":"lot. Salmia II rue 18, n°44, Q. Hay Moulay Rachid, 20660  CASABLANCA","phone":"05 22 38 88 74","location":"https://www.telecontact.ma/plan-acces/pharmacie-essaegh-/2110146/casablanca","city":"Casablanca"},{"name":"Pharmacie Essafa","address":"hay Sadri (Bournazel), rue 60 bloc 5, Q. Hay Moulay Rachid, 20650  CASABLANCA","phone":"05 22 70 89 85","location":"https://www.telecontact.ma/plan-acces/pharmacie-essafa-/0298200/casablanca","city":"Casablanca"},{"name":"Pharmacie Essalama","address":"342, av du Six Novembre 1975 - ex B , Q. Ben M'Sik, 20452  CASABLANCA","phone":"05 22 37 12 03","location":"https://www.telecontact.ma/plan-acces/pharmacie-essalama-/0288300/casablanca","city":"Casablanca"},{"name":"Pharmacie Essaomaa","address":"Quartier Baladia, bloc 52 n°15, Q. Hay Moulay Rachid, 20450  CASABLANCA","phone":"05 22 29 11 69","location":"https://www.telecontact.ma/plan-acces/pharmacie-essaomaa-/2110076/casablanca","city":"Casablanca"},{"name":"Pharmacie Esseha","address":"hay Salama I, rue 108, Q. Sidi Othman, 20670  CASABLANCA","phone":"05 22 37 32 66","location":"https://www.telecontact.ma/plan-acces/pharmacie-esseha-/0288400/casablanca","city":"Casablanca"},{"name":"Pharmacie Extention Anassi","address":"lot. Anassi, Gh 3 n°54 bd A, Q. Sidi Moumen, 20630  CASABLANCA","phone":"05 22 75 79 79","location":"https://www.telecontact.ma/plan-acces/pharmacie-extention-anassi-/3140969/casablanca","city":"Casablanca"},{"name":"Pharmacie Ezohours","address":"hay Aïn Chiffa I, rue 2 n°30, Q. Hay El Farah, 20540  CASABLANCA","phone":"05 22 83 31 49","location":"https://www.telecontact.ma/plan-acces/pharmacie-ezohours-/3013133/casablanca","city":"Casablanca"},{"name":"Pharmacie Faculté Ain Chock","address":"avenue du Deux Mars, hay Hind rue 2 n°27, Q. Aïn Chok CASABLANCA","phone":"05 22 52 45 76","location":"","city":"Casablanca"},{"name":"Pharmacie Fadil","address":"route de Bouskoura, douar Drabna n°19, Q. Californie CASABLANCA","phone":"05 22 58 40 57","location":"","city":"Casablanca"},{"name":"Pharmacie du lycée","address":"8, rue de la Réunion , Q. Bourgogne, 20040  CASABLANCA","phone":"05 22 29 47 67","location":"","city":"Casablanca"},{"name":"Pharmacie du Lycée Chawki","address":"21, rue Ibn Bouraid , Q. Palmiers, 20340  CASABLANCA","phone":"05 22 25 52 97","location":"","city":"Casablanca"},{"name":"Pharmacie du Lys","address":"687, bd Oued Sebou , Q. Oulfa, 20220  CASABLANCA","phone":"05 22 90 50 09","location":"https://www.telecontact.ma/plan-acces/pharmacie-du-lys-/1422100/casablanca","city":"Casablanca"},{"name":"Pharmacie du Maârif","address":"382, bd Brahim Roudani , Q. Maarif, 20330  CASABLANCA","phone":"05 22 25 01 28","location":"","city":"Casablanca"},{"name":"Pharmacie du Mall","address":"c. com Morocco Mall bd de l'Océan Atlantique , Q. Aïn Diab CASABLANCA","phone":"05 22 79 66 81","location":"","city":"Casablanca"},{"name":"Pharmacie du Marché","address":"46, bd d' Afghanistan , Q. Hay Hassani, 20220  CASABLANCA","phone":"05 22 90 30 83","location":"","city":"Casablanca"},{"name":"Pharmacie du Marché Central","address":"152, bd Mohammed V , Q. Derb Omar, 20080  CASABLANCA","phone":"05 22 22 19 48","location":"","city":"Casablanca"},{"name":"Pharmacie du Marché de Gros","address":"676, avenue du Cdt Driss Lharti - ex A , Q. Sbata, 20452  CASABLANCA","phone":"05 22 57 67 47","location":"","city":"Casablanca"},{"name":"Pharmacie du Mechouar","address":"93, rue de Libourne , Q. la Gironde, 20500  CASABLANCA","phone":"05 22 30 49 90","location":"","city":"Casablanca"},{"name":"Pharmacie du Métro","address":"38, avenue Wahda El Ifriquia -ex N, hay Afriquia, Q. Ben M'Sik, 20452  CASABLANCA","phone":"05 22 29 10 13","location":"","city":"Casablanca"},{"name":"Pharmacie du midi","address":"10, rue d' El Jadida (anc. médina) , Q. Ancienne Médina, 20000  CASABLANCA","phone":"05 22 22 06 66","location":"","city":"Casablanca"},{"name":"Pharmacie Sedq","address":"hay Nassim, sect. D7 imm. 199 n°1, Q. Lissasfa CASABLANCA","phone":"05 22 93 52 68","location":"https://www.telecontact.ma/plan-acces/pharmacie-sedq-/3058479/casablanca","city":"Casablanca"},{"name":"Pharmacie Sefrioui","address":"derb Salama, 15 bloc 13, rue 10., Q. Ben M'Sik, 20452  CASABLANCA","phone":"05 22 37 04 50","location":"https://www.telecontact.ma/plan-acces/pharmacie-sefrioui-/1626400/casablanca","city":"Casablanca"},{"name":"Pharmacie Sefrou","address":"259, bd de Sefrou Inara II hay Mly Abdellah, Q. Aïn Chok, 20480  CASABLANCA","phone":"05 22 21 81 26","location":"https://www.telecontact.ma/plan-acces/pharmacie-sefrou-/2110148/casablanca","city":"Casablanca"},{"name":"Pharmacie Semlali","address":"83, rue Sidi El Khadir , Q. Hay Hassani, 20220  CASABLANCA","phone":"05 22 89 62 93","location":"https://www.telecontact.ma/plan-acces/pharmacie-semlali-/3111772/casablanca","city":"Casablanca"},{"name":"Pharmacie Senhaja","address":"98, rue du Capitaine Loubet, Khalil I, Q. Hay Mohammadi, 20320  CASABLANCA","phone":"05 22 62 38 14","location":"https://www.telecontact.ma/plan-acces/pharmacie-senhaja-/2141873/casablanca","city":"Casablanca"},{"name":"Pharmacie Sevam","address":"lot. El Azhar, n°3, imm. 9, bloc 7 Sevam, Q. Sidi Moumen, 20630  CASABLANCA","phone":"05 22 73 63 63","location":"https://www.telecontact.ma/plan-acces/pharmacie-sevam-/3115827/casablanca","city":"Casablanca"},{"name":"Pharmacie Shahrazad","address":"158 Bis, rue Ezouhour -ex Saint Laurent , Q. Derb El Kabir, 20500  CASABLANCA","phone":"05 22 81 03 35","location":"https://www.telecontact.ma/plan-acces/pharmacie-shahrazad-/1222300/casablanca","city":"Casablanca"},{"name":"Pharmacie Sidi Abderrahmane","address":"15, rue Kergomard, résid. Ambar, Q. Aïn Diab, 20170  CASABLANCA","phone":"05 22 79 79 01","location":"https://www.telecontact.ma/plan-acces/pharmacie-sidi-abderrahmane-/2209670/casablanca","city":"Casablanca"},{"name":"Pharmacie Sidi Elkhadir","address":"1367, rue Moulay Bouchaïb Radad, derb Jamila, Q. Hay Hassani, 20220  CASABLANCA","phone":"05 22 91 30 46","location":"https://www.telecontact.ma/plan-acces/pharmacie-sidi-elkhadir-/2110126/casablanca","city":"Casablanca"},{"name":"Pharmacie Sidi Maârouf","address":"127, cité S.a.c.e.m. , Ouled Haddou, Q. Sidi Maarouf, 20280  CASABLANCA","phone":"05 22 33 52 43","location":"","city":"Casablanca"},{"name":"Pharmacie Sidi Moumen","address":"bd Moulay Abdessalam b.Mokhtar, hay El Karia, bloc 5, n°5, Q. Sidi Moumen, 20400  CASABLANCA","phone":"05 22 70 22 91","location":"https://www.telecontact.ma/plan-acces/pharmacie-sidi-moumen-/0298500/casablanca","city":"Casablanca"},{"name":"Pharmacie Sidi Othman","address":"33, avenue Abou Houraïra , Q. Sidi Othman, 20700  CASABLANCA","phone":"05 22 38 78 63","location":"https://www.telecontact.ma/plan-acces/pharmacie-sidi-othman-/0298600/casablanca","city":"Casablanca"},{"name":"Pharmacie Sidi Soufi","address":"171, rue Boukraa -ex Jules Mauran , Q. Bourgogne, 20020  CASABLANCA","phone":"05 22 27 02 96","location":"https://www.telecontact.ma/plan-acces/pharmacie-sidi-soufi-/0885500/casablanca","city":"Casablanca"},{"name":"Pharmacie Sifeddine","address":"280, avenue Wahda El Ifriquia -ex N , Q. Ben M'Sik, 20452  CASABLANCA","phone":"05 22 37 27 53","location":"https://www.telecontact.ma/plan-acces/pharmacie-sifeddine-/1423400/casablanca","city":"Casablanca"},{"name":"Pharmacie Siham","address":"lot. Omariya, rue 31 n°64, Q. Aïn Chok, 20460  CASABLANCA","phone":"05 22 52 63 03","location":"https://www.telecontact.ma/plan-acces/pharmacie-siham-/3017905/casablanca","city":"Casablanca"},{"name":"Pharmacie Sijilmassa","address":"376, avenue Joulan - ex D , Q. Sbata, 20452  CASABLANCA","phone":"05 22 37 36 15","location":"https://www.telecontact.ma/plan-acces/pharmacie-sijilmassa-/0298700/casablanca","city":"Casablanca"},{"name":"Pharmacie Sindbad","address":"bd de la Grande Ceinture (A.Diab) ex S. Abderrahman, 418 résid. Rio, Q. Aïn Diab CASABLANCA","phone":"05 22 79 79 68","location":"https://www.telecontact.ma/plan-acces/pharmacie-sindbad-/2222364/casablanca","city":"Casablanca"},{"name":"Pharmacie Skiba","address":"96, avenue Oued Dahab (cité Jemâa), Jamila 5, Q. Sbata, 20452  CASABLANCA","phone":"05 22 37 32 33","location":"https://www.telecontact.ma/plan-acces/pharmacie-skiba-/1222400/casablanca","city":"Casablanca"},{"name":"Pharmacie Slaoui","address":"154, bd du Fouarat, hay Mohammadi, Q. Ain Borja, 20570  CASABLANCA","phone":"05 22 62 62 45","location":"https://www.telecontact.ma/plan-acces/pharmacie-slaoui-/2173025/casablanca","city":"Casablanca"},{"name":"Pharmacie Smaali","address":"63 Bis, rue de la Participation , Q. Roches noires, 20300  CASABLANCA","phone":"05 22 40 73 19","location":"https://www.telecontact.ma/plan-acces/pharmacie-smaali-/3085481/casablanca","city":"Casablanca"},{"name":"Pharmacie Mercure","address":"2, rue El Wouroud -ex Pont à Mousson , Q. Centre Ville, 20140  CASABLANCA","phone":"05 22 27 46 26","location":"https://www.telecontact.ma/plan-acces/pharmacie-mercure-/0293700/casablanca","city":"Casablanca"},{"name":"Pharmacie Merieux","address":"311, bd Abdelmoumen , Q. Hermitage - Hôpitaux, 20360  CASABLANCA","phone":"05 22 86 05 70","location":"https://www.telecontact.ma/plan-acces/pharmacie-merieux-/0296400/casablanca","city":"Casablanca"},{"name":"Pharmacie Merini","address":"lotiss. Menzeh (Ain Diab), rue 13 lot Diar El Menzeh 2, Q. Aïn Diab CASABLANCA","phone":"05 22 65 13 99","location":"https://www.telecontact.ma/plan-acces/pharmacie-merini-/3313474/casablanca","city":"Casablanca"},{"name":"Pharmacie Meryem","address":"19 Bis, bd Ibn Sina - ex Avicenne , Q. Maarif, 20370  CASABLANCA","phone":"05 22 36 33 27","location":"https://www.telecontact.ma/plan-acces/pharmacie-meryem-/1400000/casablanca","city":"Casablanca"},{"name":"Pharmacie Mesk Ellil","address":"lotiss. Mouna, rue 4 n°44 Aïn chok, Q. Aïn Chok, 20460  CASABLANCA","phone":"05 22 87 15 72","location":"https://www.telecontact.ma/plan-acces/pharmacie-mesk-ellil-/3110511/casablanca","city":"Casablanca"},{"name":"Pharmacie Mia","address":"quartier Lissasfa (route d'El Jadida), riad Sofia GH5 imm. n°1, Q. Lissasfa CASABLANCA","phone":"05 22 65 04 70","location":"https://www.telecontact.ma/plan-acces/pharmacie-mia-/3291023/casablanca","city":"Casablanca"},{"name":"Pharmacie Michel de l'Hospital","address":"65, rue Hadj Ahmed Belafrej -ex De l'Hospital , Q. Roches noires, 20290  CASABLANCA","phone":"05 22 24 05 94","location":"","city":"Casablanca"},{"name":"Pharmacie Miftah Al Khayr","address":"hay Sidi Moumen, Mosquée Attawabine, rue 5, n°3, Q. Sidi Moumen, 20400  CASABLANCA","phone":"05 22 70 60 84","location":"https://www.telecontact.ma/plan-acces/pharmacie-miftah-al-khayr-/3077026/casablanca","city":"Casablanca"},{"name":"Pharmacie Milad","address":"283, bd Sidi Abderrahman, hay Salam C.i.l., Q. Hay Salam ex Cil, 20200  CASABLANCA","phone":"05 22 94 65 30","location":"https://www.telecontact.ma/plan-acces/pharmacie-milad-/2189223/casablanca","city":"Casablanca"},{"name":"Pharmacie prolongement 2 Mars","address":"avenue du Deux Mars, Lot. Safaa rue 10 n°158, Q. Aïn Chok, 20480  CASABLANCA","phone":"05 22 21 46 73","location":"https://www.telecontact.ma/plan-acces/pharmacie-prolongement-2-mars-/3036150/casablanca","city":"Casablanca"},{"name":"Pharmacie Rabea","address":"hay Moulay Rachid, z.i., Lot. 40 et 41, rue 2, Q. Hay Moulay Rachid, 20450  CASABLANCA","phone":"05 22 71 71 34","location":"https://www.telecontact.ma/plan-acces/pharmacie-rabea-/3073033/casablanca","city":"Casablanca"},{"name":"Pharmacie Rabii","address":"44, lotiss. Alhouda , Q. Sidi Moumen, 20400  CASABLANCA","phone":"05 22 71 91 63","location":"https://www.telecontact.ma/plan-acces/pharmacie-rabii-/3140995/casablanca","city":"Casablanca"},{"name":"Pharmacie Rabii Al Moustakbal","address":"lotiss. Al Moustakbal, Gh34, imm. T301 Sidi Maârouf, Q. Sidi Maarouf CASABLANCA","phone":"05 22 58 34 15","location":"https://www.telecontact.ma/plan-acces/pharmacie-rabii-al-moustakbal-/3158523/casablanca","city":"Casablanca"},{"name":"Pharmacie Racha","address":"hay Sidi Moumen, rte 36 n°10, Q. Sidi Moumen, 20400  CASABLANCA","phone":"05 22 70 02 94","location":"https://www.telecontact.ma/plan-acces/pharmacie-racha-/3192690/casablanca","city":"Casablanca"},{"name":"Pharmacie Rachad","address":"32, avenue Souhaib Erroumi -ex H, Amal II, Q. Sidi Bernoussi, 20600  CASABLANCA","phone":"05 22 73 72 57","location":"https://www.telecontact.ma/plan-acces/pharmacie-rachad-/1202400/casablanca","city":"Casablanca"},{"name":"Pharmacie Rachid","address":"463, avenue Sakia El Hamra, Jamila 4, Q. Sbata, 20450  CASABLANCA","phone":"05 22 55 42 00","location":"https://www.telecontact.ma/plan-acces/pharmacie-rachid-/2203705/casablanca","city":"Casablanca"},{"name":"Pharmacie Koutoubia","address":"Hay Messaoudia (cité Jemâa), rue 24 n°104, derb My Bouchaïb, Q. Sbata, 20450  CASABLANCA","phone":"05 22 37 31 07","location":"https://www.telecontact.ma/plan-acces/pharmacie-koutoubia-/1564000/casablanca","city":"Casablanca"},{"name":"Pharmacie Krimat","address":"341, bd Panoramique , Q. Aïn Chok, 20460  CASABLANCA","phone":"05 22 52 71 35","location":"https://www.telecontact.ma/plan-acces/pharmacie-krimat-/2217308/casablanca","city":"Casablanca"},{"name":"Pharmacie Ksikes","address":"avenue du Dix Mars, douar Ouled Zahra, Lahraouiyine, Q. Sidi Othman CASABLANCA","phone":"05 22 59 62 27","location":"https://www.telecontact.ma/plan-acces/pharmacie-ksikes-/3235024/casablanca","city":"Casablanca"},{"name":"Pharmacie l'entente","address":"147, bd Ahmed Ben Bassou -ex K (Sidi Bernoussi), Amal 2, Q. Sidi Bernoussi, 20600  CASABLANCA","phone":"05 22 73 11 13","location":"","city":"Casablanca"},{"name":"Pharmacie l'Epoque","address":"lot. Anassi, résid. Ennahda Fb1 mag. n°7, Q. Sidi Moumen CASABLANCA","phone":"05 22 74 39 48","location":"","city":"Casablanca"},{"name":"Pharmacie l'Ermitage","address":"48, av. de l' Ermitage , Q. Hermitage - Hôpitaux, 20360  CASABLANCA","phone":"05 22 86 19 24","location":"","city":"Casablanca"},{"name":"Pharmacie l'Esplanade","address":"bd des Almohades, centre commercial Marina Shopping 1°et. boutique C2-145, Q. Ancienne Médina, 20250  CASABLANCA","phone":"05 22 45 36 36","location":"","city":"Casablanca"},{"name":"Pharmacie l'Eucalyptus","address":"140, bd E, Massira III, Q. Hay Moulay Rachid, 20670  CASABLANCA","phone":"05 22 71 46 71","location":"","city":"Casablanca"},{"name":"Pharmacie l'extension","address":"quartier Lissasfa (route d'El Jadida), rue 8 n°24, Q. Oulfa, 20190  CASABLANCA","phone":"05 22 93 48 40","location":"","city":"Casablanca"},{"name":"Pharmacie l'Horizon","address":"hay Saada ang. rue 3-5, Lot. 29, Q. Sidi Bernoussi, 20600  CASABLANCA","phone":"05 22 75 98 38","location":"","city":"Casablanca"},{"name":"Pharmacie L'Isere","address":"74, rue de l' Isère , Q. Polo, 20420  CASABLANCA","phone":"05 22 85 64 57","location":"","city":"Casablanca"},{"name":"Pharmacie l'Olivier","address":"hay Tarik, rue 61 n°62, Q. Sidi Bernoussi, 20600  CASABLANCA","phone":"05 22 73 16 06","location":"","city":"Casablanca"},{"name":"Pharmacie l'olivier (Ghandi)","address":"76, bd Ghandi , Q. Hay Salam ex Cil, 20210  CASABLANCA","phone":"05 22 36 10 59","location":"","city":"Casablanca"},{"name":"Pharmacie Ghalibe","address":"85 Bis, lotiss. Assia , Sidi Maârouf Ouled Haddou, Q. Sidi Maarouf CASABLANCA","phone":"05 22 58 17 48","location":"https://www.telecontact.ma/plan-acces/pharmacie-ghalibe-/3277795/casablanca","city":"Casablanca"},{"name":"Pharmacie Ghallef","address":"121, rue Jabir Ansari - ex Corot , Q. Derb Ghalef, 20340  CASABLANCA","phone":"05 22 25 28 51","location":"https://www.telecontact.ma/plan-acces/pharmacie-ghallef-/0289500/casablanca","city":"Casablanca"},{"name":"Pharmacie Ghandi","address":"63, bd Ghandi , Q. Maarif, 20380  CASABLANCA","phone":"05 22 36 21 32","location":"https://www.telecontact.ma/plan-acces/pharmacie-ghandi-/0289600/casablanca","city":"Casablanca"},{"name":"Pharmacie Ghany","address":"559, bd Aba Chouaïb Doukali, Drissia II, Q. Hay El Farah, 20530  CASABLANCA","phone":"05 22 81 52 02","location":"https://www.telecontact.ma/plan-acces/pharmacie-ghany-/0289700/casablanca","city":"Casablanca"},{"name":"Pharmacie Gharbi","address":"hay Amal IV, rue 28 n°71et73, Q. Sidi Bernoussi, 20600  CASABLANCA","phone":"05 22 73 71 57","location":"https://www.telecontact.ma/plan-acces/pharmacie-gharbi-/2110173/casablanca","city":"Casablanca"},{"name":"Pharmacie Dadi","address":"500, bd de Dakhla Jamila 5, cité Djemaâ, Q. Sbata, 20452  CASABLANCA","phone":"05 22 37 28 28","location":"https://www.telecontact.ma/plan-acces/pharmacie-dadi-/0286000/casablanca","city":"Casablanca"},{"name":"Pharmacie Dadoun","address":"13, lot Laayoune , Q. Ain Borja, 20320  CASABLANCA","phone":"05 22 62 00 67","location":"https://www.telecontact.ma/plan-acces/pharmacie-dadoun-/2149173/casablanca","city":"Casablanca"},{"name":"Pharmacie Daha","address":"cité Sidi Bernoussi, lotiss. Daha rue 7 n°48 bis, Q. Sidi Bernoussi, 24000  CASABLANCA","phone":"05 22 35 52 90","location":"https://www.telecontact.ma/plan-acces/pharmacie-daha-/3198575/casablanca","city":"Casablanca"},{"name":"Pharmacie Dahbi","address":"cité Sidi Othmane, bloc 66 n°13 Bis, Q. Sidi Othman, 20700  CASABLANCA","phone":"05 22 55 76 00","location":"https://www.telecontact.ma/plan-acces/pharmacie-dahbi-/3001082/casablanca","city":"Casablanca"},{"name":"Pharmacie Dakar","address":"hay Yasmina, rue 50 n°81, Q. Aïn Chok, 20480  CASABLANCA","phone":"05 22 87 44 71","location":"https://www.telecontact.ma/plan-acces/pharmacie-dakar-/3167577/casablanca","city":"Casablanca"},{"name":"Pharmacie Dakhla","address":"91, bd Dakhla -ex H, Inara I, Q. Inara CASABLANCA","phone":"05 22 50 10 82","location":"https://www.telecontact.ma/plan-acces/pharmacie-dakhla-/2146789/casablanca","city":"Casablanca"},{"name":"Pharmacie Dalal","address":"24 Bis, rue des Vanneaux , Q. Oasis, 20410  CASABLANCA","phone":"05 22 99 27 54","location":"https://www.telecontact.ma/plan-acces/pharmacie-dalal-/3015937/casablanca","city":"Casablanca"},{"name":"Pharmacie Dalanda","address":"hay El Osra, lot. Sanaa rue 2 n°74, Q. Aïn Chok, 20480  CASABLANCA","phone":"05 22 52 35 61","location":"https://www.telecontact.ma/plan-acces/pharmacie-dalanda-/3073289/casablanca","city":"Casablanca"},{"name":"Pharmacie Dalila","address":"lot. Dalila II, bd. C n°7 bis z.i., Q. Aïn Sebaâ, 20250  CASABLANCA","phone":"05 22 35 25 42","location":"https://www.telecontact.ma/plan-acces/pharmacie-dalila-/3004332/casablanca","city":"Casablanca"},{"name":"Pharmacie Dallas","address":"303, bd Oued Abi Raqraq , Q. Oulfa, 20220  CASABLANCA","phone":"05 22 89 84 74","location":"https://www.telecontact.ma/plan-acces/pharmacie-dallas-/3054775/casablanca","city":"Casablanca"},{"name":"Pharmacie Danton","address":"47, bd Bir Anzarane , Q. Maarif, 20330  CASABLANCA","phone":"05 22 25 09 78","location":"https://www.telecontact.ma/plan-acces/pharmacie-danton-/0286200/casablanca","city":"Casablanca"},{"name":"Pharmacie Daou","address":"hay Sidi Moumen, lotiss. Tissir rue 2 n°35, Q. Sidi Moumen CASABLANCA","phone":"05 22 71 04 05","location":"https://www.telecontact.ma/plan-acces/pharmacie-daou-/3268470/casablanca","city":"Casablanca"},{"name":"Pharmacie Daoussi","address":"38, lotiss. Al Othmania , rte 1100 Sidi Maârouf, Q. Sidi Maarouf, 20280  CASABLANCA","phone":"05 22 58 30 94","location":"https://www.telecontact.ma/plan-acces/pharmacie-daoussi-/3158441/casablanca","city":"Casablanca"},{"name":"Pharmacie Dar Alidâa","address":"hay El Osra, rue 50 n°161, Q. Aïn Chok, 20480  CASABLANCA","phone":"05 22 50 32 33","location":"","city":"Casablanca"},{"name":"Pharmacie Dar AlKaram","address":"hay Sidi Moumen, résid. AlKaram imm.17 mag.3, Q. Sidi Moumen, 20400  CASABLANCA","phone":"05 22 72 33 33","location":"https://www.telecontact.ma/plan-acces/pharmacie-dar-alkaram-/3192623/casablanca","city":"Casablanca"},{"name":"Pharmacie Dar Assalam","address":"hay El Oulfa, opération Assalam n°32, Q. Oulfa, 20260  CASABLANCA","phone":"05 22 93 22 31","location":"https://www.telecontact.ma/plan-acces/pharmacie-dar-assalam-/3032074/casablanca","city":"Casablanca"},{"name":"Pharmacie Dar Lamane","address":"29, avenue Ali Yata -ex Foum Lahsan, bloc 18, Q. Hay Mohammadi, 20560  CASABLANCA","phone":"05 22 62 13 53","location":"https://www.telecontact.ma/plan-acces/pharmacie-dar-lamane-/1222500/casablanca","city":"Casablanca"},{"name":"Pharmacie dar Najme","address":"rue Hassane (hay El Hana), lotiss. Sofia 2 n°7, Q. Hay El Hana, 20200  CASABLANCA","phone":"05 22 95 15 37","location":"https://www.telecontact.ma/plan-acces/pharmacie-dar-najme-/3057200/casablanca","city":"Casablanca"},{"name":"Pharmacie Dattier","address":"149 B, lotiss. Haj Fateh , Q. Oulfa, 20220  CASABLANCA","phone":"05 22 89 52 21","location":"https://www.telecontact.ma/plan-acces/pharmacie-dattier-/3072430/casablanca","city":"Casablanca"},{"name":"Pharmacie Dawdia","address":"hay El Wifak 1, rue 13 n°85, Q. Oulfa CASABLANCA","phone":"05 22 90 14 24","location":"https://www.telecontact.ma/plan-acces/pharmacie-dawdia-/3267915/casablanca","city":"Casablanca"},{"name":"Pharmacie des Parcs","address":"2, allée des Parcs (Aïn Sebâa) , Q. Aïn Sebaâ, 20580  CASABLANCA","phone":"05 22 66 43 27","location":"https://www.telecontact.ma/plan-acces/pharmacie-des-parcs-/3005310/casablanca","city":"Casablanca"},{"name":"Pharmacie des Prêles","address":"18, rue Brahim Nakhai - ex Mont Cinto , Q. Maarif, 20370  CASABLANCA","phone":"05 22 23 40 33","location":"","city":"Casablanca"},{"name":"Pharmacie des principautés","address":"lot. El Azhar, mag. 15 bloc 11 lot. B2 tranche Sevam, Q. Sidi Moumen, 20630  CASABLANCA","phone":"05 22 76 76 98","location":"","city":"Casablanca"},{"name":"Pharmacie des Saisons","address":"14, avenue Lhoussine Assoussi, résid. Ochor, Q. Sidi Moumen, 20400  CASABLANCA","phone":"05 22 71 24 74","location":"https://www.telecontact.ma/plan-acces/pharmacie-des-saisons-/2204418/casablanca","city":"Casablanca"},{"name":"Pharmacie des Sciences","address":"route d' El jadida, c. com. Alaimoune II, Q. Lissasfa CASABLANCA","phone":"05 22 99 48 14","location":"https://www.telecontact.ma/plan-acces/pharmacie-des-sciences-/3097018/casablanca","city":"Casablanca"},{"name":"Pharmacie des Stades","address":"50, rue El Fourat-ex Roncevaux , Q. Maarif, 20330  CASABLANCA","phone":"05 22 25 49 25","location":"https://www.telecontact.ma/plan-acces/pharmacie-des-stades-/0299000/casablanca","city":"Casablanca"},{"name":"Pharmacie des Troenes","address":"38, allée des Troènes, Lajiri III, Q. Oukacha, 20580  CASABLANCA","phone":"05 22 66 54 71","location":"https://www.telecontact.ma/plan-acces/pharmacie-des-troenes-/3087149/casablanca","city":"Casablanca"},{"name":"Pharmacie des Universites","address":"quartier Lissasfa (route d'El Jadida), résid. Bayt AlMaarifa, Q. Lissasfa CASABLANCA","phone":"05 22 99 51 94","location":"https://www.telecontact.ma/plan-acces/pharmacie-des-universites-/3299516/casablanca","city":"Casablanca"},{"name":"Pharmacie des Urgences","address":"hay El Osra rue 1, lot.52 Ain Chok, Q. Aïn Chok, 20480  CASABLANCA","phone":"05 22 21 72 41","location":"https://www.telecontact.ma/plan-acces/pharmacie-des-urgences-/1535400/casablanca","city":"Casablanca"},{"name":"Pharmacie Diar ElHanae","address":"hay Sidi Moumen, Diar AlHanae Gh4 bd 79 n°20, Q. Sidi Moumen CASABLANCA","phone":"05 22 71 83 35","location":"https://www.telecontact.ma/plan-acces/pharmacie-diar-elhanae-/3283070/casablanca","city":"Casablanca"},{"name":"Pharmacie Diar Lissasfa","address":"quartier Lissasfa (route d'El Jadida), résid. Diar Lissasfa imm. 119 n°2, Q. Oulfa, 20230  CASABLANCA","phone":"05 22 65 22 66","location":"https://www.telecontact.ma/plan-acces/pharmacie-diar-lissasfa-/3169572/casablanca","city":"Casablanca"},{"name":"Pharmacie Dikr Allah","address":"hay Sidi Moumen, lotiss.Meriem II n°6, Q. Sidi Moumen, 20400  CASABLANCA","phone":"05 22 70 36 30","location":"https://www.telecontact.ma/plan-acces/pharmacie-dikr-allah-/3208227/casablanca","city":"Casablanca"},{"name":"Pharmacie Dispensaire","address":"761, bd du Nil, Sidi Othmane 2, Q. Sidi Othman, 20700  CASABLANCA","phone":"05 22 57 54 47","location":"https://www.telecontact.ma/plan-acces/pharmacie-dispensaire-/3139693/casablanca","city":"Casablanca"},{"name":"Pharmacie Dispensaire Jamila IV","address":"110, hay Jamila IV (cité Djemaa), rue 89, Q. Sbata CASABLANCA","phone":"05 22 56 66 83","location":"https://www.telecontact.ma/plan-acces/pharmacie-dispensaire-jamila-iv-/3266076/casablanca","city":"Casablanca"},{"name":"Pharmacie Diwane","address":"8 Bis, allée des Lilas (Aïn Sebâa), hay castor, Q. Aïn Sebaâ, 20250  CASABLANCA","phone":"05 22 66 14 80","location":"https://www.telecontact.ma/plan-acces/pharmacie-diwane-/3091846/casablanca","city":"Casablanca"},{"name":"Pharmacie Douaa","address":"cité Sidi Bernoussi II, rue 4 n°1 Souk Alak, Q. Sidi Bernoussi, 20600  CASABLANCA","phone":"05 22 76 74 53","location":"https://www.telecontact.ma/plan-acces/pharmacie-douaa-/3079453/casablanca","city":"Casablanca"},{"name":"Pharmacie Douae Essalama","address":"hay Salama III, grp. 1 bloc J n°12, Q. Sidi Othman, 20670  CASABLANCA","phone":"05 22 37 29 48","location":"https://www.telecontact.ma/plan-acces/pharmacie-douae-essalama-/3139697/casablanca","city":"Casablanca"},{"name":"Pharmacie Doukkala","address":"33, avenue Abdelkader Essahraoui, Massira 1, Q. Hay Moulay Rachid, 20660  CASABLANCA","phone":"05 22 70 91 11","location":"https://www.telecontact.ma/plan-acces/pharmacie-doukkala-/2205307/casablanca","city":"Casablanca"},{"name":"Pharmacie Douma","address":"22, bd de la Renaissance Hay Douma, Q. Sidi Moumen, 20400  CASABLANCA","phone":"05 22 70 26 46","location":"https://www.telecontact.ma/plan-acces/pharmacie-douma-/2110258/casablanca","city":"Casablanca"},{"name":"Pharmacie Dounia","address":"hay Jamila V (cité Djemaa), rue 145 n°108 bis, Q. Sbata, 20452  CASABLANCA","phone":"05 22 37 14 41","location":"https://www.telecontact.ma/plan-acces/pharmacie-dounia-/0286400/casablanca","city":"Casablanca"},{"name":"Pharmacie Zyma","address":"27, rue Ahmed Kadmiri -ex Albert Samain , Q. Val Fleuri, 20390  CASABLANCA","phone":"05 22 99 43 95","location":"https://www.telecontact.ma/plan-acces/pharmacie-zyma-/2185664/casablanca","city":"Casablanca"},{"name":"Agplus (Pharmacie Tontonville)","address":"33, allée du Cygne, Tontonville, Q. Hermitage - Hôpitaux, 20360  CASABLANCA","phone":"05 22 86 03 98","location":"","city":"Casablanca"},{"name":"Grande  Pharmacie Commerciale","address":"9, bd Mohammed V , Q. Centre Ville, 20000  CASABLANCA","phone":"05 22 22 23 73","location":"https://www.telecontact.ma/plan-acces/grande-pharmacie-commerciale-/0285200/casablanca","city":"Casablanca"},{"name":"grande  Pharmacie de Lisbonne","address":"18, rue Abdeslam Khattabi -ex Lisbonne , Q. Mers Sultan, 21490  CASABLANCA","phone":"05 22 28 93 76","location":"https://www.telecontact.ma/plan-acces/grande-pharmacie-de-lisbonne-/0884700/casablanca","city":"Casablanca"},{"name":"Pharmacie Moulay Driss","address":"hay El Farah, rue 50 n°25, Q. Hay El Farah, 20540  CASABLANCA","phone":"05 22 81 16 73","location":"https://www.telecontact.ma/plan-acces/pharmacie-moulay-driss-/2110232/casablanca","city":"Casablanca"},{"name":"Pharmacie Moulay Idriss 1er","address":"60 Bis, bd Moulay Idriss 1er , Q. Mers Sultan, 21490  CASABLANCA","phone":"05 22 28 04 65","location":"https://www.telecontact.ma/plan-acces/pharmacie-moulay-idriss-1er-/2110272/casablanca","city":"Casablanca"},{"name":"Pharmacie Moulay Ismaïl","address":"286, bd Moulay Ismaïl , Q. Hay Mohammadi, 20320  CASABLANCA","phone":"05 22 40 48 27","location":"","city":"Casablanca"},{"name":"Pharmacie Moulay Rachid","address":"avenue du Cdt Driss Lharti - ex A, grp.I n°24, Q. Hay Moulay Rachid, 20660  CASABLANCA","phone":"05 22 72 41 39","location":"https://www.telecontact.ma/plan-acces/pharmacie-moulay-rachid-/2110063/casablanca","city":"Casablanca"},{"name":"Pharmacie Moulay Slimane","address":"118, bd Moulay Slimane Aïn Sebaâ, Q. Oukacha, 20580  CASABLANCA","phone":"05 22 34 34 02","location":"https://www.telecontact.ma/plan-acces/pharmacie-moulay-slimane-/2197074/casablanca","city":"Casablanca"},{"name":"Pharmacie Moulay Youssef","address":"139, bd Moulay Youssef , Q. Bourgogne, 20040  CASABLANCA","phone":"05 22 22 27 25","location":"https://www.telecontact.ma/plan-acces/pharmacie-moulay-youssef-/0294500/casablanca","city":"Casablanca"},{"name":"Pharmacie Moumen","address":"derb Fokara, rue 31, n°47-51, Q. Nouvelle Médina, 20550  CASABLANCA","phone":"05 22 82 69 00","location":"https://www.telecontact.ma/plan-acces/pharmacie-moumen-/2171747/casablanca","city":"Casablanca"},{"name":"Pharmacie Mounia","address":"66, lotiss. Essada II , Ouled Haddou, Q. Sidi Maarouf, 20280  CASABLANCA","phone":"05 22 97 48 40","location":"https://www.telecontact.ma/plan-acces/pharmacie-mounia-/3058486/casablanca","city":"Casablanca"},{"name":"Pharmacie Mounir","address":"hay Alwalaa, tranche 6 sect. 1 imm. 21 n°4, Q. Sidi Moumen, 20640  CASABLANCA","phone":"05 22 70 37 97","location":"https://www.telecontact.ma/plan-acces/pharmacie-mounir-/3115918/casablanca","city":"Casablanca"},{"name":"Pharmacie Moussaoui","address":"hay Rahma, kiss. Errahma 1rue 1, n°18, Q. Hay Moulay Rachid, 20660  CASABLANCA","phone":"05 22 70 01 68","location":"https://www.telecontact.ma/plan-acces/pharmacie-moussaoui-/1616400/casablanca","city":"Casablanca"},{"name":"Pharmacie Moutrane","address":"189, rue du Tafilalt -ex Docteur Gieure , Q. Bourgogne, 20040  CASABLANCA","phone":"05 22 22 18 45","location":"https://www.telecontact.ma/plan-acces/pharmacie-moutrane-/0288800/casablanca","city":"Casablanca"},{"name":"Pharmacie Murdoch","address":"17, rue du Parc place Murdoch, Q. Lusitania, 20070  CASABLANCA","phone":"05 22 20 06 64","location":"https://www.telecontact.ma/plan-acces/pharmacie-murdoch-/2110219/casablanca","city":"Casablanca"},{"name":"Pharmacie Nabila","address":"bd du Fouarat ang. Ouled Ziane, n°13, lot. Ghizlane, Q. Ain Borja, 20570  CASABLANCA","phone":"05 22 63 69 09","location":"https://www.telecontact.ma/plan-acces/pharmacie-nabila-/3055863/casablanca","city":"Casablanca"},{"name":"Pharmacie Nadia","address":"quartier Lissasfa II (route d'El Jadida), bloc A n°347, Q. Lissasfa, 20230  CASABLANCA","phone":"05 22 65 06 65","location":"https://www.telecontact.ma/plan-acces/pharmacie-nadia-/2122813/casablanca","city":"Casablanca"},{"name":"Pharmacie Nadir","address":"3, bd Al Abtal, Q. Guynmer, hay Arraha CASABLANCA","phone":"05 22 25 09 43","location":"https://www.telecontact.ma/plan-acces/pharmacie-nadir-/3319929/casablanca","city":"Casablanca"},{"name":"Pharmacie Nador","address":"3, rue de l' Hérault , Q. Polo, 20420  CASABLANCA","phone":"05 22 28 05 76","location":"https://www.telecontact.ma/plan-acces/pharmacie-nador-/2129494/casablanca","city":"Casablanca"},{"name":"Pharmacie Nagjir","address":"lot. El Mouahidine, lot.334 bd la Grande Ceinture, Q. Hay Mohammadi, 20570  CASABLANCA","phone":"05 22 66 36 43","location":"https://www.telecontact.ma/plan-acces/pharmacie-nagjir-/2203566/casablanca","city":"Casablanca"},{"name":"Pharmacie Naguib","address":"334, avenue Oued Daoura , Q. Oulfa, 20220  CASABLANCA","phone":"05 22 89 28 27","location":"https://www.telecontact.ma/plan-acces/pharmacie-naguib-/2185285/casablanca","city":"Casablanca"},{"name":"Pharmacie hay ElHana","address":"rue Bab Mansour, Marché ElHana n°7, Q. Hay El Hana, 20200  CASABLANCA","phone":"05 22 94 67 49","location":"https://www.telecontact.ma/plan-acces/pharmacie-hay-elhana-/2191049/casablanca","city":"Casablanca"},{"name":"Pharmacie Hay ElHassani","address":"Lot. Missimi, rue 2 n°50, Q. Oulfa, 20220  CASABLANCA","phone":"05 22 90 35 22","location":"https://www.telecontact.ma/plan-acces/pharmacie-hay-elhassani-/2167693/casablanca","city":"Casablanca"},{"name":"Pharmacie Hay ElMatar","address":"1, bd Oued Oum Errabia , Q. Oulfa, 20200  CASABLANCA","phone":"05 22 93 20 26","location":"https://www.telecontact.ma/plan-acces/pharmacie-hay-elmatar-/3076706/casablanca","city":"Casablanca"},{"name":"Pharmacie Hay ElWiam","address":"hay El Oulfa, bd. H n°252, Q. Oulfa, 20220  CASABLANCA","phone":"05 22 91 17 31","location":"https://www.telecontact.ma/plan-acces/pharmacie-hay-elwiam-/3110833/casablanca","city":"Casablanca"},{"name":"Pharmacie Hay Ennasr II","address":"lot. Salmia II, Hay Ennasr II, Q. Sbata CASABLANCA","phone":"05 22 38 97 30","location":"https://www.telecontact.ma/plan-acces/pharmacie-hay-ennasr-ii-/3308141/casablanca","city":"Casablanca"},{"name":"Pharmacie Hay Ennour","address":"lotiss. Ennour, grp. B21 rue 3 mag. 4 Sidi Othmane, Q. Hay Moulay Rachid CASABLANCA","phone":"05 22 38 00 40","location":"https://www.telecontact.ma/plan-acces/pharmacie-hay-ennour-/3150868/casablanca","city":"Casablanca"},{"name":"Pharmacie hay Essaada","address":"262, hay Essaâda , Ouled Haddou Sidi Maârouf, Q. Sidi Maarouf, 20280  CASABLANCA","phone":"05 22 97 22 70","location":"https://www.telecontact.ma/plan-acces/pharmacie-hay-essaada-/2206909/casablanca","city":"Casablanca"},{"name":"Pharmacie Hay Essalama","address":"22, avenue Mohamed Bouziane, résid. Nil, Q. Hay Moulay Rachid, 20670  CASABLANCA","phone":"05 22 59 57 23","location":"https://www.telecontact.ma/plan-acces/pharmacie-hay-essalama-/2211042/casablanca","city":"Casablanca"},{"name":"Pharmacie hay Fadl","address":"hay El Fadl, Zouhra Sahih n°137, Q. Aïn Chok CASABLANCA","phone":"05 22 72 06 13","location":"https://www.telecontact.ma/plan-acces/pharmacie-hay-fadl-/3345948/casablanca","city":"Casablanca"},{"name":"Pharmacie Hay Hakam","address":"bd Ibn Tachfine, rue 21 n°40, Hakam I, Q. Ain Borja, 20320  CASABLANCA","phone":"05 22 62 46 48","location":"https://www.telecontact.ma/plan-acces/pharmacie-hay-hakam-/3033963/casablanca","city":"Casablanca"},{"name":"Pharmacie Hay Karam","address":"98 Bis, avenue C (zone industr.Est)- Aïn Sebaa, hay Karam q.i. Sidi Bernoussi, Q. Aïn Sebaâ, 20250  CASABLANCA","phone":"05 22 35 93 82","location":"https://www.telecontact.ma/plan-acces/pharmacie-hay-karam-/3142688/casablanca","city":"Casablanca"},{"name":"Pharmacie Hay Kenza","address":"hay El Oulfa, lot. 71 n°1, hay Kenza II, Q. Oulfa, 20230  CASABLANCA","phone":"05 22 90 99 00","location":"https://www.telecontact.ma/plan-acces/pharmacie-hay-kenza-/3207153/casablanca","city":"Casablanca"},{"name":"Pharmacie hay Makam","address":"quartier Aïn Borja, hay makam n°117., Q. la Villette, 20320  CASABLANCA","phone":"05 22 63 87 87","location":"https://www.telecontact.ma/plan-acces/pharmacie-hay-makam-/3018329/casablanca","city":"Casablanca"},{"name":"Pharmacie Hay R'Mila","address":"hay Anigrit (h. Rmila), rue 22 n°192, Q. Aïn Chok, 20470  CASABLANCA","phone":"05 22 50 33 50","location":"","city":"Casablanca"},{"name":"Pharmacie hay Raja","address":"125 Bis, avenue des Pléiades, hay Raja, Q. Hermitage - Hôpitaux, 20360  CASABLANCA","phone":"05 22 86 05 25","location":"https://www.telecontact.ma/plan-acces/pharmacie-hay-raja-/2163473/casablanca","city":"Casablanca"},{"name":"Pharmacie hay Rayan","address":"hay Sidi Moumen, lotis. Rayan n° 198, Q. Sidi Moumen CASABLANCA","phone":"05 22 72 74 05","location":"https://www.telecontact.ma/plan-acces/pharmacie-hay-rayan-/3345952/casablanca","city":"Casablanca"},{"name":"Pharmacie Hay Zarhoune","address":"hay Sidi Moumen, tranche n°2B, Sect. 3 n°13 n°5, Q. Sidi Moumen CASABLANCA","phone":"05 22 70 85 84","location":"https://www.telecontact.ma/plan-acces/pharmacie-hay-zarhoune-/3275648/casablanca","city":"Casablanca"},{"name":"Pharmacie Hiba","address":"51 Bis, rue Banafsaj - ex Violettes , Q. Beauséjour, 20200  CASABLANCA","phone":"05 22 39 34 31","location":"https://www.telecontact.ma/plan-acces/pharmacie-hiba-/3080437/casablanca","city":"Casablanca"},{"name":"Pharmacie Hicham","address":"298, bd Panoramique , Q. Aïn Chok, 20470  CASABLANCA","phone":"05 22 21 06 68","location":"https://www.telecontact.ma/plan-acces/pharmacie-hicham-/2200978/casablanca","city":"Casablanca"},{"name":"Pharmacie Hilal Sakane","address":"2, hay Moulay Rachid , Q. Hay Moulay Rachid CASABLANCA","phone":"05 22 72 81 72","location":"https://www.telecontact.ma/plan-acces/pharmacie-hilal-sakane-/3267814/casablanca","city":"Casablanca"},{"name":"Pharmacie Moueden","address":"bd Ahl Loghlam, mag. 1, Q. Sidi Moumen, 20630  CASABLANCA","phone":"05 22 76 57 62","location":"https://www.telecontact.ma/plan-acces/pharmacie-moueden-/3039626/casablanca","city":"Casablanca"},{"name":"Pharmacie Mouhssine","address":"834, avenue du Deux Mars Inara I, Q. Aïn Chok, 20480  CASABLANCA","phone":"05 22 21 09 76","location":"https://www.telecontact.ma/plan-acces/pharmacie-mouhssine-/2110259/casablanca","city":"Casablanca"},{"name":"Pharmacie Moujamaâ Andalous","address":"lot. Salmia II, grp. d'habitation AlAndalous GH5 rue 4 n°11/13, Q. Hay Moulay Rachid, 20660  CASABLANCA","phone":"05 22 38 30 06","location":"","city":"Casablanca"},{"name":"Pharmacie Moukdad Lahrizi","address":"153, avenue Makdad Lahrizi , Q. Sbata, 20452  CASABLANCA","phone":"05 22 37 37 35","location":"https://www.telecontact.ma/plan-acces/pharmacie-moukdad-lahrizi-/1498600/casablanca","city":"Casablanca"},{"name":"Pharmacie Moukrim","address":"lotiss. Mandarona, rue 30 n°60, Hay Inara I (Aïn Chok), Q. Aïn Chok, 20460  CASABLANCA","phone":"05 22 21 39 75","location":"https://www.telecontact.ma/plan-acces/pharmacie-moukrim-/3006091/casablanca","city":"Casablanca"},{"name":"Pharmacie Moulay","address":"64, rue Bachir El Ibrahimi-ex Quinconces , Q. la Gironde CASABLANCA","phone":"05 22 31 32 61","location":"https://www.telecontact.ma/plan-acces/pharmacie-moulay-/3208790/casablanca","city":"Casablanca"},{"name":"Pharmacie Moulay Ahmed","address":"lotiss. Jnane Louz, lot 1 unité 6 Oulad Azouz, Q. Oulfa CASABLANCA","phone":"05 22 65 86 08","location":"https://www.telecontact.ma/plan-acces/pharmacie-moulay-ahmed-/3313476/casablanca","city":"Casablanca"},{"name":"Pharmacie Moulay Cherif","address":"1, rue Abou Ali Kali , Q. Hay Mohammadi, 20560  CASABLANCA","phone":"05 22 62 02 26","location":"https://www.telecontact.ma/plan-acces/pharmacie-moulay-cherif-/0280300/casablanca","city":"Casablanca"},{"name":"Pharmacie Annahda","address":"hay Sidi Moumen, lotiss. Annahda1, Gh 6, imm. 34 n°1, Q. Sidi Moumen CASABLANCA","phone":"05 22 75 12 34","location":"https://www.telecontact.ma/plan-acces/pharmacie-annahda-/3263936/casablanca","city":"Casablanca"},{"name":"Pharmacie Annajat","address":"bd de Meknès, imm. J, n°21 hay Inara I, Q. Aïn Chok, 20480  CASABLANCA","phone":"05 22 52 73 99","location":"https://www.telecontact.ma/plan-acces/pharmacie-annajat-/3017781/casablanca","city":"Casablanca"},{"name":"Pharmacie Annasr","address":"hay El Oulfa, Assalam II, Imm 3, Gh4, Q. Oulfa, 20240  CASABLANCA","phone":"05 22 93 28 13","location":"https://www.telecontact.ma/plan-acces/pharmacie-annasr-/3076720/casablanca","city":"Casablanca"},{"name":"Pharmacie Annassim","address":"62, avenue Oued Daoura, lotiss. Habiba, Q. Oulfa, 20220  CASABLANCA","phone":"05 22 90 39 12","location":"https://www.telecontact.ma/plan-acces/pharmacie-annassim-/2206377/casablanca","city":"Casablanca"},{"name":"Pharmacie Annia","address":"lotiss. Assafa, imm. 18 n° 4 A hay El Oulfa, Q. Oulfa, 20240  CASABLANCA","phone":"05 22 93 46 33","location":"https://www.telecontact.ma/plan-acces/pharmacie-annia-/3085715/casablanca","city":"Casablanca"},{"name":"Pharmacie Anoual","address":"allée du Lion ang.bd. Anoual, Q. Hermitage - Hôpitaux, 20360  CASABLANCA","phone":"05 22 86 11 20","location":"https://www.telecontact.ma/plan-acces/pharmacie-anoual-/3115803/casablanca","city":"Casablanca"},{"name":"Pharmacie Anouari","address":"hay Massira III, rue 58 n°5, Q. Hay Moulay Rachid CASABLANCA","phone":"05 22 71 76 79","location":"https://www.telecontact.ma/plan-acces/pharmacie-anouari-/3269880/casablanca","city":"Casablanca"},{"name":"Pharmacie Aourir","address":"52, rue Lagramta - ex Le Cornec , Q. Oasis, 20410  CASABLANCA","phone":"05 22 99 31 23","location":"https://www.telecontact.ma/plan-acces/pharmacie-aourir-/3038505/casablanca","city":"Casablanca"},{"name":"Pharmacie Arafat","address":"lot. El Azhar, résid. Madinati, Gh 11, imm. 6, mag. 1, Q. Sidi Moumen CASABLANCA","phone":"05 22 74 07 24","location":"https://www.telecontact.ma/plan-acces/pharmacie-arafat-/3267920/casablanca","city":"Casablanca"},{"name":"Pharmacie Araucaria","address":"42, rue d' Ifrane - ex Toulouse , Q. Hay Salam ex Cil, 20210  CASABLANCA","phone":"05 22 36 13 05","location":"https://www.telecontact.ma/plan-acces/pharmacie-araucaria-/3012266/casablanca","city":"Casablanca"},{"name":"Pharmacie Areski","address":"hay Amal I (AlFida), rue 8, n°59, Q. Hay El Farah, 20530  CASABLANCA","phone":"05 22 85 32 16","location":"https://www.telecontact.ma/plan-acces/pharmacie-areski-/3012546/casablanca","city":"Casablanca"},{"name":"Pharmacie Argane","address":"199, bd de Bordeaux , Q. Bourgogne, 20040  CASABLANCA","phone":"05 22 49 21 71","location":"https://www.telecontact.ma/plan-acces/pharmacie-argane-/2175780/casablanca","city":"Casablanca"},{"name":"Pharmacie Arij","address":"5, quartier Californie, bd Demmame, Q. Californie, 20150  CASABLANCA","phone":"05 22 21 90 07","location":"https://www.telecontact.ma/plan-acces/pharmacie-arij-/3056134/casablanca","city":"Casablanca"},{"name":"Pharmacie Arraefa","address":"66 Bis, allée des Casuarinas , Q. Aïn Sebaâ, 20580  CASABLANCA","phone":"05 22 35 27 40","location":"https://www.telecontact.ma/plan-acces/pharmacie-arraefa-/3005305/casablanca","city":"Casablanca"},{"name":"Pharmacie Arrahma","address":"hay Rahma, rue 23 n°49 , c. com. 2, Q. Hay Moulay Rachid, 20660  CASABLANCA","phone":"05 22 70 01 95","location":"https://www.telecontact.ma/plan-acces/pharmacie-arrahma-/2129509/casablanca","city":"Casablanca"},{"name":"Pharmacie Arrazi","address":"153, rue des Anglais , Q. Ancienne Médina, 20000  CASABLANCA","phone":"05 22 26 13 03","location":"https://www.telecontact.ma/plan-acces/pharmacie-arrazi-/0282200/casablanca","city":"Casablanca"},{"name":"Pharmacie Arrimal Addahabia","address":"41, allée des Mûriers (Aïn Sebâa) , Q. Aïn Sebaâ, 20250  CASABLANCA","phone":"05 22 34 00 74","location":"https://www.telecontact.ma/plan-acces/pharmacie-arrimal-addahabia-/3158192/casablanca","city":"Casablanca"},{"name":"Pharmacie Arrochd","address":"hay Nassim, mosquée Fatna Bakchane n° 2, Q. Oulfa, 20190  CASABLANCA","phone":"05 22 89 39 89","location":"https://www.telecontact.ma/plan-acces/pharmacie-arrochd-/3164995/casablanca","city":"Casablanca"},{"name":"Pharmacie Arsalane","address":"114, bd Hassan El Alaoui , Q. Ain Borja, 20320  CASABLANCA","phone":"05 22 62 11 71","location":"https://www.telecontact.ma/plan-acces/pharmacie-arsalane-/0282300/casablanca","city":"Casablanca"},{"name":"Pharmacie Askia","address":"4, cité Plateau, résid. Andaloussia E 74, Q. Derb Ghalef CASABLANCA","phone":"05 22 25 93 20","location":"https://www.telecontact.ma/plan-acces/pharmacie-askia-/3253429/casablanca","city":"Casablanca"},{"name":"Pharmacie la Villette","address":"23, rue Abou Bakr El Wahrani , Q. la Villette, 20320  CASABLANCA","phone":"05 22 61 32 13","location":"https://www.telecontact.ma/plan-acces/pharmacie-la-villette-/2182499/casablanca","city":"Casablanca"},{"name":"Pharmacie Laâfou","address":"derb Laafou, rue 34 n°43/45, Q. Derb El Kabir, 20500  CASABLANCA","phone":"05 22 81 35 83","location":"","city":"Casablanca"},{"name":"Pharmacie Laayoune","address":"635, bd de Goulmima , Q. Bourgogne, 20040  CASABLANCA","phone":"05 22 26 21 04","location":"https://www.telecontact.ma/plan-acces/pharmacie-laayoune-/0291900/casablanca","city":"Casablanca"},{"name":"Pharmacie Laaziza","address":"25, avenue Joulan - ex D, Salmia II, Q. Sbata, 20452  CASABLANCA","phone":"05 22 38 24 51","location":"https://www.telecontact.ma/plan-acces/pharmacie-laaziza-/2143948/casablanca","city":"Casablanca"},{"name":"Pharmacie Lagota","address":"6, bd de la Gotha, sidi Moumen, Q. Sidi Moumen CASABLANCA","phone":"05 22 71 83 36","location":"https://www.telecontact.ma/plan-acces/pharmacie-lagota-/3192631/casablanca","city":"Casablanca"},{"name":"Pharmacie Lahbabi","address":"78, avenue N (Jamila V) , Q. Sbata, 20452  CASABLANCA","phone":"05 22 37 31 03","location":"https://www.telecontact.ma/plan-acces/pharmacie-lahbabi-/2110184/casablanca","city":"Casablanca"},{"name":"Pharmacie Lahjajma","address":"avenue Mohamed Sijelmassi -ex Phare résid. Taghzout, Q. Racine, 20050  CASABLANCA","phone":"05 22 29 35 64","location":"https://www.telecontact.ma/plan-acces/pharmacie-lahjajma-/2110305/casablanca","city":"Casablanca"},{"name":"Pharmacie Laïla","address":"37, rue El Bahalil , Q. Roches noires, 2029  CASABLANCA","phone":"05 22 40 19 12","location":"","city":"Casablanca"},{"name":"Pharmacie Laimoune","address":"466, hay Laimoune, c. com. Laimoun, Lissasfa, Q. Oulfa, 20230  CASABLANCA","phone":"05 22 90 94 94","location":"https://www.telecontact.ma/plan-acces/pharmacie-laimoune-/3053991/casablanca","city":"Casablanca"},{"name":"Pharmacie Lakbira","address":"62, rue du Chasseur Jules Gros , Q. Oasis, 20410  CASABLANCA","phone":"05 22 99 08 75","location":"https://www.telecontact.ma/plan-acces/pharmacie-lakbira-/3015898/casablanca","city":"Casablanca"},{"name":"Pharmacie Lalla Meriem","address":"cité Lalla Mériem, place ElMasjid n°4, Q. Sidi Othman, 20660  CASABLANCA","phone":"05 22 37 33 09","location":"https://www.telecontact.ma/plan-acces/pharmacie-lalla-meriem-/1567300/casablanca","city":"Casablanca"},{"name":"Pharmacie Lamia","address":"lot. Lamia (bd Fouarat), bloc 10 n°7, Q. Ain Borja, 20570  CASABLANCA","phone":"05 22 60 46 30","location":"https://www.telecontact.ma/plan-acces/pharmacie-lamia-/2109976/casablanca","city":"Casablanca"},{"name":"Pharmacie Lamia Grar","address":"44 Bis, lotiss. Laïla , Sidi Maarouf, Q. Sidi Maarouf, 20280  CASABLANCA","phone":"05 22 32 11 37","location":"https://www.telecontact.ma/plan-acces/pharmacie-lamia-grar-/3058465/casablanca","city":"Casablanca"},{"name":"Pharmacie Lamoricière","address":"33, rue de Tarablous -ex Lamoricière , Q. Centre Ville, 20140  CASABLANCA","phone":"05 22 27 94 56","location":"","city":"Casablanca"},{"name":"Pharmacie Lamrissi","address":"45, avenue Khalifa Ben Ismaïl, grp 3, hay Moulay Rachid, Q. Hay Moulay Rachid, 20660  CASABLANCA","phone":"05 22 72 73 70","location":"https://www.telecontact.ma/plan-acces/pharmacie-lamrissi-/2185028/casablanca","city":"Casablanca"},{"name":"Pharmacie Lausanne","address":"207, hay Laimoune , Q. Oulfa, 20230  CASABLANCA","phone":"05 22 90 53 66","location":"https://www.telecontact.ma/plan-acces/pharmacie-lausanne-/3053997/casablanca","city":"Casablanca"},{"name":"Pharmacie Laya","address":"9, rue El Abtal , Q. Oulfa, 20200  CASABLANCA","phone":"05 22 25 44 39","location":"https://www.telecontact.ma/plan-acces/pharmacie-laya-/3053985/casablanca","city":"Casablanca"},{"name":"Pharmacie le Bien-Etre","address":"lot. Azhari II, rue 77 n°55, Q. Oulfa, 20220  CASABLANCA","phone":"05 22 93 26 80","location":"https://www.telecontact.ma/plan-acces/pharmacie-le-bien-etre-/3053746/casablanca","city":"Casablanca"},{"name":"Pharmacie le Corail","address":"9 Bis, bd de Libye, Val d'Anfa, Q. Anfa Supérieur, 20050  CASABLANCA","phone":"05 22 39 82 22","location":"https://www.telecontact.ma/plan-acces/pharmacie-le-corail-/3035588/casablanca","city":"Casablanca"},{"name":"Pharmacie Le Crepuscule","address":"hay Hassani, Hassania II, rue 56 n°13, Q. Hay Hassani, 20220  CASABLANCA","phone":"05 22 90 00 47","location":"https://www.telecontact.ma/plan-acces/pharmacie-le-crepuscule-/3084531/casablanca","city":"Casablanca"},{"name":"Pharmacie Dounia Erraha","address":"hay El Wifak III, rue 64 n°299, Q. Oulfa CASABLANCA","phone":"05 22 91 51 34","location":"https://www.telecontact.ma/plan-acces/pharmacie-dounia-erraha-/3086086/casablanca","city":"Casablanca"},{"name":"Pharmacie du 10 Mars","address":"851, avenue du Cdt Driss Lharti - ex A, Salama III, Q. Hay Moulay Rachid, 20670  CASABLANCA","phone":"05 22 57 71 68","location":"https://www.telecontact.ma/plan-acces/pharmacie-du-10-mars-/1223300/casablanca","city":"Casablanca"},{"name":"Pharmacie Samane","address":"hay Saloma II (Aïn Sebâa), n° 10 et 12, Q. Oukacha, 20580  CASABLANCA","phone":"05 22 66 22 85","location":"https://www.telecontact.ma/plan-acces/pharmacie-samane-/3118230/casablanca","city":"Casablanca"},{"name":"Pharmacie Samia","address":"hay El Oulfa, grp.V n°12, ang. rues 13 et 4, Q. Oulfa, 20220  CASABLANCA","phone":"05 22 90 08 81","location":"https://www.telecontact.ma/plan-acces/pharmacie-samia-/2167619/casablanca","city":"Casablanca"},{"name":"Pharmacie Sanaa","address":"cité Sidi Othmane, bloc 18, n°15, Q. Sidi Othman, 20700  CASABLANCA","phone":"05 22 37 56 99","location":"https://www.telecontact.ma/plan-acces/pharmacie-sanaa-/2215065/casablanca","city":"Casablanca"},{"name":"Pharmacie Sara","address":"hay Sidi Moumen, résid. AlKawtar, Addoha, Q. Sidi Moumen, 20630  CASABLANCA","phone":"05 22 71 90 17","location":"https://www.telecontact.ma/plan-acces/pharmacie-sara-/3115898/casablanca","city":"Casablanca"},{"name":"Pharmacie Saranaz","address":"quartier Lissasfa (route d'El Jadida), lotiss. Smiralda n°140, Q. Oulfa, 20230  CASABLANCA","phone":"05 22 65 20 07","location":"https://www.telecontact.ma/plan-acces/pharmacie-saranaz-/3199070/casablanca","city":"Casablanca"},{"name":"Pharmacie Sbata","address":"259, avenue Sakia El Hamra , Q. Sbata, 20452  CASABLANCA","phone":"05 22 37 19 15","location":"https://www.telecontact.ma/plan-acces/pharmacie-sbata-/0298400/casablanca","city":"Casablanca"},{"name":"Pharmacie Aman","address":"hay El Osra II, Lot. Khadija rue 17 n°10, Q. Aïn Chok, 20480  CASABLANCA","phone":"05 22 52 47 00","location":"https://www.telecontact.ma/plan-acces/pharmacie-aman-/3109800/casablanca","city":"Casablanca"},{"name":"Pharmacie Amina","address":"180, avenue C, hay Takadoum, Q. Hay Mohammadi, 20570  CASABLANCA","phone":"05 22 62 06 16","location":"https://www.telecontact.ma/plan-acces/pharmacie-amina-/0281800/casablanca","city":"Casablanca"},{"name":"Pharmacie Amine","address":"65, lotiss. Amine , rte de Bouskoura Sidi Maârouf, Q. Sidi Maarouf, 20280  CASABLANCA","phone":"05 22 97 25 85","location":"https://www.telecontact.ma/plan-acces/pharmacie-amine-/2210570/casablanca","city":"Casablanca"},{"name":"Pharmacie Anafé","address":"37, rue Félix et Max Guedj , Q. Lusitania, 20070  CASABLANCA","phone":"05 22 27 41 94","location":"","city":"Casablanca"},{"name":"Pharmacie Anassi","address":"lot. Anassi, Grp. 7, Ahl Loghlam, n°1, Rdc, Q. Sidi Moumen, 20630  CASABLANCA","phone":"05 22 73 73 63","location":"https://www.telecontact.ma/plan-acces/pharmacie-anassi-/3077721/casablanca","city":"Casablanca"},{"name":"Pharmacie Andalous","address":"394, bd Panoramique ang. av. 2 Mars, Q. Aïn Chok, 20470  CASABLANCA","phone":"05 22 21 17 85","location":"https://www.telecontact.ma/plan-acces/pharmacie-andalous-/0281900/casablanca","city":"Casablanca"},{"name":"Pharmacie Anfa Bay","address":"hay Hassani, rue 29 n°135, Q. Hay Hassani CASABLANCA","phone":"05 22 91 07 91","location":"https://www.telecontact.ma/plan-acces/pharmacie-anfa-bay-/3282187/casablanca","city":"Casablanca"},{"name":"Pharmacie Anfaplace","address":"c. com. Anfaplace bd de la Corniche , Q. Aïn Diab CASABLANCA","phone":"05 22 79 70 31","location":"https://www.telecontact.ma/plan-acces/pharmacie-anfaplace-/3263408/casablanca","city":"Casablanca"},{"name":"Pharmacie Anissa","address":"lotiss. Zoubeir, grp. Addoha n°312, Q. Oulfa, 20220  CASABLANCA","phone":"05 22 89 34 94","location":"https://www.telecontact.ma/plan-acces/pharmacie-anissa-/3011285/casablanca","city":"Casablanca"},{"name":"Pharmacie Elhouda","address":"19, bd Lamartine , Q. Mers Sultan, 21490  CASABLANCA","phone":"05 22 28 99 44","location":"https://www.telecontact.ma/plan-acces/pharmacie-elhouda-/1534900/casablanca","city":"Casablanca"},{"name":"Pharmacie ElIrfane","address":"hay Moulay Rachid, grp. 6, rue T n°8, Q. Hay Moulay Rachid, 20660  CASABLANCA","phone":"05 22 72 64 41","location":"https://www.telecontact.ma/plan-acces/pharmacie-elirfane-/3054540/casablanca","city":"Casablanca"},{"name":"Pharmacie ElKawtar","address":"10, bd Oued Sebou, Mosquée Ferrara I, Q. Oulfa, 20200  CASABLANCA","phone":"05 22 90 40 50","location":"https://www.telecontact.ma/plan-acces/pharmacie-elkawtar-/2110001/casablanca","city":"Casablanca"},{"name":"Pharmacie ElKheir","address":"derb El Kheir, rue 23 n°63-65, Q. Aïn Chok, 20480  CASABLANCA","phone":"05 22 21 34 23","location":"https://www.telecontact.ma/plan-acces/pharmacie-elkheir-/1223100/casablanca","city":"Casablanca"},{"name":"Pharmacie Ellotf","address":"313, av Oued Tensift , Q. Oulfa, 20220  CASABLANCA","phone":"05 22 91 00 23","location":"https://www.telecontact.ma/plan-acces/pharmacie-ellotf-/1779600/casablanca","city":"Casablanca"},{"name":"Pharmacie ElMaaroufi","address":"lot Espérance II (Ain Sebaâ), rue 1 n°3, Q. Aïn Sebaâ, 20250  CASABLANCA","phone":"05 22 35 65 96","location":"https://www.telecontact.ma/plan-acces/pharmacie-elmaaroufi-/2175523/casablanca","city":"Casablanca"},{"name":"Pharmacie ElMadania","address":"derb Bouchentouf, rue29, n°85, Q. Nouvelle Médina, 20550  CASABLANCA","phone":"05 22 28 13 28","location":"https://www.telecontact.ma/plan-acces/pharmacie-elmadania-/0292900/casablanca","city":"Casablanca"},{"name":"Pharmacie ElManal","address":"320, bd Oued Oum Errabia , Q. Oulfa, 20220  CASABLANCA","phone":"05 22 93 28 29","location":"https://www.telecontact.ma/plan-acces/pharmacie-elmanal-/2195977/casablanca","city":"Casablanca"},{"name":"Pharmacie Abou Ayoub","address":"avenue du Dix Mars, hay El Wahda I rue 1 n°1, Q. Sidi Othman CASABLANCA","phone":"05 22 38 53 85","location":"https://www.telecontact.ma/plan-acces/pharmacie-abou-ayoub-/3253477/casablanca","city":"Casablanca"},{"name":"Pharmacie Abou Bakr","address":"avenue du Cdt Driss Lharti - ex A, grp. 4, Q. Hay Moulay Rachid, 20660  CASABLANCA","phone":"05 22 70 54 63","location":"https://www.telecontact.ma/plan-acces/pharmacie-abou-bakr-/2156453/casablanca","city":"Casablanca"},{"name":"Pharmacie Abou Dabi","address":"9 Bis, rue des Bouvreuils, ang. rue Abou Dabi, Q. Oasis, 20410  CASABLANCA","phone":"05 22 99 64 10","location":"https://www.telecontact.ma/plan-acces/pharmacie-abou-dabi-/3171667/casablanca","city":"Casablanca"},{"name":"Pharmacie Abou Soulaimane","address":"4, rue Abou Soulaimane El Khattabi , Q. Mers Sultan, 21490  CASABLANCA","phone":"05 22 82 90 44","location":"https://www.telecontact.ma/plan-acces/pharmacie-abou-soulaimane-/2211431/casablanca","city":"Casablanca"},{"name":"Pharmacie Abou Zaid","address":"hay Massira II, rue 36 n°4, Q. Hay Moulay Rachid, 20670  CASABLANCA","phone":"05 22 70 22 84","location":"https://www.telecontact.ma/plan-acces/pharmacie-abou-zaid-/3190591/casablanca","city":"Casablanca"},{"name":"Pharmacie Abouab Essalam","address":"quartier Ahl Loghlam, lotiss. Essalam II, lot J 38, Q. Sidi Moumen CASABLANCA","phone":"05 22 01 07 21","location":"https://www.telecontact.ma/plan-acces/pharmacie-abouab-essalam-/3267918/casablanca","city":"Casablanca"},{"name":"Pharmacie Abouab Nassim","address":"quartier Lissasfa (route d'El Jadida), lotiss. Nassim 2° Tranche imm. n°281 n°1 Parc II, Q. Lissasfa CASABLANCA","phone":"05 22 93 89 33","location":"https://www.telecontact.ma/plan-acces/pharmacie-abouab-nassim-/3270835/casablanca","city":"Casablanca"},{"name":"Pharmacie Aboulkacem Chabbi","address":"hay Mohammadi, lot F Dar Lamane, n°11-12, Q. Hay Mohammadi, 20570  CASABLANCA","phone":"05 22 60 94 26","location":"https://www.telecontact.ma/plan-acces/pharmacie-aboulkacem-chabbi-/1454800/casablanca","city":"Casablanca"},{"name":"Pharmacie Abrar Laaonate","address":"quartier Ahl Loghlam, GH A rue 7 n°42 Salam 2, Q. Sidi Moumen CASABLANCA","phone":"05 22 74 23 25","location":"https://www.telecontact.ma/plan-acces/pharmacie-abrar-laaonate-/3294689/casablanca","city":"Casablanca"},{"name":"Pharmacie Acharaf","address":"96, rue Socrate , Q. Maarif, 20380  CASABLANCA","phone":"05 22 25 22 09","location":"https://www.telecontact.ma/plan-acces/pharmacie-acharaf-/0280200/casablanca","city":"Casablanca"},{"name":"Pharmacie Achcharaf","address":"bd El Qods, Coopérative Acharaf n°DM2, Q. Inara CASABLANCA","phone":"05 22 21 64 09","location":"https://www.telecontact.ma/plan-acces/pharmacie-achcharaf-/3267817/casablanca","city":"Casablanca"},{"name":"Pharmacie Achir","address":"lotiss. Mandarona, rue 14 n°101, Aïn Chok, Q. Aïn Chok, 20460  CASABLANCA","phone":"05 22 52 82 53","location":"https://www.telecontact.ma/plan-acces/pharmacie-achir-/3007414/casablanca","city":"Casablanca"},{"name":"Pharmacie Achourouk","address":"quartier Beausite, 06 n°1 EQ8, Addoha I, Q. Aïn Sebaâ, 20250  CASABLANCA","phone":"05 22 67 36 67","location":"https://www.telecontact.ma/plan-acces/pharmacie-achourouk-/3035320/casablanca","city":"Casablanca"},{"name":"Pharmacie Achraf","address":"bd Anoual -ex Felix Faure, résid. Annajd, imm.20, Q. Derb Ghalef, 20340  CASABLANCA","phone":"05 22 98 97 63","location":"https://www.telecontact.ma/plan-acces/pharmacie-achraf-/2217023/casablanca","city":"Casablanca"},{"name":"Pharmacie Acima Inara","address":"avenue du Deux Mars, c.com Acima Inara mag. B6, Q. Aïn Chok CASABLANCA","phone":"05 22 87 49 12","location":"https://www.telecontact.ma/plan-acces/pharmacie-acima-inara-/3272338/casablanca","city":"Casablanca"},{"name":"Pharmacie Actuelle","address":"cité Sidi Bernoussi, Km 12,5 Rp1 Boustane II, imm. 13 mag. 5 et 6, Q. Sidi Bernoussi, 20600  CASABLANCA","phone":"05 22 73 15 36","location":"https://www.telecontact.ma/plan-acces/pharmacie-actuelle-/3099380/casablanca","city":"Casablanca"},{"name":"Pharmacie Ad-damane","address":"600, bd El Qods, lotiss. Al Hamra II, Q. Aïn Chok, 20480  CASABLANCA","phone":"05 22 50 65 10","location":"https://www.telecontact.ma/plan-acces/pharmacie-ad-damane-/3078505/casablanca","city":"Casablanca"},{"name":"Pharmacie Adam","address":"lotiss. Basbassa (Ain Sebaâ), rue 3 n°72 Ain Sebâa, Q. Aïn Sebaâ, 20580  CASABLANCA","phone":"05 22 34 03 12","location":"https://www.telecontact.ma/plan-acces/pharmacie-adam-/3180099/casablanca","city":"Casablanca"},{"name":"Pharmacie Addahab","address":"hay Jamila V (cité Djemaa) ang. rue 70 et rue 120, Q. Sbata, 20452  CASABLANCA","phone":"05 22 37 09 37","location":"https://www.telecontact.ma/plan-acces/pharmacie-addahab-/3130563/casablanca","city":"Casablanca"},{"name":"Pharmacie Addiar","address":"Hay Inara I, rue Addiar Al Jadida n°16, Q. Aïn Chok, 20460  CASABLANCA","phone":"05 22 50 75 19","location":"https://www.telecontact.ma/plan-acces/pharmacie-addiar-/3056708/casablanca","city":"Casablanca"},{"name":"Pharmacie Mendour","address":"33, cité Sidi Bernoussi, av. C lot. ElHamidia, Q. Sidi Bernoussi, 20600  CASABLANCA","phone":"05 22 73 40 40","location":"https://www.telecontact.ma/plan-acces/pharmacie-mendour-/3111725/casablanca","city":"Casablanca"},{"name":"Pharmacie Menjra","address":"hay Saada - ex Mazola (q. Aviation), rue 4 n°16, ang. Ibn Sina, Q. Oulfa, 20220  CASABLANCA","phone":"05 22 89 50 05","location":"https://www.telecontact.ma/plan-acces/pharmacie-menjra-/2129499/casablanca","city":"Casablanca"},{"name":"Pharmacie Menzeh Al Qods","address":"hay El Qods, lot. AlMenzeh imm.45 n°1, Q. Sidi Bernoussi, 20600  CASABLANCA","phone":"05 22 73 35 42","location":"https://www.telecontact.ma/plan-acces/pharmacie-menzeh-al-qods-/2206302/casablanca","city":"Casablanca"}]