[{"name":"Pharmacie Assalam","address":"av Essayeda AlHorra  CHEFCHAOUEN","phone":"05 39 98 81 95","location":"https://www.telecontact.ma/plan-acces/pharmacie-assalam-/3064558/chefchaouen","city":"Chefchaouen"},{"name":"Pharmacie Beni Khaled","address":"av Mohammed V , Bab Berred CHEFCHAOUEN","phone":"05 39 89 20 72","location":"https://www.telecontact.ma/plan-acces/pharmacie-beni-khaled-/3196959/chefchaouen","city":"Chefchaouen"},{"name":"Pharmacie Centrale","address":"bd Sidi Abd AlHamid , Route Atil Asmae CHEFCHAOUEN","phone":"05 39 88 32 64","location":"https://www.telecontact.ma/plan-acces/pharmacie-centrale-/3224574/chefchaouen","city":"Chefchaouen"},{"name":"Pharmacie Chefchaouen","address":"4, av Moulay Idriss , 91000  CHEFCHAOUEN","phone":"05 39 98 61 58","location":"https://www.telecontact.ma/plan-acces/pharmacie-chefchaouen-/1615400/chefchaouen","city":"Chefchaouen"},{"name":"Pharmacie Dhar ben Abbad","address":"5, rte Gharouzim  CHEFCHAOUEN","phone":"05 39 98 77 20","location":"https://www.telecontact.ma/plan-acces/pharmacie-dhar-ben-abbad-/9016982/chefchaouen","city":"Chefchaouen"},{"name":"Pharmacie ElHafa","address":"15, av. Mohamed. V  CHEFCHAOUEN","phone":"05 39 88 30 08","location":"https://www.telecontact.ma/plan-acces/pharmacie-elhafa-/3069851/chefchaouen","city":"Chefchaouen"},{"name":"Pharmacie ElMachichi","address":"bd. El Machichi  CHEFCHAOUEN","phone":"05 39 98 71 49","location":"https://www.telecontact.ma/plan-acces/pharmacie-elmachichi-/3162905/chefchaouen","city":"Chefchaouen"},{"name":"Pharmacie Ibn Nafiss","address":"Unnamed Road  CHEFCHAOUEN","phone":"06 21 00 91 68","location":"https://www.telecontact.ma/plan-acces/pharmacie-ibn-nafiss-/3339706/chefchaouen","city":"Chefchaouen"},{"name":"Pharmacie Ibn Sina","address":"53, rue Jamal Eddine Al Afghani  CHEFCHAOUEN","phone":"05 39 98 67 80","location":"https://www.telecontact.ma/plan-acces/pharmacie-ibn-sina-/3105173/chefchaouen","city":"Chefchaouen"},{"name":"Pharmacie Jebha","address":"Jebha centre  CHEFCHAOUEN","phone":"05 39 88 00 56","location":"https://www.telecontact.ma/plan-acces/pharmacie-jebha-/3196944/chefchaouen","city":"Chefchaouen"},{"name":"Pharmacie La Mosquée","address":"302, route AlWahda Administratif  CHEFCHAOUEN","phone":"05 39 88 32 05","location":"","city":"Chefchaouen"},{"name":"Pharmacie La Province","address":"av La Marche Verte , Quartier Administratif CHEFCHAOUEN","phone":"05 39 88 32 50","location":"https://www.telecontact.ma/plan-acces/pharmacie-la-province-/3104949/chefchaouen","city":"Chefchaouen"},{"name":"Pharmacie la Santé","address":"av. Allal Ben Abdellah , hay Alkharazine CHEFCHAOUEN","phone":"05 39 98 91 84","location":"","city":"Chefchaouen"},{"name":"Pharmacie les Parents","address":"41, av. Mohamed Abdou , hay Chourafae CHEFCHAOUEN","phone":"05 39 88 34 17","location":"https://www.telecontact.ma/plan-acces/pharmacie-les-parents-/3128159/chefchaouen","city":"Chefchaouen"},{"name":"Pharmacie Ommouma","address":"bd Al Maghrib Al Arabi  CHEFCHAOUEN","phone":"05 39 88 31 11","location":"https://www.telecontact.ma/plan-acces/pharmacie-ommouma-/3339704/chefchaouen","city":"Chefchaouen"},{"name":"Pharmacie Ras El Ma","address":"22, av Melilia , q. Sidi Boujemaa CHEFCHAOUEN","phone":"05 39 88 30 01","location":"https://www.telecontact.ma/plan-acces/pharmacie-ras-el-ma-/3224584/chefchaouen","city":"Chefchaouen"},{"name":"Pharmacie Utaa Hammam","address":"place Utaa Hammam , Demnet ElMekhzen n°82 CHEFCHAOUEN","phone":"05 39 98 90 70","location":"https://www.telecontact.ma/plan-acces/pharmacie-utaa-hammam-/3064589/chefchaouen","city":"Chefchaouen"},{"name":"Pharmacie AlAndalous","address":"10, rue sidi Allal El Hadj  CHEFCHAOUEN","phone":"05 39 88 38 55","location":"https://www.telecontact.ma/plan-acces/pharmacie-alandalous-/3104868/chefchaouen","city":"Chefchaouen"},{"name":"Pharmacie AlHamra","address":"av. Mly Ali Ben Rachid  CHEFCHAOUEN","phone":"05 39 98 87 33","location":"https://www.telecontact.ma/plan-acces/pharmacie-alhamra-/3128176/chefchaouen","city":"Chefchaouen"}]