[{"name":"Pharmacie Chemaia","address":"135, bd Marche Verte  CHEMAIA","phone":"05 24 46 80 53","location":"https://www.telecontact.ma/plan-acces/pharmacie-chemaia-/3196936/chemaia","city":"Chemaia"},{"name":"Pharmacie Essalam","address":"160, bd Al Maghrib Al Arabi  CHEMAIA","phone":"05 24 46 86 66","location":"https://www.telecontact.ma/plan-acces/pharmacie-essalam-/3196932/chemaia","city":"Chemaia"},{"name":"Pharmacie Hnider","address":"29, rue Oualili  CHEMAIA","phone":"05 24 46 86 56","location":"https://www.telecontact.ma/plan-acces/pharmacie-hnider-/3196923/chemaia","city":"Chemaia"},{"name":"Pharmacie Marche Verte","address":"6, bd Marche Verte  CHEMAIA","phone":"05 24 46 80 10","location":"https://www.telecontact.ma/plan-acces/pharmacie-marche-verte-/3197428/chemaia","city":"Chemaia"},{"name":"Pharmacie Sidi Boualam","address":"59, rue Sidi Boualam  CHEMAIA","phone":"05 24 46 81 16","location":"https://www.telecontact.ma/plan-acces/pharmacie-sidi-boualam-/3251112/chemaia","city":"Chemaia"},{"name":"Pharmacie Souk Zima","address":"35, rte Souk Lakhmiss Zima  CHEMAIA","phone":"05 24 46 91 27","location":"https://www.telecontact.ma/plan-acces/pharmacie-souk-zima-/3251127/chemaia","city":"Chemaia"}]