[{"name":"Pharmacie Sidi Bouzid","address":"centre Sidi Bouzid  CHICHAOUA","phone":"06 61 19 85 36","location":"https://www.telecontact.ma/plan-acces/pharmacie-sidi-bouzid-/3271844/chichaoua","city":"Chichaoua"},{"name":"Pharmacie Sidi Mokhtar","address":"rte principale d'Essaouira , Sidi Mokhtar CHICHAOUA","phone":"05 24 36 20 36","location":"https://www.telecontact.ma/plan-acces/pharmacie-sidi-mokhtar-/3196910/chichaoua","city":"Chichaoua"},{"name":"Pharmacie Abou Bakr Essedik","address":"16, Ouled Bani  CHICHAOUA","phone":"05 24 35 36 20","location":"https://www.telecontact.ma/plan-acces/pharmacie-abou-bakr-essedik-/3271731/chichaoua","city":"Chichaoua"},{"name":"Pharmacie Chichaoua","address":"Centre Chichaoua , 41000  CHICHAOUA","phone":"05 24 35 30 65","location":"https://www.telecontact.ma/plan-acces/pharmacie-chichaoua-/1780200/chichaoua","city":"Chichaoua"},{"name":"Pharmacie Chifaa","address":"rte d'Essaouira , Hay Enahda CHICHAOUA","phone":"05 24 35 30 14","location":"https://www.telecontact.ma/plan-acces/pharmacie-chifaa-/3107434/chichaoua","city":"Chichaoua"},{"name":"Pharmacie ElMassira","address":"2, Quartier Administratif  CHICHAOUA","phone":"05 24 35 22 72","location":"https://www.telecontact.ma/plan-acces/pharmacie-elmassira-/3107942/chichaoua","city":"Chichaoua"},{"name":"Pharmacie La Mosqu√©e","address":"45, rue Ibn Khaldoune , Imintanoute CHICHAOUA","phone":"05 24 45 21 08","location":"","city":"Chichaoua"},{"name":"Pharmacie Mallorca","address":"2, quartier Administratif , imm. Mallorca CHICHAOUA","phone":"05 24 35 39 79","location":"https://www.telecontact.ma/plan-acces/pharmacie-mallorca-/3271737/chichaoua","city":"Chichaoua"},{"name":"Pharmacie Ouled Brahim","address":"Hay Ennahda , rte. d'Essaouira CHICHAOUA","phone":"05 24 35 39 95","location":"https://www.telecontact.ma/plan-acces/pharmacie-ouled-brahim-/3252222/chichaoua","city":"Chichaoua"},{"name":"Pharmacie Quartier Administratif","address":"Quartier Administratif , Bloc B CHICHAOUA","phone":"05 24 35 34 91","location":"https://www.telecontact.ma/plan-acces/pharmacie-quartier-administratif-/3271735/chichaoua","city":"Chichaoua"}]