[{"name":"Pharmacie Arrahma","address":"30, bd Houcine Ben Jelloune , Massira 3 DAKHLA","phone":"05 28 93 08 75","location":"https://www.telecontact.ma/plan-acces/pharmacie-arrahma-/3197351/dakhla","city":"Dakhla"},{"name":"Pharmacie des Sables","address":"1, av Al Walae , hay El Kassam II DAKHLA","phone":"05 28 93 08 08","location":"https://www.telecontact.ma/plan-acces/pharmacie-des-sables-/3238336/dakhla","city":"Dakhla"},{"name":"Pharmacie du Port","address":"hay Assalam , bd Nouveau Port DAKHLA","phone":"06 10 46 34 65","location":"https://www.telecontact.ma/plan-acces/pharmacie-du-port-/3197349/dakhla","city":"Dakhla"},{"name":"Pharmacie ElWalaa","address":"av. ElWalaa  DAKHLA","phone":"05 28 89 86 06","location":"https://www.telecontact.ma/plan-acces/pharmacie-elwalaa-/3041340/dakhla","city":"Dakhla"},{"name":"Pharmacie Ennakhil","address":"196, hay El Aouda  DAKHLA","phone":"05 28 93 03 74","location":"https://www.telecontact.ma/plan-acces/pharmacie-ennakhil-/3270089/dakhla","city":"Dakhla"},{"name":"Pharmacie Essalam","address":"18, rue Ahmed Belafrej  DAKHLA","phone":"05 28 93 09 85","location":"https://www.telecontact.ma/plan-acces/pharmacie-essalam-/3041338/dakhla","city":"Dakhla"},{"name":"Pharmacie Fadlallah","address":"bd Bahnini , q. Rahma 5 n°56 DAKHLA","phone":"05 28 89 81 17","location":"https://www.telecontact.ma/plan-acces/pharmacie-fadlallah-/3197347/dakhla","city":"Dakhla"},{"name":"Pharmacie Hadji","address":"1070, bd Ba Hnini , hay Assalam DAKHLA","phone":"05 28 93 10 04","location":"https://www.telecontact.ma/plan-acces/pharmacie-hadji-/3197344/dakhla","city":"Dakhla"},{"name":"Pharmacie Hay El Hassani","address":"3, hay El Hassani  DAKHLA","phone":"06 10 09 11 12","location":"https://www.telecontact.ma/plan-acces/pharmacie-hay-el-hassani-/3238585/dakhla","city":"Dakhla"},{"name":"Pharmacie la Santé","address":"647, av. El Wahda , hay El Hassani DAKHLA","phone":"05 28 93 08 42","location":"","city":"Dakhla"},{"name":"Pharmacie le Sahara","address":"275, bd ElWalaa  DAKHLA","phone":"05 28 89 79 21","location":"https://www.telecontact.ma/plan-acces/pharmacie-le-sahara-/3197338/dakhla","city":"Dakhla"},{"name":"Pharmacie Menhour","address":"Madinat Al Wahda , n°617, 73000  DAKHLA","phone":"06 18 08 65 92","location":"","city":"Dakhla"},{"name":"Pharmacie Moulay Rachid","address":"Hay Moulay Rachid  DAKHLA","phone":"05 28 89 78 80","location":"","city":"Dakhla"},{"name":"Pharmacie Ouali","address":"3, Av. Bahnini  DAKHLA","phone":"05 28 93 18 49","location":"","city":"Dakhla"},{"name":"Pharmacie Oued Chiaf","address":"632, Hay El Hassani  DAKHLA","phone":"06 10 10 60 18","location":"","city":"Dakhla"},{"name":"Pharmacie Oued Dahab","address":"1, av. El Hassan El Ouazzani , 73000  DAKHLA","phone":"05 28 89 81 25","location":"","city":"Dakhla"},{"name":"Pharmacie Sidi Ahmed Laaroussi","address":"1249, rue Sidi Ahmed Laâroussi  DAKHLA","phone":"05 28 93 06 39","location":"","city":"Dakhla"},{"name":"Pharmacie Sud","address":"43, rue Al Kandil , hay AlMasjid DAKHLA","phone":"05 28 89 84 57","location":"","city":"Dakhla"},{"name":"Pharmacie Al Bouchra","address":"hay Essalam  DAKHLA","phone":"06 30 10 91 30","location":"","city":"Dakhla"},{"name":"Pharmacie Al Irfan","address":"av. Al Wahda , hay El Hassani DAKHLA","phone":"06 66 93 36 83","location":"","city":"Dakhla"},{"name":"Pharmacie Aousserd","address":"hay Oum Tounssi , n°1 DAKHLA","phone":"05 28 89 75 36","location":"https://www.telecontact.ma/plan-acces/pharmacie-aousserd-/3197355/dakhla","city":"Dakhla"}]