[{"name":"Pharmacie Abi AlAbbas Anabati","address":"1, rue Ali Bnou Abi Talib  DRIOUCH","phone":"05 36 36 61 05","location":"https://www.telecontact.ma/plan-acces/pharmacie-abi-alabbas-anabati-/3126873/driouch","city":"Driouch"},{"name":"Pharmacie AlInaya","address":"rue Omar Ibn AlKhattab  DRIOUCH","phone":"05 36 36 67 64","location":"https://www.telecontact.ma/plan-acces/pharmacie-alinaya-/3128715/driouch","city":"Driouch"},{"name":"Pharmacie Driouch","address":"66, av. AlMassira  DRIOUCH","phone":"05 36 36 60 59","location":"","city":"Driouch"},{"name":"Pharmacie ElOuakili","address":"60, rue Salah Eddine El Ayoubi  DRIOUCH","phone":"05 36 36 74 41","location":"","city":"Driouch"},{"name":"Pharmacie Melila","address":"av. ElMassira  DRIOUCH","phone":"05 36 36 61 99","location":"","city":"Driouch"},{"name":"Pharmacie Nassiha","address":"98, bd. Tarik Ibn Zyad  DRIOUCH","phone":"05 36 36 69 15","location":"","city":"Driouch"},{"name":"Pharmacie Yatrib","address":"hay El Amal Charki  DRIOUCH","phone":"05 36 36 78 70","location":"","city":"Driouch"}]