[{"name":"Pharmacie Nouvelle","address":"42, av. Hassan II , 51000  EL HAJEB","phone":"05 35 54 30 38","location":"https://www.telecontact.ma/plan-acces/pharmacie-nouvelle-/1623300/el-hajeb","city":"El Hajeb"},{"name":"Pharmacie Populaire","address":"92, av Hassa II  EL HAJEB","phone":"05 50 12 06 04","location":"https://www.telecontact.ma/plan-acces/pharmacie-populaire-/3197282/el-hajeb","city":"El Hajeb"},{"name":"Pharmacie Sebt Jehjouh","address":"Centre Rurale , Souk Sebt Jehjouh EL HAJEB","phone":"05 35 43 65 75","location":"","city":"El Hajeb"},{"name":"Pharmacie Taouab","address":"18, av Allal Ben Abdellah  EL HAJEB","phone":"05 35 54 20 83","location":"","city":"El Hajeb"},{"name":"Pharmacie Tissair","address":"26, Hay Arrachad , rte. de la Mosquée Ain Taoujdate EL HAJEB","phone":"05 35 44 04 91","location":"","city":"El Hajeb"},{"name":"Pharmacie Agdal","address":"24, Hay Agdal , Sebaa Ayoune EL HAJEB","phone":"05 35 54 73 00","location":"","city":"El Hajeb"},{"name":"Pharmacie Aicha","address":"hay ElQods , n°15 Ain Taoujdate EL HAJEB","phone":"05 35 44 18 86","location":"","city":"El Hajeb"},{"name":"Pharmacie Ait Yazem","address":"route Agourai , ait Yazem EL HAJEB","phone":"05 35 51 71 62","location":"","city":"El Hajeb"},{"name":"Pharmacie AlMansour","address":"lot d'Etat , 2° Tranche , rue 2 n°19 EL HAJEB","phone":"05 35 54 28 50","location":"","city":"El Hajeb"},{"name":"Pharmacie AlMasjid","address":"142, Diour Jdad , Ain Taoujdate EL HAJEB","phone":"05 35 44 05 28","location":"","city":"El Hajeb"},{"name":"Pharmacie AlOmrane","address":"103, lot AlOmrane  EL HAJEB","phone":"05 35 54 26 45","location":"","city":"El Hajeb"},{"name":"Pharmacie Amal","address":"8, av Mohamed V  EL HAJEB","phone":"05 35 54 30 51","location":"","city":"El Hajeb"},{"name":"Pharmacie Annour","address":"7, av Mohamed V  EL HAJEB","phone":"05 35 54 10 48","location":"","city":"El Hajeb"},{"name":"Pharmacie Atlas","address":"87, av Hassan II  EL HAJEB","phone":"05 35 54 27 15","location":"","city":"El Hajeb"},{"name":"Pharmacie Belfkih","address":"222, bd Hassan II  EL HAJEB","phone":"05 35 54 11 72","location":"","city":"El Hajeb"},{"name":"Pharmacie Ben Mtir","address":"C. Rurale d'Ait Boubidmane Bouderbala  EL HAJEB","phone":"05 35 54 62 48","location":"","city":"El Hajeb"},{"name":"Pharmacie Centrale","address":"13, Ancier Quartier , Ain Taoujdate EL HAJEB","phone":"05 35 44 01 02","location":"","city":"El Hajeb"},{"name":"Pharmacie Centrale Ijerri","address":"av Messaoud , Widadiyat Annasr EL HAJEB","phone":"05 35 52 71 75","location":"","city":"El Hajeb"},{"name":"Pharmacie El Hajeb","address":"1, av. Hassan II  EL HAJEB","phone":"05 35 54 12 24","location":"","city":"El Hajeb"},{"name":"Pharmacie ElMasjid","address":"11, Place Bir Anzarane  EL HAJEB","phone":"05 35 54 35 71","location":"","city":"El Hajeb"},{"name":"Pharmacie Hay Chiba","address":"52, Hay Chiba , rue n°3 EL HAJEB","phone":"05 35 54 20 08","location":"","city":"El Hajeb"},{"name":"Pharmacie Hôpital","address":"45, Hau Zitoune , Sebaa Ayoune EL HAJEB","phone":"05 35 54 64 89","location":"","city":"El Hajeb"}]