[{"name":"Pharmacie Moderne","address":"102, bd Moulay Ismail , 24000  EL JADIDA","phone":"05 23 35 19 30","location":"https://www.telecontact.ma/plan-acces/pharmacie-moderne-/2187804/el-jadida","city":"El Jadida"},{"name":"Pharmacie Mouilha","address":"173, bd Abderrahman Doukkali, lotiss. Mouilha, 24000  EL JADIDA","phone":"05 23 39 35 13","location":"https://www.telecontact.ma/plan-acces/pharmacie-mouilha-/2196895/el-jadida","city":"El Jadida"},{"name":"Pharmacie Moulay Driss","address":"rue Mustapha Manfalouti, Mosquée Al Kods n°1, 24010  EL JADIDA","phone":"05 23 35 37 41","location":"https://www.telecontact.ma/plan-acces/pharmacie-moulay-driss-/3094175/el-jadida","city":"El Jadida"},{"name":"Pharmacie Najd II","address":"lotiss. Ennajd II, Q.38, n°3, 24000  EL JADIDA","phone":"05 23 37 10 09","location":"https://www.telecontact.ma/plan-acces/pharmacie-najd-ii-/3192127/el-jadida","city":"El Jadida"},{"name":"Pharmacie Najih","address":"44 Bis, bd Kacem Al Iraqi, Essaada III, 24010  EL JADIDA","phone":"05 23 39 33 07","location":"https://www.telecontact.ma/plan-acces/pharmacie-najih-/2224749/el-jadida","city":"El Jadida"},{"name":"Pharmacie Narjiss","address":"147 Bis, rue Fkih Mohamed Tetouani, lotiss. Narjiss, 24000  EL JADIDA","phone":"05 23 39 01 22","location":"https://www.telecontact.ma/plan-acces/pharmacie-narjiss-/2225738/el-jadida","city":"El Jadida"},{"name":"Pharmacie Nassouh","address":"1, lotiss. Bichr, Khmiss Metouh, 24000  EL JADIDA","phone":"05 23 36 47 37","location":"","city":"El Jadida"},{"name":"Pharmacie Natale","address":"301, rte Sidi Bouzid ang. rue 34, résid. Naima 2 imm. B3 mag.6 EL JADIDA","phone":"05 23 35 00 79","location":"","city":"El Jadida"},{"name":"Pharmacie Nouvelle","address":"128, bd Hassan II , 24000  EL JADIDA","phone":"05 23 34 23 03","location":"","city":"El Jadida"},{"name":"Pharmacie Oasis","address":"3, bd Khalil Jabrane, resid. Diar Al Mansour GH7 Lot 59 EL JADIDA","phone":"05 23 35 34 31","location":"","city":"El Jadida"},{"name":"Pharmacie Omar Bnou ElKhattab","address":"lotiss. Asmaa II, imm. 87 n°2, 24000  EL JADIDA","phone":"05 23 39 38 83","location":"","city":"El Jadida"},{"name":"Pharmacie Oscar","address":"23, bd Mohammed VI , 24040  EL JADIDA","phone":"05 23 35 12 35","location":"","city":"El Jadida"},{"name":"Pharmacie Othmane","address":"209, hay Essalam  EL JADIDA","phone":"06 61 30 69 44","location":"","city":"El Jadida"},{"name":"Pharmacie Ouassat Eljadida","address":"bd Bandong  EL JADIDA","phone":"05 23 39 05 77","location":"","city":"El Jadida"},{"name":"Pharmacie Ouled Bou Aziz","address":"bd Mohammed V, Mly Abdellah, 24000  EL JADIDA","phone":"05 23 34 89 92","location":"","city":"El Jadida"},{"name":"Pharmacie Ouled Hamdane","address":"Centre Ouled Hamdane , 24000  EL JADIDA","phone":"05 23 38 61 61","location":"","city":"El Jadida"},{"name":"Pharmacie Ouled Hcine","address":"20, Sebt Douib, centre, 24000  EL JADIDA","phone":"05 23 38 67 27","location":"","city":"El Jadida"},{"name":"Pharmacie populaire","address":"120, bd Mohamed Zerktouni , 24910  EL JADIDA","phone":"05 23 34 26 96","location":"","city":"El Jadida"},{"name":"Pharmacie Portugaise","address":"84, rue Hachmi Bahbah, cité portugaise, 24010  EL JADIDA","phone":"05 23 34 21 02","location":"","city":"El Jadida"},{"name":"Pharmacie principale","address":"3, bd Mohammed V , 24000  EL JADIDA","phone":"05 23 37 30 32","location":"","city":"El Jadida"},{"name":"Pharmacie Belbachir","address":"route Sidi Bennour , Ouled Amrane EL JADIDA","phone":"05 23 34 63 97","location":"","city":"El Jadida"},{"name":"Pharmacie Belfadla","address":"hay Ghazoua, lot Hiba n° 34 EL JADIDA","phone":"06 75 04 07 96","location":"","city":"El Jadida"},{"name":"Pharmacie Belhaj","address":"lotiss. Al Moustakbal, rue 34 imm. 3 mag. 25 EL JADIDA","phone":"05 23 34 43 97","location":"","city":"El Jadida"},{"name":"Pharmacie Ben Badiss","address":"4, bd Abdelhamid Bnou Badis, lotiss. AlQods, 24000  EL JADIDA","phone":"05 23 37 08 32","location":"","city":"El Jadida"},{"name":"Pharmacie Biladi","address":"Douar Echeikh , ElAounate, 20400  EL JADIDA","phone":"05 23 38 02 26","location":"","city":"El Jadida"},{"name":"Pharmacie Bir Anzarane","address":"447, lotiss. Mouilha , 24010  EL JADIDA","phone":"05 23 39 06 15","location":"","city":"El Jadida"},{"name":"Pharmacie Bouaddi","address":"2, bd Abdelhamid Bnou Badis, Lotiss. Azhar II, 24000  EL JADIDA","phone":"05 23 37 23 01","location":"","city":"El Jadida"},{"name":"Pharmacie Bouchtia","address":"pl. Mohammed V, rue 401 n°5, 24000  EL JADIDA","phone":"05 23 35 50 02","location":"","city":"El Jadida"},{"name":"Pharmacie Bouhafid","address":"3, bd Mohamed Riffi , 24000  EL JADIDA","phone":"05 23 34 20 08","location":"","city":"El Jadida"},{"name":"Pharmacie Bounaim","address":"douar Sidi Bounaim, route cotière, 24000  EL JADIDA","phone":"05 23 38 86 22","location":"","city":"El Jadida"},{"name":"Pharmacie Californie","address":"7, lotiss. Al Massira, av. Al Massira EL JADIDA","phone":"05 23 34 49 36","location":"","city":"El Jadida"},{"name":"Pharmacie Carrefour Plateau","address":"4, rue Brahim Roudani , 24000  EL JADIDA","phone":"05 23 39 00 97","location":"","city":"El Jadida"},{"name":"Pharmacie centrale","address":"67, pl. El Hansali , 24000  EL JADIDA","phone":"05 23 35 37 65","location":"","city":"El Jadida"},{"name":"Pharmacie Chateau rouge","address":"76, bd Moulay Abdelhafid , 24010  EL JADIDA","phone":"05 23 34 03 87","location":"","city":"El Jadida"},{"name":"Pharmacie Cherif","address":"570, hay Essalam , 24010  EL JADIDA","phone":"05 23 37 11 50","location":"","city":"El Jadida"},{"name":"Pharmacie Chorafa","address":"19, lotiss. Siraj Eddine, Arbaa Aounat, 24000  EL JADIDA","phone":"05 23 38 00 33","location":"","city":"El Jadida"},{"name":"Pharmacie Cité Universitaire","address":"135, bd de la Université, lot Al Kawtar EL JADIDA","phone":"05 23 34 26 69","location":"","city":"El Jadida"},{"name":"Pharmacie Commerciale","address":"lotiss. Ennajd I, imm. E n°4, bd de la Gare, 24000  EL JADIDA","phone":"05 23 37 08 25","location":"","city":"El Jadida"},{"name":"Pharmacie Cotière","address":"573, lotiss. Mouilha , 24010  EL JADIDA","phone":"05 23 39 31 80","location":"","city":"El Jadida"},{"name":"Pharmacie Couyed","address":"11, lotiss. El Mouahidine, 2° Tranche, 24000  EL JADIDA","phone":"05 23 39 06 27","location":"","city":"El Jadida"},{"name":"Pharmacie Lafrique","address":"11, hay Annakhil, c. com. EL JADIDA","phone":"05 23 37 85 28","location":"https://www.telecontact.ma/plan-acces/pharmacie-lafrique-/9019039/el-jadida","city":"El Jadida"},{"name":"Pharmacie Lalla Zahra","address":"95, bd Chouhada , 24000  EL JADIDA","phone":"05 23 34 37 94","location":"https://www.telecontact.ma/plan-acces/pharmacie-lalla-zahra-/1169000/el-jadida","city":"El Jadida"},{"name":"Pharmacie le Dauphin","address":"lotiss. Al Manar, (Bencherki), zone 6 n°130, 24010  EL JADIDA","phone":"05 23 39 39 16","location":"https://www.telecontact.ma/plan-acces/pharmacie-le-dauphin-/3130060/el-jadida","city":"El Jadida"},{"name":"Pharmacie les Fleurs","address":"7, rue Zohour, Alwifaq EL JADIDA","phone":"05 23 37 07 77","location":"","city":"El Jadida"},{"name":"Pharmacie les Parents","address":"bd Abdelhamid Bnou Badis ang. rue Brahim Roudani c.com. Acima B 3, 24000  EL JADIDA","phone":"05 23 39 30 43","location":"","city":"El Jadida"},{"name":"Pharmacie Lina","address":"10, lotiss. Dyar Cheikh, bloc A EL JADIDA","phone":"05 23 39 54 93","location":"","city":"El Jadida"},{"name":"Pharmacie Lokmane","address":"12, bd Moulay Abdallah, grp Ennakhil, 24000  EL JADIDA","phone":"05 23 39 22 69","location":"","city":"El Jadida"},{"name":"Pharmacie Lotfi","address":"2, rue Tamanar ang. rue Ishak Hammou, sidi Daoui, 24010  EL JADIDA","phone":"05 23 34 46 32","location":"","city":"El Jadida"},{"name":"Pharmacie Malika","address":"lotis. Mabra Wafa  EL JADIDA","phone":"05 23 37 74 47","location":"","city":"El Jadida"},{"name":"Pharmacie Marjana","address":"bd Khalil Jabrane  EL JADIDA","phone":"05 23 37 37 78","location":"","city":"El Jadida"},{"name":"Pharmacie Mazagan","address":"2, lotiss. Al Manar , 24000  EL JADIDA","phone":"05 23 39 22 08","location":"","city":"El Jadida"},{"name":"Pharmacie Melk Cheikh","address":"lotiss. Melk Cheikh, rue 3 n° 7, 24000  EL JADIDA","phone":"05 23 39 00 80","location":"","city":"El Jadida"},{"name":"Pharmacie Cpr","address":"55, rte de l' Aéroport, Nahda, 24000  EL JADIDA","phone":"05 23 35 58 74","location":"https://www.telecontact.ma/plan-acces/pharmacie-cpr-/3017846/el-jadida","city":"El Jadida"},{"name":"Pharmacie de France","address":"13, rue France , 24000  EL JADIDA","phone":"05 23 35 22 75","location":"https://www.telecontact.ma/plan-acces/pharmacie-de-france-/2187264/el-jadida","city":"El Jadida"},{"name":"Pharmacie de l'Union","address":"160, bd Mohammed V , 24000  EL JADIDA","phone":"05 23 34 33 64","location":"","city":"El Jadida"},{"name":"Pharmacie de la Clinique","address":"rte Sidi Bouzid, lotiss. Bendagha, 24000  EL JADIDA","phone":"05 23 39 18 70","location":"https://www.telecontact.ma/plan-acces/pharmacie-de-la-clinique-/2117290/el-jadida","city":"El Jadida"},{"name":"Pharmacie de la Paix","address":"bd Mohamed Toufani , 24010  EL JADIDA","phone":"05 23 35 33 72","location":"https://www.telecontact.ma/plan-acces/pharmacie-de-la-paix-/2181621/el-jadida","city":"El Jadida"},{"name":"Pharmacie derb ElHajjar","address":"140, derb El Hajjar , 24010  EL JADIDA","phone":"05 23 34 01 35","location":"https://www.telecontact.ma/plan-acces/pharmacie-derb-elhajjar-/3040105/el-jadida","city":"El Jadida"},{"name":"Pharmacie des Doukkala","address":"25, bd Mohamed Errafii , 24000  EL JADIDA","phone":"05 23 34 22 36","location":"https://www.telecontact.ma/plan-acces/pharmacie-des-doukkala-/0300600/el-jadida","city":"El Jadida"},{"name":"Pharmacie Diamant Vert","address":"centre Sidi Bouzid , n°3, 24000  EL JADIDA","phone":"05 23 34 84 76","location":"https://www.telecontact.ma/plan-acces/pharmacie-diamant-vert-/3163900/el-jadida","city":"El Jadida"},{"name":"Pharmacie Diar El Mansour","address":"3, bd Khalil Jabrane, résid. Al Mansour GH 7, lot 59 EL JADIDA","phone":"05 40 14 80 14","location":"https://www.telecontact.ma/plan-acces/pharmacie-diar-el-mansour-/3344261/el-jadida","city":"El Jadida"},{"name":"Pharmacie Dikra","address":"5, rue Vauban , 24000  EL JADIDA","phone":"05 23 34 18 19","location":"https://www.telecontact.ma/plan-acces/pharmacie-dikra-/3195929/el-jadida","city":"El Jadida"},{"name":"Pharmacie Douar Lachheb","address":"douar Lachheb, commune Haouzia, 24000  EL JADIDA","phone":"06 60 72 83 76","location":"","city":"El Jadida"},{"name":"Pharmacie du Liban","address":"rue Moha Ou Said, Marché Koudia Bendriss n°20, 24000  EL JADIDA","phone":"05 23 35 33 45","location":"","city":"El Jadida"},{"name":"Pharmacie du Phare","address":"131, bd Attahrir , 24000  EL JADIDA","phone":"05 23 34 39 77","location":"","city":"El Jadida"},{"name":"Pharmacie Semlali","address":"138, bd Abi Chouaib Doukkali  EL JADIDA","phone":"05 23 34 37 42","location":"https://www.telecontact.ma/plan-acces/pharmacie-semlali-/3344272/el-jadida","city":"El Jadida"},{"name":"Pharmacie Shahme","address":"4, bd Khalil Jabrane, lotiss. Najd 1 résid. Nada EL JADIDA","phone":"06 73 36 03 18","location":"https://www.telecontact.ma/plan-acces/pharmacie-shahme-/3276402/el-jadida","city":"El Jadida"},{"name":"Pharmacie Sidi Bouwafi","address":"1 Bis, rue Essaouira , 24000  EL JADIDA","phone":"05 23 39 04 83","location":"https://www.telecontact.ma/plan-acces/pharmacie-sidi-bouwafi-/3197304/el-jadida","city":"El Jadida"},{"name":"Pharmacie Sidi Bouzid","address":"c. com. de Sidi Bouzid , 24000  EL JADIDA","phone":"05 23 34 82 81","location":"https://www.telecontact.ma/plan-acces/pharmacie-sidi-bouzid-/3094278/el-jadida","city":"El Jadida"},{"name":"Pharmacie Sidi Daoui","address":"14, bd Moulay Abdelhafid , 24000  EL JADIDA","phone":"05 23 35 34 48","location":"https://www.telecontact.ma/plan-acces/pharmacie-sidi-daoui-/2187276/el-jadida","city":"El Jadida"},{"name":"Pharmacie Sidi Moussa","address":"14, lotiss. Dachra, rte de la Faculté, 24020  EL JADIDA","phone":"05 23 37 36 17","location":"https://www.telecontact.ma/plan-acces/pharmacie-sidi-moussa-/2210634/el-jadida","city":"El Jadida"},{"name":"Pharmacie Tecni","address":"rte de Marrakech, km 4 Douar Tecni, 24000  EL JADIDA","phone":"05 23 37 70 50","location":"https://www.telecontact.ma/plan-acces/pharmacie-tecni-/3163478/el-jadida","city":"El Jadida"},{"name":"Pharmacie Timouyasse","address":"74, bd Bir Anzarane , 24040  EL JADIDA","phone":"05 23 35 16 88","location":"https://www.telecontact.ma/plan-acces/pharmacie-timouyasse-/3018025/el-jadida","city":"El Jadida"},{"name":"Pharmacie Tissir","address":"70, bd Bir Anzarane , 24000  EL JADIDA","phone":"05 23 35 05 70","location":"https://www.telecontact.ma/plan-acces/pharmacie-tissir-/2188201/el-jadida","city":"El Jadida"},{"name":"Pharmacie Tnine Gharbia","address":"Centre Tnine Gharbia , 24000  EL JADIDA","phone":"05 23 34 68 54","location":"","city":"El Jadida"},{"name":"Pharmacie Touilaat","address":"35, Derb Touilaat, centre, 24000  EL JADIDA","phone":"05 23 36 23 89","location":"","city":"El Jadida"},{"name":"Pharmacie Varenne","address":"9, bd Varennes , 24000  EL JADIDA","phone":"05 23 37 32 25","location":"","city":"El Jadida"},{"name":"Grande  Pharmacie Battar","address":"Khemiss Metouh, centre, n°7, 24000  EL JADIDA","phone":"05 23 36 46 52","location":"","city":"El Jadida"},{"name":"Grande  Pharmacie Sahmi","address":"douar Groutba  EL JADIDA","phone":"05 23 35 10 62","location":"","city":"El Jadida"},{"name":"Pharmacie Achifaa","address":"19, lotiss. Ennajd I, résid. Addam EL JADIDA","phone":"05 23 37 28 58","location":"","city":"El Jadida"},{"name":"Pharmacie Achour","address":"bd Abdelhamid Bnou Badis  EL JADIDA","phone":"05 23 36 16 65","location":"","city":"El Jadida"},{"name":"Pharmacie Achraf Al Idrissi","address":"bd Khalil Jabrane, Diar Al Mansour imm. 8 GH 52, n°6 EL JADIDA","phone":"05 23 37 49 20","location":"","city":"El Jadida"},{"name":"Pharmacie Adam","address":"259, Hay Riad , Had Ouled Fraj, 24000  EL JADIDA","phone":"05 23 36 43 95","location":"","city":"El Jadida"},{"name":"Pharmacie Afailal","address":"10, rue El Yassmine, lotiss. Al Mostaqbal, 24010  EL JADIDA","phone":"05 23 39 13 27","location":"","city":"El Jadida"},{"name":"Pharmacie Afw-Allah","address":"bd Al Alaouyine, lotiss. Asmae 2, imm. Abir II lot. 24, 24000  EL JADIDA","phone":"05 23 39 20 50","location":"","city":"El Jadida"},{"name":"Pharmacie Hajji","address":"100, rue Lahjel, lotiss. ElManar, 24000  EL JADIDA","phone":"05 23 39 07 65","location":"https://www.telecontact.ma/plan-acces/pharmacie-hajji-/3040174/el-jadida","city":"El Jadida"},{"name":"Pharmacie Hakima","address":"31, lotiss. Hakima, Sidi Moussa, 20040  EL JADIDA","phone":"05 23 35 56 53","location":"https://www.telecontact.ma/plan-acces/pharmacie-hakima-/3094124/el-jadida","city":"El Jadida"},{"name":"Pharmacie Hay Al Matar","address":"Diyar Al Mansour , n°3 imm.8 Lot. Zahrat Jadida EL JADIDA","phone":"05 23 35 12 66","location":"","city":"El Jadida"},{"name":"Pharmacie Hay Essalam","address":"hay Essalam, résid. Oum Errabii I20 M19, 24000  EL JADIDA","phone":"05 23 35 29 29","location":"","city":"El Jadida"},{"name":"Pharmacie Hefti","address":"80, bd Mohammed V , 24000  EL JADIDA","phone":"05 23 35 28 26","location":"","city":"El Jadida"},{"name":"Pharmacie Ibn Rochd","address":"35, rue Ain Safa, lotiss. Nassim, 24010  EL JADIDA","phone":"05 23 34 06 39","location":"","city":"El Jadida"},{"name":"Pharmacie Ibn Tofail","address":"Centre Beni Hlal , 24000  EL JADIDA","phone":"05 23 35 67 21","location":"","city":"El Jadida"},{"name":"Pharmacie Ibn Toumert","address":"5, bd Mehdi Ben Toumert , 24000  EL JADIDA","phone":"05 23 34 27 50","location":"","city":"El Jadida"},{"name":"Pharmacie Ibnou AlKhatib","address":"cité Pam, 1° Tranche n°266 Arbaa Aounate, 24000  EL JADIDA","phone":"05 23 38 01 14","location":"","city":"El Jadida"},{"name":"Pharmacie Ibnou Sina","address":"76, rue Ibn Sina , 24010  EL JADIDA","phone":"05 23 34 44 92","location":"","city":"El Jadida"},{"name":"Pharmacie Ibrahim AlKhalil","address":"4, bd Khalil Jabrane, résid. Reda, rte Sidi Bouzid, 24000  EL JADIDA","phone":"05 23 39 54 64","location":"","city":"El Jadida"},{"name":"Pharmacie Imad","address":"bd Mohammed V, Mly Abdellah, 24000  EL JADIDA","phone":"05 23 34 83 03","location":"","city":"El Jadida"},{"name":"Pharmacie Iness","address":"centre Sidi Bouzid , n°421, 24000  EL JADIDA","phone":"05 23 34 80 30","location":"","city":"El Jadida"},{"name":"Pharmacie Islam","address":"lotiss. Essalam, n° 25 EL JADIDA","phone":"05 23 34 22 45","location":"","city":"El Jadida"},{"name":"Pharmacie Istichfae","address":"1, rue Sibaouih, lotiss. Saâda III, 24020  EL JADIDA","phone":"05 23 39 47 87","location":"","city":"El Jadida"},{"name":"Pharmacie Izdihare","address":"hay Ennajd , n°1, Riad Essalam, Res. Izdihare EL JADIDA","phone":"05 23 39 22 79","location":"","city":"El Jadida"},{"name":"Pharmacie Jahidi","address":"292, bd Bir Anzarane, Nahj Rif El Qods, 24040  EL JADIDA","phone":"05 23 35 26 70","location":"","city":"El Jadida"},{"name":"Pharmacie Jaouhara","address":"350, bd Bir Anzarane, rte. Marrakech, 24000  EL JADIDA","phone":"05 23 37 01 96","location":"","city":"El Jadida"},{"name":"Pharmacie Jebli","address":"hay Essalam extension, n°208 EL JADIDA","phone":"05 23 35 00 22","location":"","city":"El Jadida"},{"name":"Pharmacie Karim","address":"18, rue Ahmed Tounsi , 24030  EL JADIDA","phone":"05 23 37 38 67","location":"","city":"El Jadida"},{"name":"Pharmacie Redouane","address":"Centre Beni Hlal , 24000  EL JADIDA","phone":"05 23 35 67 45","location":"","city":"El Jadida"},{"name":"Pharmacie Route de Marrakech","address":"59, lotiss. Mahrech, rte de Marrakech, 24000  EL JADIDA","phone":"05 23 34 01 70","location":"","city":"El Jadida"},{"name":"Pharmacie Saadallah","address":"bd Wahda 196 B , lot Vidal Bir Jdid, 24000  EL JADIDA","phone":"05 23 36 01 65","location":"","city":"El Jadida"},{"name":"Pharmacie Saiss","address":"71, Centre Sebt Saiss , 24000  EL JADIDA","phone":"05 23 38 60 03","location":"","city":"El Jadida"},{"name":"Pharmacie Sakr","address":"lotiss. Saâda 3, résid. Ennour, imm. C 1, 24000  EL JADIDA","phone":"05 23 39 07 23","location":"","city":"El Jadida"},{"name":"Pharmacie Salaheddine","address":"hay Nidal, Bir Jdid, 24020  EL JADIDA","phone":"05 23 36 08 37","location":"","city":"El Jadida"},{"name":"Pharmacie Salik","address":"1, lotiss. Hanani et Faiz, ElAounat, 24040  EL JADIDA","phone":"05 23 38 00 71","location":"","city":"El Jadida"},{"name":"Pharmacie Salima","address":"229, Sidi Bouzid , 2° Tranche, 24000  EL JADIDA","phone":"05 23 34 81 02","location":"","city":"El Jadida"},{"name":"Pharmacie Sanaa","address":"lotiss. Saâda 3, résid. Nour Al Mohit A3 local L3, 24000  EL JADIDA","phone":"05 23 39 35 34","location":"","city":"El Jadida"},{"name":"Pharmacie Saouab","address":"1, lot Ghanem , Arbaa Aounat, 24000  EL JADIDA","phone":"05 23 38 02 54","location":"","city":"El Jadida"},{"name":"Pharmacie Sebt Douib","address":"Ouled Hcine, centre, 24000  EL JADIDA","phone":"05 23 34 64 17","location":"","city":"El Jadida"},{"name":"Pharmacie la Côte","address":"Centre Sidi Abed, centre, 24000  EL JADIDA","phone":"05 23 34 51 48","location":"","city":"El Jadida"},{"name":"Pharmacie la Faculté","address":"101, bd Khalil Jabrane, lotiss. Jawhara, 24000  EL JADIDA","phone":"05 23 35 08 82","location":"","city":"El Jadida"},{"name":"Pharmacie La Famille","address":"53, lotiss. Sidi Moussa , 24000  EL JADIDA","phone":"05 23 35 20 93","location":"","city":"El Jadida"},{"name":"Pharmacie la Mosquée de Sidi Moussa","address":"64 Bis, lotiss. Batha, sidi Moussa, 24000  EL JADIDA","phone":"05 23 34 02 21","location":"","city":"El Jadida"},{"name":"Pharmacie La Pleiade","address":"lotiss. Firdaouss, lot. n°1, hay Al Matar EL JADIDA","phone":"05 23 35 53 64","location":"","city":"El Jadida"},{"name":"Pharmacie la Polyclinique","address":"cité Bir Anzarane, bloc 28 n° 274, 24000  EL JADIDA","phone":"05 23 39 40 31","location":"","city":"El Jadida"},{"name":"Pharmacie la Province","address":"2, rue Sebta , 24000  EL JADIDA","phone":"05 23 34 03 84","location":"","city":"El Jadida"},{"name":"Pharmacie la santé","address":"rte Sidi Bouzid, résid. Najmat AlJanoub III D1 n°5, 24030  EL JADIDA","phone":"05 23 39 24 87","location":"","city":"El Jadida"},{"name":"Pharmacie la source","address":"20 Bis, rue Jabal Habri , 24000  EL JADIDA","phone":"05 23 39 33 33","location":"","city":"El Jadida"},{"name":"Pharmacie la Victoire","address":"1, lotiss. Annasr, mouilha, 24010  EL JADIDA","phone":"05 23 39 01 96","location":"","city":"El Jadida"}]