[{"name":"Pharmacie La Cité Universitaire","address":"535, lot Mly Ali Chérif  ERRACHIDIA","phone":"05 35 57 20 57","location":"","city":"Errachidia"},{"name":"Pharmacie La Nouvelle","address":"ouled Elhaj , rue 37 n°28 ERRACHIDIA","phone":"05 35 57 20 75","location":"https://www.telecontact.ma/plan-acces/pharmacie-la-nouvelle-/3273571/errachidia","city":"Errachidia"},{"name":"Pharmacie la Santé","address":"Ain Al Ati 1 , bloc 18 n°1282 ERRACHIDIA","phone":"05 35 79 02 14","location":"","city":"Errachidia"},{"name":"Pharmacie Lahdeb","address":"Cité Al Massira , rue 1 n°68 ERRACHIDIA","phone":"05 35 57 04 79","location":"https://www.telecontact.ma/plan-acces/pharmacie-lahdeb-/3273977/errachidia","city":"Errachidia"},{"name":"Pharmacie Masjid Targa Jdida","address":"36, Targa Jdida , rue 16 ERRACHIDIA","phone":"05 35 79 13 37","location":"https://www.telecontact.ma/plan-acces/pharmacie-masjid-targa-jdida-/3314584/errachidia","city":"Errachidia"},{"name":"Pharmacie Messaoudia","address":"lot Boutalamine , bloc 17 n°67 ERRACHIDIA","phone":"05 35 57 47 82","location":"https://www.telecontact.ma/plan-acces/pharmacie-messaoudia-/3335769/errachidia","city":"Errachidia"},{"name":"Pharmacie Mly Ali Cherif","address":"av Al Massira  ERRACHIDIA","phone":"05 35 57 08 52","location":"https://www.telecontact.ma/plan-acces/pharmacie-mly-ali-cherif-/3197245/errachidia","city":"Errachidia"},{"name":"Pharmacie Mohamed Yasser","address":"22, lotiss. Al Oukhouwa  ERRACHIDIA","phone":"05 35 57 32 26","location":"https://www.telecontact.ma/plan-acces/pharmacie-mohamed-yasser-/3306944/errachidia","city":"Errachidia"},{"name":"Pharmacie Oued Eddahab","address":"lotiss. Oued Eddahab, n°194 ERRACHIDIA","phone":"05 35 79 01 28","location":"","city":"Errachidia"},{"name":"Pharmacie Ouled Lhaj","address":"72, oueld Lhaj , rue 34 ERRACHIDIA","phone":"05 35 57 19 50","location":"","city":"Errachidia"},{"name":"Pharmacie Populaire","address":"lot Mly Ali Chérif  ERRACHIDIA","phone":"05 35 79 06 85","location":"","city":"Errachidia"},{"name":"Pharmacie Rissani","address":"quartier Lamdarssa , Rissani ERRACHIDIA","phone":"05 35 57 52 02","location":"","city":"Errachidia"},{"name":"Pharmacie Saghrou","address":"12, Route principale , Alnif ERRACHIDIA","phone":"05 35 88 42 55","location":"","city":"Errachidia"},{"name":"Pharmacie Targa","address":"Targa Jdida , rue 50 n°5 ERRACHIDIA","phone":"05 35 57 14 16","location":"","city":"Errachidia"},{"name":"Pharmacie Al Aati","address":"70, lot Ain Al Aati 2  ERRACHIDIA","phone":"05 35 79 19 18","location":"","city":"Errachidia"},{"name":"Pharmacie Al Amal","address":"hay Touchka , rue 1 n°3 ERRACHIDIA","phone":"05 35 57 05 68","location":"","city":"Errachidia"},{"name":"Pharmacie Al Fath","address":"91, bd Moulay Ali Cherif  ERRACHIDIA","phone":"05 35 57 20 38","location":"","city":"Errachidia"},{"name":"Pharmacie Al Inara","address":"lotiss. Almostakbal , n°194 ERRACHIDIA","phone":"05 35 57 00 09","location":"","city":"Errachidia"},{"name":"Pharmacie Al Massira","address":"Cité ElMassira , rue 1 n°44 ERRACHIDIA","phone":"05 35 57 13 71","location":"","city":"Errachidia"},{"name":"Pharmacie Al Oum Aicha","address":"Cité Al Massira , rue 21 n°13 ERRACHIDIA","phone":"05 35 79 15 52","location":"","city":"Errachidia"},{"name":"Pharmacie Al Waha","address":"810, lot Boutalamine  ERRACHIDIA","phone":"05 35 79 19 14","location":"","city":"Errachidia"},{"name":"Pharmacie AlMoustakbal","address":"1 Bis, lot Municipalité  ERRACHIDIA","phone":"05 35 57 01 95","location":"","city":"Errachidia"},{"name":"Pharmacie Azemmour","address":"Azemmour El Jadid , rue 2 n°16 ERRACHIDIA","phone":"05 35 57 32 69","location":"","city":"Errachidia"},{"name":"Pharmacie Boutalamine","address":"20, bd Dakhla , Boutalamine ERRACHIDIA","phone":"05 35 57 13 68","location":"","city":"Errachidia"},{"name":"Pharmacie Chifae","address":"27, rue Knadssa  ERRACHIDIA","phone":"05 35 57 14 43","location":"","city":"Errachidia"},{"name":"Pharmacie des valées","address":"Place de la mosquée , 52000  ERRACHIDIA","phone":"05 35 57 24 64","location":"","city":"Errachidia"},{"name":"Pharmacie Eddakhla","address":"10, av Dakhla  ERRACHIDIA","phone":"05 35 79 07 19","location":"","city":"Errachidia"},{"name":"Pharmacie El Mamoun","address":"hay Oued Eddahab, lot n° 194 ERRACHIDIA","phone":"05 35 79 01 22","location":"","city":"Errachidia"},{"name":"Pharmacie ElMasjid","address":"76, rue Moulay Abdellah Ben Ali  ERRACHIDIA","phone":"05 35 57 13 79","location":"","city":"Errachidia"},{"name":"Pharmacie Ennakhil","address":"95, bd Al Alaouiyine , Al Mouhit ERRACHIDIA","phone":"05 35 57 18 98","location":"","city":"Errachidia"},{"name":"Pharmacie Ennour","address":"468, lotiss. Ain El Atti  ERRACHIDIA","phone":"05 35 79 13 33","location":"","city":"Errachidia"},{"name":"Pharmacie Errachidia","address":"5, av Zerktouni , 52000  ERRACHIDIA","phone":"05 35 57 23 39","location":"","city":"Errachidia"},{"name":"Pharmacie Errazi","address":"54, av My Abdellah , boutalamine ERRACHIDIA","phone":"05 35 79 01 84","location":"","city":"Errachidia"},{"name":"Pharmacie Fdail","address":"Tenejdad , rue n°7 n°6 ERRACHIDIA","phone":"05 35 78 35 67","location":"","city":"Errachidia"},{"name":"Pharmacie Gourama","address":"Place Mohamed Gourama  ERRACHIDIA","phone":"05 35 88 82 14","location":"","city":"Errachidia"},{"name":"Pharmacie Hôpital","address":"2, rue Ait Khlifa , l'Habitat ERRACHIDIA","phone":"05 35 57 45 97","location":"","city":"Errachidia"}]