[{"name":"Pharmacie Hamad","address":"5, Place Chefchaouni , 44000  ESSAOUIRA","phone":"05 24 47 51 63","location":"https://www.telecontact.ma/plan-acces/pharmacie-hamad-/0301500/essaouira","city":"Essaouira"},{"name":"Pharmacie Hôpital","address":"135 Bis, bd Mohamed ElKery  ESSAOUIRA","phone":"05 24 47 53 07","location":"","city":"Essaouira"},{"name":"Pharmacie Ibn Sina","address":"54, av. Akaba , q.i. ESSAOUIRA","phone":"05 24 47 59 80","location":"https://www.telecontact.ma/plan-acces/pharmacie-ibn-sina-/3157721/essaouira","city":"Essaouira"},{"name":"Pharmacie la Gare","address":"av. Mly Driss 1  ESSAOUIRA","phone":"05 24 47 27 50","location":"https://www.telecontact.ma/plan-acces/pharmacie-la-gare-/3123451/essaouira","city":"Essaouira"},{"name":"Pharmacie la Kasbah","address":"14, rue Allal Ben Abdellah  ESSAOUIRA","phone":"05 24 47 51 51","location":"https://www.telecontact.ma/plan-acces/pharmacie-la-kasbah-/3066668/essaouira","city":"Essaouira"},{"name":"Pharmacie la Mosquée","address":"243, av Ibnou Toufail , n°1 ESSAOUIRA","phone":"05 24 78 46 83","location":"","city":"Essaouira"},{"name":"Pharmacie la Plage","address":"1, av Lalla Amina , imm. Bounar ESSAOUIRA","phone":"05 24 78 58 48","location":"https://www.telecontact.ma/plan-acces/pharmacie-la-plage-/3162226/essaouira","city":"Essaouira"},{"name":"Pharmacie La Sakala","address":"28, bd ElAqaba , lot. Regraga ESSAOUIRA","phone":"05 24 78 36 84","location":"https://www.telecontact.ma/plan-acces/pharmacie-la-sakala-/3065677/essaouira","city":"Essaouira"},{"name":"Pharmacie Lalla Amina","address":"7, complexe commercial Lalla Amina  ESSAOUIRA","phone":"05 24 47 34 43","location":"https://www.telecontact.ma/plan-acces/pharmacie-lalla-amina-/3065657/essaouira","city":"Essaouira"},{"name":"Pharmacie Mallah Kdim","address":"122, rue Mohamed Ben Abdellah  ESSAOUIRA","phone":"05 24 47 60 22","location":"https://www.telecontact.ma/plan-acces/pharmacie-mallah-kdim-/3065707/essaouira","city":"Essaouira"},{"name":"Pharmacie Mogador","address":"42, av. 2 Mars  ESSAOUIRA","phone":"05 24 47 25 35","location":"https://www.telecontact.ma/plan-acces/pharmacie-mogador-/3271662/essaouira","city":"Essaouira"},{"name":"Pharmacie Najib","address":"5, bd ElAkaba , Dar Taleb ESSAOUIRA","phone":"05 24 47 42 26","location":"https://www.telecontact.ma/plan-acces/pharmacie-najib-/3066666/essaouira","city":"Essaouira"},{"name":"Pharmacie Populaire","address":"av. El Aqaba  ESSAOUIRA","phone":"05 24 47 44 74","location":"https://www.telecontact.ma/plan-acces/pharmacie-populaire-/3162203/essaouira","city":"Essaouira"},{"name":"Pharmacie Principale","address":"1, rue Boutouile  ESSAOUIRA","phone":"05 24 47 47 94","location":"https://www.telecontact.ma/plan-acces/pharmacie-principale-/3157470/essaouira","city":"Essaouira"},{"name":"Pharmacie Sidi Magdoul","address":"lotiss. La Lagune , lot 5 n°1, 44100  ESSAOUIRA","phone":"05 24 47 29 35","location":"https://www.telecontact.ma/plan-acces/pharmacie-sidi-magdoul-/3108219/essaouira","city":"Essaouira"},{"name":"Pharmacie Smimou","address":"av Al Massira , Smimou ESSAOUIRA","phone":"05 24 78 44 21","location":"https://www.telecontact.ma/plan-acces/pharmacie-smimou-/3279550/essaouira","city":"Essaouira"},{"name":"Pharmacie  Hizam Al Akhdar","address":"2, Av Attaif , lot Azlef, 40000  ESSAOUIRA","phone":"08 08 53 04 94","location":"https://www.telecontact.ma/plan-acces/pharmacie-hizam-al-akhdar-/9014763/essaouira","city":"Essaouira"},{"name":"Pharmacie Al Haddadah","address":"63, bd AlIstiqlal  ESSAOUIRA","phone":"05 24 47 37 14","location":"https://www.telecontact.ma/plan-acces/pharmacie-al-haddadah-/3065680/essaouira","city":"Essaouira"},{"name":"Pharmacie AlYamama","address":"341, lotiss. Tafoukte I  ESSAOUIRA","phone":"05 24 47 22 22","location":"","city":"Essaouira"},{"name":"Pharmacie Azlef","address":"626, lot. Azlef  ESSAOUIRA","phone":"05 24 47 42 32","location":"","city":"Essaouira"}]