[{"name":"Pharmacie Centrale","address":"391, av AlMouahidine Candessa  FNIDEQ","phone":"05 39 67 76 76","location":"https://www.telecontact.ma/plan-acces/pharmacie-centrale-/3148205/fnideq","city":"Fnideq"},{"name":"Pharmacie Fnideq","address":"2, Imam Azafi , 93100  FNIDEQ","phone":"05 39 97 60 60","location":"https://www.telecontact.ma/plan-acces/pharmacie-fnideq-/1781500/fnideq","city":"Fnideq"},{"name":"Pharmacie Galenus","address":"31, av. Ibn Rochd  FNIDEQ","phone":"05 39 67 58 33","location":"https://www.telecontact.ma/plan-acces/pharmacie-galenus-/3046240/fnideq","city":"Fnideq"},{"name":"Pharmacie Granada","address":"402, Av Mohamed V (Patio) FNIDEQ","phone":"05 39 97 60 21","location":"https://www.telecontact.ma/plan-acces/pharmacie-granada-/3047136/fnideq","city":"Fnideq"},{"name":"Pharmacie Kondessa","address":"hay Condessa  FNIDEQ","phone":"05 39 67 59 59","location":"https://www.telecontact.ma/plan-acces/pharmacie-kondessa-/3105699/fnideq","city":"Fnideq"},{"name":"Pharmacie Marja","address":"37, quartier El Marja  FNIDEQ","phone":"05 39 67 76 67","location":"https://www.telecontact.ma/plan-acces/pharmacie-marja-/3197310/fnideq","city":"Fnideq"},{"name":"Pharmacie Mly Rachid","address":"27, lotiss. Mly Rachid  FNIDEQ","phone":"05 39 67 70 15","location":"https://www.telecontact.ma/plan-acces/pharmacie-mly-rachid-/3047134/fnideq","city":"Fnideq"},{"name":"Pharmacie Sidi Boughaba","address":"33, rue de Rabat , Sabila FNIDEQ","phone":"05 39 67 78 66","location":"","city":"Fnideq"},{"name":"Pharmacie Zohour","address":"103, av. Hassan II  FNIDEQ","phone":"05 39 67 54 07","location":"","city":"Fnideq"},{"name":"Pharmacie AlAndalus","address":"13, bd Abdelkarim Bouabid  FNIDEQ","phone":"05 39 97 65 07","location":"","city":"Fnideq"},{"name":"Pharmacie Bab Sebta","address":"50, av. Mohammed V  FNIDEQ","phone":"05 39 67 72 28","location":"","city":"Fnideq"},{"name":"Pharmacie Belmahi","address":"161, bd Martil , hay Condessa FNIDEQ","phone":"05 39 97 66 06","location":"","city":"Fnideq"},{"name":"Pharmacie Bismillah","address":"184, av. Ibn Rochd , hay Chabar FNIDEQ","phone":"05 39 67 78 77","location":"","city":"Fnideq"}]