[{"name":"Pharmacie Assalam","address":"189, bd Hassan I , Nwader GUELMIM","phone":"05 28 77 21 55","location":"https://www.telecontact.ma/plan-acces/pharmacie-assalam-/3126749/guelmim","city":"Guelmim"},{"name":"Pharmacie Bab Sahra","address":"22, av des Far  GUELMIM","phone":"05 28 87 24 26","location":"https://www.telecontact.ma/plan-acces/pharmacie-bab-sahra-/3197459/guelmim","city":"Guelmim"},{"name":"Pharmacie Badr","address":"q. Saadyine  GUELMIM","phone":"05 28 87 20 20","location":"https://www.telecontact.ma/plan-acces/pharmacie-badr-/3344718/guelmim","city":"Guelmim"},{"name":"Pharmacie Beddine","address":"av Tan Tan  GUELMIM","phone":"05 28 77 17 60","location":"https://www.telecontact.ma/plan-acces/pharmacie-beddine-/3197457/guelmim","city":"Guelmim"},{"name":"Pharmacie Ben Tahr","address":"56, av Allal Ben Abdellah , hay Al Massira II GUELMIM","phone":"05 28 77 13 14","location":"https://www.telecontact.ma/plan-acces/pharmacie-ben-tahr-/3276063/guelmim","city":"Guelmim"},{"name":"Pharmacie centrale","address":"37, Boulevard Mohammed V , 81000  GUELMIM","phone":"05 28 87 21 48","location":"https://www.telecontact.ma/plan-acces/pharmacie-centrale-/0305400/guelmim","city":"Guelmim"},{"name":"Pharmacie Charia Al Wad","address":"bd Moulay Hicham, Al Wad GUELMIM","phone":"05 28 77 28 53","location":"https://www.telecontact.ma/plan-acces/pharmacie-charia-al-wad-/3272758/guelmim","city":"Guelmim"},{"name":"Pharmacie Chifaa","address":"382, av Hassan II  GUELMIM","phone":"05 28 77 05 45","location":"https://www.telecontact.ma/plan-acces/pharmacie-chifaa-/3197452/guelmim","city":"Guelmim"},{"name":"Pharmacie Corniche","address":"bd Ibn Batouta  GUELMIM","phone":"05 28 77 47 00","location":"https://www.telecontact.ma/plan-acces/pharmacie-corniche-/3343922/guelmim","city":"Guelmim"},{"name":"Pharmacie Dakhla","address":"av. Ibn Toumert (jdid) , hay Miri GUELMIM","phone":"05 28 87 12 88","location":"","city":"Guelmim"},{"name":"Pharmacie de la Santé","address":"130, bd. Agadir  GUELMIM","phone":"05 28 77 18 91","location":"","city":"Guelmim"},{"name":"Pharmacie du Palais","address":"179, av. ElMassira place 20 Août  GUELMIM","phone":"05 28 77 10 30","location":"","city":"Guelmim"},{"name":"Pharmacie du Peuple","address":"138, av ElKourchi  GUELMIM","phone":"05 28 77 28 16","location":"","city":"Guelmim"},{"name":"Pharmacie du Souk","address":"place Hassan II , n°90 GUELMIM","phone":"05 28 87 20 13","location":"","city":"Guelmim"},{"name":"Pharmacie du Sud","address":"av Med VI , route d'Agadir GUELMIM","phone":"05 28 87 34 74","location":"","city":"Guelmim"},{"name":"Pharmacie Gharnata","address":"10, hay nouader , Zrouila GUELMIM","phone":"08 08 52 12 55","location":"","city":"Guelmim"},{"name":"Pharmacie Guelmim","address":"212, place Bir Anzarane  GUELMIM","phone":"05 28 87 30 55","location":"","city":"Guelmim"},{"name":"Pharmacie Hay Miri","address":"av Ibnou Toumert  GUELMIM","phone":"05 28 87 18 88","location":"","city":"Guelmim"},{"name":"Pharmacie Ibn Sina","address":"av Ibn Sina , q. Tayert GUELMIM","phone":"05 28 87 07 71","location":"","city":"Guelmim"},{"name":"Pharmacie Ichraq","address":"hay Essaadiyine , rue 20 n°20 GUELMIM","phone":"05 28 77 05 43","location":"","city":"Guelmim"},{"name":"Pharmacie Ifrane","address":"Ifrane Anti Atlass  GUELMIM","phone":"05 28 78 89 50","location":"","city":"Guelmim"},{"name":"Pharmacie Jamal","address":"257, av. Al Moukaouama  GUELMIM","phone":"05 28 87 11 00","location":"","city":"Guelmim"},{"name":"Pharmacie Kenza","address":"av. 3 Mars , Rte de Tan Tan GUELMIM","phone":"05 28 87 36 55","location":"","city":"Guelmim"},{"name":"Pharmacie l'Hopital","address":"181, av. Aabouda  GUELMIM","phone":"05 28 87 22 78","location":"","city":"Guelmim"},{"name":"Pharmacie Lmahatta","address":"136, av. Ibn Battouta  GUELMIM","phone":"05 28 87 23 94","location":"","city":"Guelmim"},{"name":"Pharmacie Lotfi","address":"56, bd. Mehdi Ben Toumert  GUELMIM","phone":"05 28 87 22 16","location":"","city":"Guelmim"},{"name":"Pharmacie Moderne","address":"bd Ibn Toumert n°314/316 , 81000  GUELMIM","phone":"05 28 77 24 60","location":"","city":"Guelmim"},{"name":"Pharmacie Mouqaouama","address":"30, av. Mouqaouama  GUELMIM","phone":"05 28 77 03 54","location":"","city":"Guelmim"},{"name":"Pharmacie Nouvelle","address":"162, av. Mehdi Ben Toumert  GUELMIM","phone":"05 28 77 04 88","location":"","city":"Guelmim"},{"name":"Pharmacie Oued Noun","address":"av. Hassan II , n°40 GUELMIM","phone":"05 28 87 38 48","location":"","city":"Guelmim"},{"name":"Pharmacie Oumaima","address":"av. Ibn Rochd  GUELMIM","phone":"05 28 77 28 38","location":"","city":"Guelmim"},{"name":"Pharmacie Plage Blanche","address":"av Hassan II , rte d'Ifni hay Rahma GUELMIM","phone":"05 28 87 13 77","location":"","city":"Guelmim"},{"name":"Pharmacie Principale","address":"108, av. des F.a.r  GUELMIM","phone":"05 28 87 31 84","location":"","city":"Guelmim"},{"name":"Pharmacie Route d'Ifni","address":"415, Av. Hassan II , GUELMIM","phone":"05 28 87 11 10","location":"","city":"Guelmim"},{"name":"Pharmacie Sabor","address":"157, av. Abainou  GUELMIM","phone":"05 28 77 18 88","location":"","city":"Guelmim"},{"name":"Pharmacie Soumaya","address":"av. El Khourchi , bloc B, Q.Rjafillah GUELMIM","phone":"05 28 77 42 56","location":"https://www.telecontact.ma/plan-acces/pharmacie-soumaya-/3312872/guelmim","city":"Guelmim"},{"name":"Pharmacie Tafilalet","address":"44, av. Youssef Ibn Tachfine , 81000  GUELMIM","phone":"05 28 77 18 32","location":"https://www.telecontact.ma/plan-acces/pharmacie-tafilalet-/3085010/guelmim","city":"Guelmim"},{"name":"Pharmacie Tayert","address":"av Ibnou Sina , hay Tayert GUELMIM","phone":"05 28 87 37 95","location":"https://www.telecontact.ma/plan-acces/pharmacie-tayert-/3276061/guelmim","city":"Guelmim"},{"name":"La Grande  Pharmacie de Guelmim","address":"Avenue Al Massira angle av. Youssef Ben Tachefine, 81000  GUELMIM","phone":"05 28 87 20 15","location":"https://www.telecontact.ma/plan-acces/la-grande-pharmacie-de-guelmim-/0305500/guelmim","city":"Guelmim"},{"name":"Pharmacie Al Azhar","address":"59, av Tayert , hay Adarissa II GUELMIM","phone":"05 28 87 18 19","location":"https://www.telecontact.ma/plan-acces/pharmacie-al-azhar-/3276062/guelmim","city":"Guelmim"},{"name":"Pharmacie Al Fath","address":"29, lotiss. Al Fath  GUELMIM","phone":"05 28 77 01 70","location":"https://www.telecontact.ma/plan-acces/pharmacie-al-fath-/3276056/guelmim","city":"Guelmim"},{"name":"Pharmacie Al Mokhtar Soussi","address":"bd Mokhtar Soussi  GUELMIM","phone":"05 28 77 33 19","location":"https://www.telecontact.ma/plan-acces/pharmacie-al-mokhtar-soussi-/3344720/guelmim","city":"Guelmim"},{"name":"Pharmacie Al Mssalla","address":"61, av. Ibn Sina , q. Tayert GUELMIM","phone":"05 28 77 34 70","location":"https://www.telecontact.ma/plan-acces/pharmacie-al-mssalla-/3288956/guelmim","city":"Guelmim"}]