[{"name":"Pharmacie Alouafae","address":"Sidi Addi  IFRANE","phone":"05 35 56 38 50","location":"https://www.telecontact.ma/plan-acces/pharmacie-alouafae-/3197532/ifrane","city":"Ifrane"},{"name":"Pharmacie Belyazid","address":"hay Essalam, bloc Gb n°20 IFRANE","phone":"05 35 56 64 15","location":"https://www.telecontact.ma/plan-acces/pharmacie-belyazid-/3227110/ifrane","city":"Ifrane"},{"name":"Pharmacie du Bouling","address":"bd la Marche Verte , résid. Ifrane Bowling Center hay Ryad IFRANE","phone":"05 35 56 77 84","location":"https://www.telecontact.ma/plan-acces/pharmacie-du-bouling-/3227059/ifrane","city":"Ifrane"},{"name":"Pharmacie du Dispensaire","address":"369, hay Essalam  IFRANE","phone":"05 35 56 60 60","location":"https://www.telecontact.ma/plan-acces/pharmacie-du-dispensaire-/3227114/ifrane","city":"Ifrane"},{"name":"Pharmacie Essalam","address":"186, hay Essalam  IFRANE","phone":"05 35 56 66 77","location":"https://www.telecontact.ma/plan-acces/pharmacie-essalam-/3227134/ifrane","city":"Ifrane"},{"name":"Pharmacie Iris","address":"Marché Municipale  IFRANE","phone":"05 35 56 75 76","location":"https://www.telecontact.ma/plan-acces/pharmacie-iris-/3197531/ifrane","city":"Ifrane"},{"name":"Pharmacie Michlifen","address":"7, rue des Erables , 53000  IFRANE","phone":"05 35 56 64 96","location":"https://www.telecontact.ma/plan-acces/pharmacie-michlifen-/1478400/ifrane","city":"Ifrane"},{"name":"Pharmacie Oued Ifrane","address":"Centre Oued Ifrane  IFRANE","phone":"05 35 56 05 01","location":"https://www.telecontact.ma/plan-acces/pharmacie-oued-ifrane-/3197530/ifrane","city":"Ifrane"},{"name":"Pharmacie Timahdite","address":"Centre Timahdite  IFRANE","phone":"05 35 56 04 60","location":"https://www.telecontact.ma/plan-acces/pharmacie-timahdite-/3197529/ifrane","city":"Ifrane"},{"name":"Pharmacie AlFadila","address":"146, hay AlAtlas  IFRANE","phone":"05 35 56 75 46","location":"https://www.telecontact.ma/plan-acces/pharmacie-alfadila-/3197533/ifrane","city":"Ifrane"}]