[{"name":"Pharmacie ElHilal","address":"av AlAmaouine , rue 558 n°8 Tarrast INEZGANE","phone":"05 28 33 58 82","location":"https://www.telecontact.ma/plan-acces/pharmacie-elhilal-/3197566/inezgane","city":"Inezgane"},{"name":"Pharmacie ElJihadia","address":"96, lot. ElJihadia , résid. Alamane, Dcheira INEZGANE","phone":"05 28 33 12 90","location":"https://www.telecontact.ma/plan-acces/pharmacie-eljihadia-/3044040/inezgane","city":"Inezgane"},{"name":"Pharmacie ElWalidaine","address":"2 Bis, Timegrad Jorf , rue 433 INEZGANE","phone":"05 28 33 03 07","location":"https://www.telecontact.ma/plan-acces/pharmacie-elwalidaine-/3064921/inezgane","city":"Inezgane"},{"name":"Pharmacie Essaâda","address":"109, bd Hassan I , 80350  INEZGANE","phone":"05 28 83 28 15","location":"","city":"Inezgane"},{"name":"Pharmacie Ezzahra","address":"34 Bis, bd Al Mourabitine , cité des Fonctionnaires INEZGANE","phone":"05 28 33 75 07","location":"https://www.telecontact.ma/plan-acces/pharmacie-ezzahra-/3268057/inezgane","city":"Inezgane"},{"name":"Pharmacie Hader","address":"lot. Rmel 2 , n° E13, Tarrast INEZGANE","phone":"05 28 83 76 50","location":"https://www.telecontact.ma/plan-acces/pharmacie-hader-/3161618/inezgane","city":"Inezgane"},{"name":"Pharmacie Hagounia","address":"1, av Mokhtar Essoussi imm. Hagounia, 80350  INEZGANE","phone":"05 28 83 21 61","location":"https://www.telecontact.ma/plan-acces/pharmacie-hagounia-/3041643/inezgane","city":"Inezgane"},{"name":"Pharmacie Haj Yahya","address":"81, rue Allal ElFassi , Dcheira INEZGANE","phone":"05 28 27 03 58","location":"https://www.telecontact.ma/plan-acces/pharmacie-haj-yahya-/3197260/inezgane","city":"Inezgane"},{"name":"Pharmacie Hamzaoui","address":"36, av. Fayçal Ibn Abdelaziz , Dcheira INEZGANE","phone":"05 28 27 23 96","location":"https://www.telecontact.ma/plan-acces/pharmacie-hamzaoui-/3064180/inezgane","city":"Inezgane"},{"name":"Pharmacie Hanane","address":"place du café, jorf  INEZGANE","phone":"05 28 33 72 36","location":"https://www.telecontact.ma/plan-acces/pharmacie-hanane-/3064882/inezgane","city":"Inezgane"},{"name":"Pharmacie hay ElMers","address":"28 Bis, hay Mers , Dcheira INEZGANE","phone":"05 28 33 27 04","location":"https://www.telecontact.ma/plan-acces/pharmacie-hay-elmers-/3162117/inezgane","city":"Inezgane"},{"name":"Pharmacie Ibn Sina","address":"Place du Marche , Derb Bouaachra, Dcheira INEZGANE","phone":"05 28 83 45 52","location":"https://www.telecontact.ma/plan-acces/pharmacie-ibn-sina-/2212991/inezgane","city":"Inezgane"},{"name":"Pharmacie Imane","address":"40, rue Houmane Fetouaki , Dcheira INEZGANE","phone":"05 28 83 29 79","location":"https://www.telecontact.ma/plan-acces/pharmacie-imane-/3197244/inezgane","city":"Inezgane"},{"name":"Pharmacie Jorf","address":"route pl de Jorf, Derb Aliouat  INEZGANE","phone":"05 28 83 63 13","location":"https://www.telecontact.ma/plan-acces/pharmacie-jorf-/2213070/inezgane","city":"Inezgane"},{"name":"Pharmacie Kourtit","address":"54, rue Faïssal Ben Abd ElAziz , Takarkout, Dcheira INEZGANE","phone":"05 28 27 07 24","location":"https://www.telecontact.ma/plan-acces/pharmacie-kourtit-/3042383/inezgane","city":"Inezgane"},{"name":"Pharmacie Ksima","address":"route principale , bloc 56 n°95, Dcheira, 80352  INEZGANE","phone":"05 28 27 32 06","location":"https://www.telecontact.ma/plan-acces/pharmacie-ksima-/1170100/inezgane","city":"Inezgane"},{"name":"Pharmacie l'Unité","address":"bd Moulay Ali Cherif, Tarrast INEZGANE","phone":"05 27 88 07 65","location":"","city":"Inezgane"},{"name":"Pharmacie La Liberté","address":"av. Bir Anzarane , Dcheira INEZGANE","phone":"05 28 27 27 78","location":"","city":"Inezgane"},{"name":"Pharmacie la Pergola","address":"1, hay Essaada,rte principale , la Pergola, Dcheira INEZGANE","phone":"05 28 27 19 75","location":"https://www.telecontact.ma/plan-acces/pharmacie-la-pergola-/2213037/inezgane","city":"Inezgane"},{"name":"Pharmacie la Province","address":"2, av des F.a.r. ang. Mohammed V INEZGANE","phone":"05 28 83 23 40","location":"https://www.telecontact.ma/plan-acces/pharmacie-la-province-/3197568/inezgane","city":"Inezgane"},{"name":"Pharmacie Amlal","address":"Lot. Rmel , E imm.33 n°7, Tarrast INEZGANE","phone":"05 28 33 41 81","location":"https://www.telecontact.ma/plan-acces/pharmacie-amlal-/3064924/inezgane","city":"Inezgane"},{"name":"Pharmacie Annour","address":"hay Annour , rue 1016 n°56 INEZGANE","phone":"05 28 83 88 48","location":"https://www.telecontact.ma/plan-acces/pharmacie-annour-/3162942/inezgane","city":"Inezgane"},{"name":"Pharmacie Argana","address":"193, bd. My Abdellah  INEZGANE","phone":"05 28 33 68 30","location":"https://www.telecontact.ma/plan-acces/pharmacie-argana-/3064865/inezgane","city":"Inezgane"},{"name":"Pharmacie Assaïs","address":"12, rue Chtouka , place Assaïs, 80350  INEZGANE","phone":"05 28 33 36 83","location":"","city":"Inezgane"},{"name":"Pharmacie Assalam","address":"hay Sidi Fadoul , zone 1 n°102 Tarrast INEZGANE","phone":"05 28 83 63 61","location":"https://www.telecontact.ma/plan-acces/pharmacie-assalam-/3197565/inezgane","city":"Inezgane"},{"name":"Pharmacie Bouzgar","address":"Bouzgar , rue 640 n°4 INEZGANE","phone":"05 28 83 82 25","location":"https://www.telecontact.ma/plan-acces/pharmacie-bouzgar-/3268059/inezgane","city":"Inezgane"},{"name":"Pharmacie Chahir","address":"rue Bouzager squar jorf , 80350  INEZGANE","phone":"05 28 33 01 01","location":"https://www.telecontact.ma/plan-acces/pharmacie-chahir-/3043099/inezgane","city":"Inezgane"},{"name":"Pharmacie Conseil","address":"Hay Nour , rue 6 n°4 INEZGANE","phone":"05 28 83 47 97","location":"https://www.telecontact.ma/plan-acces/pharmacie-conseil-/3267950/inezgane","city":"Inezgane"},{"name":"Pharmacie d'Inezgane","address":"13, rue Mesguina , 80350  INEZGANE","phone":"05 28 83 20 37","location":"","city":"Inezgane"},{"name":"Pharmacie de Dcheira","address":"av. Bir anzarane , rte principale, Dcheira, 80352  INEZGANE","phone":"05 28 27 04 75","location":"https://www.telecontact.ma/plan-acces/pharmacie-de-dcheira-/0305600/inezgane","city":"Inezgane"},{"name":"Pharmacie de la Grande Mosquée","address":"place de la grande mosquée , q. Tarraste INEZGANE","phone":"05 28 33 07 67","location":"","city":"Inezgane"},{"name":"Pharmacie de la place","address":"3, rue des écoles , imm. Chahrazade, 80350  INEZGANE","phone":"05 28 83 25 10","location":"https://www.telecontact.ma/plan-acces/pharmacie-de-la-place-/0305700/inezgane","city":"Inezgane"},{"name":"Pharmacie des Hopitaux","address":"av. Mly Ali Chrif, Bounaman  INEZGANE","phone":"05 28 83 20 11","location":"https://www.telecontact.ma/plan-acces/pharmacie-des-hopitaux-/2213033/inezgane","city":"Inezgane"},{"name":"Pharmacie Drief","address":"bd. Abderrahim Bouabid, rue 303 , Dcheira INEZGANE","phone":"05 28 83 58 86","location":"https://www.telecontact.ma/plan-acces/pharmacie-drief-/3126674/inezgane","city":"Inezgane"},{"name":"Pharmacie du Souk","address":"53, bd Mokhtar Soussi , lot. Erac, 80350  INEZGANE","phone":"05 28 83 22 75","location":"https://www.telecontact.ma/plan-acces/pharmacie-du-souk-/1782200/inezgane","city":"Inezgane"},{"name":"Pharmacie du sud","address":"105, rue des écoles , 80350  INEZGANE","phone":"05 28 83 23 32","location":"https://www.telecontact.ma/plan-acces/pharmacie-du-sud-/0276900/inezgane","city":"Inezgane"},{"name":"Pharmacie ElAmine","address":"409, bd Moukhtar Soussi , El Ghiaten, Dcheira INEZGANE","phone":"05 28 27 11 77","location":"https://www.telecontact.ma/plan-acces/pharmacie-elamine-/3065014/inezgane","city":"Inezgane"},{"name":"Pharmacie ElFetouaki","address":"quartier ElFetouaki , résid. Essalam AlJihadia, Dcheira, 80350  INEZGANE","phone":"05 28 33 84 49","location":"https://www.telecontact.ma/plan-acces/pharmacie-elfetouaki-/3040784/inezgane","city":"Inezgane"},{"name":"Pharmacie 10 Ramadan","address":"rue 569 n°149 , Tarrast INEZGANE","phone":"05 28 83 38 66","location":"https://www.telecontact.ma/plan-acces/pharmacie-10-ramadan-/3162094/inezgane","city":"Inezgane"},{"name":"Pharmacie Aabir","address":"62 Bis, bd Hassan II, hay hassani INEZGANE","phone":"05 28 33 37 28","location":"https://www.telecontact.ma/plan-acces/pharmacie-aabir-/9014600/inezgane","city":"Inezgane"},{"name":"Pharmacie Al Amane Al Jihadia","address":"10, Résid. AlAmane V , Dcheira INEZGANE","phone":"05 28 83 76 75","location":"https://www.telecontact.ma/plan-acces/pharmacie-al-amane-al-jihadia-/3128925/inezgane","city":"Inezgane"},{"name":"Pharmacie Al Firdaouss","address":"av de l arrondissement , rue 707, Tarrast INEZGANE","phone":"06 33 66 95 16","location":"https://www.telecontact.ma/plan-acces/pharmacie-al-firdaouss-/9014611/inezgane","city":"Inezgane"},{"name":"Pharmacie Al Moggar","address":"45, av Mokhtar Soussi , 80350  INEZGANE","phone":"05 28 83 48 48","location":"https://www.telecontact.ma/plan-acces/pharmacie-al-moggar-/2213021/inezgane","city":"Inezgane"},{"name":"Pharmacie AlAmaouiine","address":"av. AlAmaouiine , Aliouat- Tarrast INEZGANE","phone":"05 28 33 05 74","location":"https://www.telecontact.ma/plan-acces/pharmacie-alamaouiine-/3064917/inezgane","city":"Inezgane"},{"name":"Pharmacie AlAndalouss","address":"177, av Hassan II, cité Hassani , 80350  INEZGANE","phone":"05 28 33 52 95","location":"https://www.telecontact.ma/plan-acces/pharmacie-alandalouss-/3042606/inezgane","city":"Inezgane"},{"name":"Pharmacie AlMassira","address":"95, av. Mohammed V , 80350  INEZGANE","phone":"05 28 83 44 20","location":"https://www.telecontact.ma/plan-acces/pharmacie-almassira-/1782300/inezgane","city":"Inezgane"},{"name":"Pharmacie AlWafa","address":"rte. principale, Tarrast  INEZGANE","phone":"05 28 83 50 32","location":"https://www.telecontact.ma/plan-acces/pharmacie-alwafa-/2212993/inezgane","city":"Inezgane"}]