[{"name":"Pharmacie la santé","address":"Abdellah Mhab , Hay Salam KHEMIS ZEMAMRA","phone":"05 23 34 66 42","location":"","city":"Khemis Zemamra"},{"name":"Pharmacie Moufid","address":"137, bd Bir Anzarane - Anahda  KHEMIS ZEMAMRA","phone":"05 23 34 66 06","location":"","city":"Khemis Zemamra"},{"name":"Pharmacie Nabih","address":"hay Salam, rue Allal Ben Abdellah , lot AlAbkari KHEMIS ZEMAMRA","phone":"05 23 35 63 01","location":"","city":"Khemis Zemamra"},{"name":"Pharmacie Oum Rabia","address":"29, rue Oum Rabia q. Abkari  KHEMIS ZEMAMRA","phone":"05 23 35 69 95","location":"","city":"Khemis Zemamra"},{"name":"Pharmacie Saniat Berguig","address":"16, C.R Saniat Berguig  KHEMIS ZEMAMRA","phone":"05 23 34 62 08","location":"","city":"Khemis Zemamra"},{"name":"Pharmacie Youssef","address":"bd Hassan II  KHEMIS ZEMAMRA","phone":"05 23 34 63 78","location":"","city":"Khemis Zemamra"},{"name":"Pharmacie Al Adarissa","address":"centre saniat Berguig  KHEMIS ZEMAMRA","phone":"05 23 34 60 44","location":"","city":"Khemis Zemamra"},{"name":"Pharmacie Al Assima","address":"194, hay Nahda  KHEMIS ZEMAMRA","phone":"05 23 35 66 68","location":"","city":"Khemis Zemamra"},{"name":"Pharmacie AlAmal","address":"hay Salam , n°6 KHEMIS ZEMAMRA","phone":"05 23 34 61 71","location":"","city":"Khemis Zemamra"},{"name":"Pharmacie AlOum Khadija","address":"139, bd. Sithami  KHEMIS ZEMAMRA","phone":"05 23 34 63 55","location":"","city":"Khemis Zemamra"},{"name":"Pharmacie Chabab","address":"12, av. Mohamed V  KHEMIS ZEMAMRA","phone":"05 23 35 60 74","location":"","city":"Khemis Zemamra"},{"name":"Pharmacie Chifa","address":"rte d'ElOualidia (r.s. 123)  KHEMIS ZEMAMRA","phone":"05 23 35 66 37","location":"","city":"Khemis Zemamra"},{"name":"Pharmacie Dennoune","address":"av. Hassan II , rte de Gharbia KHEMIS ZEMAMRA","phone":"05 23 34 69 62","location":"","city":"Khemis Zemamra"},{"name":"Pharmacie Essabil","address":"hay Salam n°19 , Group F KHEMIS ZEMAMRA","phone":"05 23 34 69 69","location":"","city":"Khemis Zemamra"},{"name":"Pharmacie Farabi","address":"390, bd. Zerktouni , q. Nahda KHEMIS ZEMAMRA","phone":"05 23 35 64 02","location":"","city":"Khemis Zemamra"},{"name":"Pharmacie Ghenadra","address":"bd. des Far  KHEMIS ZEMAMRA","phone":"05 23 34 63 26","location":"","city":"Khemis Zemamra"},{"name":"Pharmacie Ibnou Arabi","address":"493, cité Nahda II  KHEMIS ZEMAMRA","phone":"05 23 34 64 77","location":"","city":"Khemis Zemamra"},{"name":"Pharmacie Kadiri","address":"59, bd Mohamed VI , Group 6 KHEMIS ZEMAMRA","phone":"05 23 34 62 66","location":"","city":"Khemis Zemamra"},{"name":"Pharmacie Kaoutar","address":"6, hay Salam  KHEMIS ZEMAMRA","phone":"05 23 35 69 30","location":"","city":"Khemis Zemamra"},{"name":"Pharmacie Khmiss Zmamra","address":"Av. de l'Armée Royale , 24200  KHEMIS ZEMAMRA","phone":"05 23 34 60 52","location":"","city":"Khemis Zemamra"}]