[{"name":"Pharmacie Yasmina","address":"204, rue Zag , Massira KHOURIBGA","phone":"05 23 58 07 89","location":"https://www.telecontact.ma/plan-acces/pharmacie-yasmina-/3197731/khouribga","city":"Khouribga"},{"name":"Pharmacie Yasser","address":"hay El Inbiate  KHOURIBGA","phone":"06 62 79 67 16","location":"https://www.telecontact.ma/plan-acces/pharmacie-yasser-/3344482/khouribga","city":"Khouribga"},{"name":"Pharmacie Youssef Ibn Tachfine","address":"78, rue Ahmed Cherradi , Yassmina 1 KHOURIBGA","phone":"05 23 56 26 81","location":"https://www.telecontact.ma/plan-acces/pharmacie-youssef-ibn-tachfine-/3197729/khouribga","city":"Khouribga"},{"name":"Pharmacie Zellaka","address":"1541, bd Mohammed VI , hay EL Qods KHOURIBGA","phone":"05 23 49 93 35","location":"https://www.telecontact.ma/plan-acces/pharmacie-zellaka-/3197727/khouribga","city":"Khouribga"},{"name":"Pharmacie Zoubir","address":"227, bd Mohammed VI , 25000  KHOURIBGA","phone":"05 23 56 53 88","location":"https://www.telecontact.ma/plan-acces/pharmacie-zoubir-/0886000/khouribga","city":"Khouribga"},{"name":"La Grande  Pharmacie","address":"2, bd de la gare  KHOURIBGA","phone":"05 23 56 47 43","location":"https://www.telecontact.ma/plan-acces/la-grande-pharmacie-/0625600/khouribga","city":"Khouribga"},{"name":"Pharmacie 21 Août","address":"rue 21 Août , bloc D n°3, 25000  KHOURIBGA","phone":"05 23 56 10 12","location":"","city":"Khouribga"},{"name":"Pharmacie Abdelaziz","address":"162, quartier Ocp , sud Boulanouar KHOURIBGA","phone":"05 23 57 71 71","location":"","city":"Khouribga"},{"name":"Pharmacie Achorouk","address":"45, rue Bouabidi Bouaza , lotiss. Zaitoune KHOURIBGA","phone":"05 23 49 18 81","location":"","city":"Khouribga"},{"name":"Pharmacie Al Ahed","address":"164, rue Assaad Ibnou Al Yazid , lotiss. Bad KHOURIBGA","phone":"05 23 49 33 13","location":"","city":"Khouribga"},{"name":"Pharmacie Al Khair","address":"bd Moulay Idriss 1er, Trik Al Fokara KHOURIBGA","phone":"05 23 49 59 52","location":"","city":"Khouribga"},{"name":"Pharmacie Al Khouadria","address":"Al Khouadria H , bloc 1 n°16 KHOURIBGA","phone":"05 23 49 58 94","location":"","city":"Khouribga"},{"name":"Pharmacie Al Manal","address":"rue Zaitouna 3, n° 923 KHOURIBGA","phone":"05 23 49 42 63","location":"","city":"Khouribga"},{"name":"Pharmacie Al Mostakbal","address":"lot. Al Mostakbal , hay Louiza n°76 KHOURIBGA","phone":"05 23 56 60 11","location":"","city":"Khouribga"},{"name":"Pharmacie Al Ouafa","address":"hay Al Massira, Rihane 3 n° 1 KHOURIBGA","phone":"05 23 56 02 53","location":"","city":"Khouribga"},{"name":"Pharmacie AlAkhaouine","address":"50, lotiss. El Farah, hay Riad KHOURIBGA","phone":"05 23 49 16 16","location":"","city":"Khouribga"},{"name":"Pharmacie AlAzhar","address":"derb Sbat Hattane  KHOURIBGA","phone":"05 23 57 49 66","location":"","city":"Khouribga"},{"name":"Pharmacie AlBassatine","address":"rte Khatouate , ouled Abdou KHOURIBGA","phone":"05 23 56 02 28","location":"","city":"Khouribga"},{"name":"Pharmacie AlBouchra","address":"388, av. 16 Novembre , hay Nahda KHOURIBGA","phone":"05 23 49 86 87","location":"","city":"Khouribga"},{"name":"Pharmacie AlFaraj","address":"543, rue AlMadina , hay AlAmal KHOURIBGA","phone":"05 23 56 34 80","location":"","city":"Khouribga"},{"name":"Pharmacie Mouaniss","address":"474, bd Al Moukaouama , Qods II KHOURIBGA","phone":"05 23 56 08 94","location":"https://www.telecontact.ma/plan-acces/pharmacie-mouaniss-/3197737/khouribga","city":"Khouribga"},{"name":"Pharmacie Mouhcine","address":"2, rue Ibn Batouta  KHOURIBGA","phone":"05 23 56 00 86","location":"https://www.telecontact.ma/plan-acces/pharmacie-mouhcine-/3197827/khouribga","city":"Khouribga"},{"name":"Pharmacie Nahda","address":"15, rue de la Mosquée , 25000  KHOURIBGA","phone":"05 23 56 15 37","location":"https://www.telecontact.ma/plan-acces/pharmacie-nahda-/0309500/khouribga","city":"Khouribga"},{"name":"Pharmacie Nour Al Hayat","address":"Rte Hayane , n°23 lotiss. Zalaqa KHOURIBGA","phone":"05 23 49 34 55","location":"","city":"Khouribga"},{"name":"Pharmacie Noury","address":"Quart Jmouhi , lot 64 KHOURIBGA","phone":"05 23 45 15 80","location":"","city":"Khouribga"},{"name":"Pharmacie Ouardigha","address":"621, bd Abderrahim Bouabid ang. bd Palestine KHOURIBGA","phone":"05 23 56 22 13","location":"","city":"Khouribga"},{"name":"Pharmacie Ouled Abdoun","address":"souk Jemaâ , ouled Abdoun KHOURIBGA","phone":"05 23 49 68 93","location":"","city":"Khouribga"},{"name":"Pharmacie Ouled Bhar Lekbar","address":"centre laghfaf  KHOURIBGA","phone":"05 23 57 92 96","location":"","city":"Khouribga"},{"name":"Pharmacie Oum ElQora","address":"30 R, Amicale Oum ElQora  KHOURIBGA","phone":"05 23 49 23 85","location":"","city":"Khouribga"},{"name":"Pharmacie Pasteur","address":"lotiss. El Aidi , n° 45 KHOURIBGA","phone":"05 23 56 47 85","location":"","city":"Khouribga"},{"name":"Pharmacie Populaire","address":"1354, bd. Abderrahim Bouabid , Hay ElFath, 25000  KHOURIBGA","phone":"05 23 56 08 75","location":"","city":"Khouribga"},{"name":"Pharmacie Principale","address":"hay Dakhla , n°11 bloc B Boujniba KHOURIBGA","phone":"05 23 57 01 75","location":"","city":"Khouribga"},{"name":"Pharmacie Rabbani","address":"274, rue Zellaqa, hay Al Amal KHOURIBGA","phone":"05 23 56 71 97","location":"","city":"Khouribga"},{"name":"Pharmacie Rettabi","address":"251, rue Ahmed Balafrej , lotiss. Yasmina II KHOURIBGA","phone":"05 23 49 95 19","location":"","city":"Khouribga"},{"name":"Pharmacie Rhazlaoui","address":"1066, bd Abderrahim Bouabid  KHOURIBGA","phone":"05 23 56 55 53","location":"","city":"Khouribga"},{"name":"Pharmacie Riad Asseha","address":"30, lotiss. Oum AlQora  KHOURIBGA","phone":"05 23 49 16 60","location":"","city":"Khouribga"},{"name":"Pharmacie Rochdi","address":"50, av. de l'Egypte , lot. Errachaid KHOURIBGA","phone":"05 23 56 75 41","location":"","city":"Khouribga"},{"name":"Pharmacie Roudani","address":"214, Rue Brahim Roudani , 25000  KHOURIBGA","phone":"05 23 56 25 11","location":"","city":"Khouribga"},{"name":"Pharmacie Ryad","address":"78, rue de Tripoli , hay Riad KHOURIBGA","phone":"05 23 49 47 30","location":"","city":"Khouribga"},{"name":"Pharmacie Sebt Beni Khlef","address":"29, centre Sebt Beni Khlef  KHOURIBGA","phone":"05 23 56 73 65","location":"","city":"Khouribga"},{"name":"Pharmacie AlHana","address":"35, lot. ElHana , O.c.p. KHOURIBGA","phone":"05 23 49 03 93","location":"","city":"Khouribga"},{"name":"Pharmacie AlIhssane","address":"rue AlAmira , n°54 lot. AlAmal KHOURIBGA","phone":"05 23 58 06 25","location":"","city":"Khouribga"},{"name":"Pharmacie AlImam Malik","address":"26, bd Imam Malik  KHOURIBGA","phone":"05 23 56 11 34","location":"","city":"Khouribga"},{"name":"Pharmacie AlInbiaat","address":"241, bd Belghazi , hay Riad KHOURIBGA","phone":"05 23 49 07 77","location":"","city":"Khouribga"},{"name":"Pharmacie AlManar","address":"34, Amicale Watane Arabi , ElFath KHOURIBGA","phone":"05 23 56 41 57","location":"","city":"Khouribga"},{"name":"Pharmacie AlMarjane","address":"43 Bis, nouveaux logements , O.c.p. KHOURIBGA","phone":"05 23 49 51 22","location":"","city":"Khouribga"},{"name":"Pharmacie AlMasjid","address":"6, hay Mohammedi  KHOURIBGA","phone":"05 23 49 26 06","location":"","city":"Khouribga"},{"name":"Pharmacie AlMassira","address":"294, av Ahmed ElHiba , bloc C KHOURIBGA","phone":"05 23 49 91 19","location":"","city":"Khouribga"},{"name":"Pharmacie AlQods","address":"333, bd. AlMoukaouama , 25000  KHOURIBGA","phone":"05 23 56 37 70","location":"","city":"Khouribga"},{"name":"Pharmacie Amtoun","address":"bd Mohammed VI , c.com. Marjane n°8 KHOURIBGA","phone":"05 23 56 17 00","location":"","city":"Khouribga"},{"name":"Pharmacie Aneflous","address":"81, bd Massira El Khadra , coopérative Bir Anzaran, hay Saâda KHOURIBGA","phone":"05 40 15 69 12","location":"","city":"Khouribga"},{"name":"Pharmacie Assouna","address":"34, lot. AlOuhoud , hay Riad KHOURIBGA","phone":"05 23 49 05 60","location":"https://www.telecontact.ma/plan-acces/pharmacie-assouna-/3197841/khouribga","city":"Khouribga"},{"name":"Pharmacie Azzaitouna","address":"134, nouveaux logements O.c.p.  KHOURIBGA","phone":"05 23 49 00 63","location":"https://www.telecontact.ma/plan-acces/pharmacie-azzaitouna-/3197839/khouribga","city":"Khouribga"},{"name":"Pharmacie Bab Khoukha","address":"55, ElQods , P2 KHOURIBGA","phone":"05 23 56 40 78","location":"https://www.telecontact.ma/plan-acces/pharmacie-bab-khoukha-/3197833/khouribga","city":"Khouribga"},{"name":"Pharmacie Baghdad","address":"556, rue Baghdad  KHOURIBGA","phone":"05 23 49 16 76","location":"https://www.telecontact.ma/plan-acces/pharmacie-baghdad-/3197831/khouribga","city":"Khouribga"},{"name":"Pharmacie Belbsir","address":"3, mosquée Errahmane , hay ElFaraj KHOURIBGA","phone":"05 23 49 24 52","location":"https://www.telecontact.ma/plan-acces/pharmacie-belbsir-/3197829/khouribga","city":"Khouribga"},{"name":"Pharmacie Benjelloul","address":"Douar Benjelloul , n° 342 KHOURIBGA","phone":"06 89 35 52 22","location":"https://www.telecontact.ma/plan-acces/pharmacie-benjelloul-/3344489/khouribga","city":"Khouribga"},{"name":"Pharmacie Bilall","address":"KHOURIBGA","phone":"05 23 56 01 57","location":"https://www.telecontact.ma/plan-acces/pharmacie-bilall-/3344490/khouribga","city":"Khouribga"},{"name":"Pharmacie Bir Mezoui","address":"C. rurale de Bir Mezoui  KHOURIBGA","phone":"05 23 57 95 54","location":"","city":"Khouribga"},{"name":"Pharmacie Bni Khirane","address":"centre Bni Khirane  KHOURIBGA","phone":"05 23 52 19 54","location":"","city":"Khouribga"},{"name":"Pharmacie Bnou Haytam","address":"179, Yasmina 1 , 2°tranche KHOURIBGA","phone":"05 23 56 34 04","location":"","city":"Khouribga"},{"name":"Pharmacie Boujniba","address":"402 Bis, av. Mohammed V , Boijniba KHOURIBGA","phone":"05 23 57 02 95","location":"","city":"Khouribga"},{"name":"Pharmacie Boulanouar","address":"797, village Ocp Boulanouar  KHOURIBGA","phone":"05 23 57 78 08","location":"","city":"Khouribga"},{"name":"Pharmacie Centrale","address":"13, rue Moulay Abderrahmane , 25000  KHOURIBGA","phone":"05 23 56 09 80","location":"","city":"Khouribga"},{"name":"Pharmacie Chaaba","address":"bd prince Sidi Mohamed , Hattane KHOURIBGA","phone":"05 23 57 48 30","location":"","city":"Khouribga"},{"name":"Pharmacie Chahbounia","address":"lotiss. Al Moustakbal, Hamro 15, chemins 4 KHOURIBGA","phone":"05 23 49 70 58","location":"","city":"Khouribga"},{"name":"Pharmacie Cherkaoui","address":"136, rue Moulay Driss , 25000  KHOURIBGA","phone":"05 23 56 49 71","location":"","city":"Khouribga"},{"name":"Pharmacie Chifa","address":"3, rue de Meknés , 25000  KHOURIBGA","phone":"05 23 56 26 53","location":"","city":"Khouribga"},{"name":"Pharmacie de l'Hôpital","address":"17 Bis, bd de l'Hôpital , q. Dakhla KHOURIBGA","phone":"05 23 49 96 73","location":"","city":"Khouribga"},{"name":"Pharmacie de la Faculté","address":"lotiss. Zaitoune, sect.9 n° 159 KHOURIBGA","phone":"05 23 49 57 57","location":"","city":"Khouribga"},{"name":"Pharmacie de Marrakech","address":"46, Rue Marrakech , 25000  KHOURIBGA","phone":"05 23 49 37 30","location":"","city":"Khouribga"},{"name":"Pharmacie Fatima Zahra","address":"518, quartier O.c.p. , Tachron Boujniba KHOURIBGA","phone":"05 23 57 03 81","location":"","city":"Khouribga"},{"name":"Pharmacie Ghizlaine","address":"Khouadria Jdad , bloc 1 n° 16 KHOURIBGA","phone":"06 73 14 18 86","location":"","city":"Khouribga"},{"name":"Pharmacie Gnadiz","address":"27, C. rurale Gnadiz  KHOURIBGA","phone":"05 23 41 01 52","location":"","city":"Khouribga"},{"name":"Pharmacie Grand Maghreb","address":"814, bd Al Maghrib Al Arabi, hay ElQods KHOURIBGA","phone":"05 23 56 78 95","location":"","city":"Khouribga"},{"name":"Pharmacie Hattane","address":"40, bd Mohammed V, Hattane KHOURIBGA","phone":"05 23 57 47 46","location":"","city":"Khouribga"},{"name":"Pharmacie hay Mabchour","address":"rue Oued Bouchadou , Beni Moussa KHOURIBGA","phone":"05 23 56 54 30","location":"","city":"Khouribga"},{"name":"Pharmacie Hazime","address":"50, lot. Amal souk  KHOURIBGA","phone":"05 23 58 04 59","location":"","city":"Khouribga"},{"name":"Pharmacie Ibn Khaldoune","address":"lotiss. Nakhla, rue Ecalyptus, C4 KHOURIBGA","phone":"05 23 56 30 46","location":"","city":"Khouribga"},{"name":"Pharmacie Ibn Rochd","address":"287, bd Beni Amir , 25000  KHOURIBGA","phone":"05 23 56 29 13","location":"","city":"Khouribga"},{"name":"Pharmacie Ibn Sina","address":"318, bd Palestine , hay ElQods I KHOURIBGA","phone":"05 23 56 11 18","location":"","city":"Khouribga"},{"name":"Pharmacie Ibn Tofail","address":"19, rue Tinghir , lot. Iqbal KHOURIBGA","phone":"05 23 49 82 42","location":"","city":"Khouribga"},{"name":"Pharmacie Ibn Yassine","address":"362, hay ElHana  KHOURIBGA","phone":"05 23 49 10 87","location":"","city":"Khouribga"},{"name":"Pharmacie Ilham","address":"648, bd Moulay Driss 1er , q. Riad KHOURIBGA","phone":"05 23 49 29 56","location":"","city":"Khouribga"},{"name":"Pharmacie Irfane","address":"Rte Al Khatawate , lotiss Al Hamraa n°12 KHOURIBGA","phone":"05 40 00 73 24","location":"","city":"Khouribga"},{"name":"Pharmacie Jamali","address":"142, bd. Hassan II , lot. Hassania Tlet Oulad, 26700  KHOURIBGA","phone":"05 23 59 01 00","location":"","city":"Khouribga"},{"name":"Pharmacie Jazi","address":"490, hay El Inbiaat  KHOURIBGA","phone":"05 23 49 57 08","location":"","city":"Khouribga"},{"name":"Pharmacie Khallouk","address":"36 R, Lot Chawki  KHOURIBGA","phone":"05 23 56 77 73","location":"","city":"Khouribga"},{"name":"Pharmacie Khmis Ouled Azzouz","address":"Khmis Ouled Azzouz  KHOURIBGA","phone":"05 23 41 12 26","location":"","city":"Khouribga"},{"name":"Pharmacie Khouribga","address":"153, bd Ahmed Cherradi , lot ElKaram, hay Nahda KHOURIBGA","phone":"05 23 58 07 43","location":"","city":"Khouribga"},{"name":"Pharmacie La Gfaf","address":"centre Lagfaf  KHOURIBGA","phone":"05 23 57 90 62","location":"","city":"Khouribga"},{"name":"Pharmacie du Croissant","address":"73, rue Cadi Ayad  KHOURIBGA","phone":"05 23 58 07 94","location":"","city":"Khouribga"},{"name":"Pharmacie Du Phosphate","address":"71, bd ElMokawama , rue 24, 25000  KHOURIBGA","phone":"05 23 56 37 06","location":"","city":"Khouribga"},{"name":"Pharmacie du Progres","address":"23 Bis, rue Boujdour , hay Takadoum KHOURIBGA","phone":"05 23 49 81 12","location":"","city":"Khouribga"},{"name":"Pharmacie du Village","address":"bd Farid Bouji ang rue Med El Ayachi n° 1 bis KHOURIBGA","phone":"05 23 49 26 67","location":"","city":"Khouribga"},{"name":"Pharmacie Eddakhla","address":"96 B, rue des Amandiers , hay Dakhla KHOURIBGA","phone":"05 23 56 52 54","location":"","city":"Khouribga"},{"name":"Pharmacie El Ghaz","address":"rue Bab Lakbir  KHOURIBGA","phone":"06 71 63 45 80","location":"","city":"Khouribga"},{"name":"Pharmacie El Ouardighia","address":"commune rurale de Bir Mizoui  KHOURIBGA","phone":"05 23 52 13 56","location":"","city":"Khouribga"},{"name":"Pharmacie ElFath","address":"190, rue Beni Hassane , cité AlFath KHOURIBGA","phone":"05 23 56 70 90","location":"","city":"Khouribga"},{"name":"Pharmacie ElHamri","address":"65 Bis, rue Mhamid Ghizlane , Takadoum KHOURIBGA","phone":"05 23 56 79 84","location":"","city":"Khouribga"},{"name":"Pharmacie ElHejri","address":"5, hay Bendriss , Boulanouar KHOURIBGA","phone":"05 23 57 70 54","location":"","city":"Khouribga"},{"name":"Pharmacie Ennour","address":"169, av. 16 Novembre , hay Nahda KHOURIBGA","phone":"05 23 56 49 02","location":"https://www.telecontact.ma/plan-acces/pharmacie-ennour-/3273697/khouribga","city":"Khouribga"},{"name":"Pharmacie Er-Rahmane","address":"104, Amical des fonctionnaires , hay El Fath KHOURIBGA","phone":"05 23 56 67 46","location":"https://www.telecontact.ma/plan-acces/pharmacie-er-rahmane-/3197801/khouribga","city":"Khouribga"},{"name":"Pharmacie Espoir","address":"1047, bd des Arcades , AlQods I KHOURIBGA","phone":"05 23 49 88 82","location":"https://www.telecontact.ma/plan-acces/pharmacie-espoir-/3197799/khouribga","city":"Khouribga"},{"name":"Pharmacie Essamlali","address":"165, bd Mohamed Sidqi  KHOURIBGA","phone":"05 23 56 35 38","location":"https://www.telecontact.ma/plan-acces/pharmacie-essamlali-/3197797/khouribga","city":"Khouribga"},{"name":"Pharmacie Essaten","address":"29, rue Allal ElFassi , bloc U, q. Ennahda KHOURIBGA","phone":"05 23 56 68 33","location":"https://www.telecontact.ma/plan-acces/pharmacie-essaten-/3197795/khouribga","city":"Khouribga"}]