[{"name":"Pharmacie Chifae","address":"16, bd du Caire  LARACHE","phone":"05 39 91 31 97","location":"https://www.telecontact.ma/plan-acces/pharmacie-chifae-/3046040/larache","city":"Larache"},{"name":"Pharmacie Coliseo","address":"11, rue Caid Ahmed Riffi , 92000  LARACHE","phone":"05 39 91 31 43","location":"https://www.telecontact.ma/plan-acces/pharmacie-coliseo-/0310200/larache","city":"Larache"},{"name":"Pharmacie de l'hôpital","address":"468, bd des far , 92000  LARACHE","phone":"05 39 50 03 06","location":"","city":"Larache"},{"name":"Pharmacie des Cliniques","address":"Lotiss. Chaabane  LARACHE","phone":"05 39 52 11 22","location":"https://www.telecontact.ma/plan-acces/pharmacie-des-cliniques-/3270993/larache","city":"Larache"},{"name":"Pharmacie des Far","address":"106, bd des Far  LARACHE","phone":"05 39 50 18 18","location":"https://www.telecontact.ma/plan-acces/pharmacie-des-far-/3046694/larache","city":"Larache"},{"name":"Pharmacie du Nord","address":"33, bd Omar Ibn Abdelaziz  LARACHE","phone":"05 39 50 18 86","location":"https://www.telecontact.ma/plan-acces/pharmacie-du-nord-/3127744/larache","city":"Larache"},{"name":"Pharmacie du Stade Municipal","address":"64, Lotissement Al Khadra , rue des Orangers, 92000  LARACHE","phone":"05 39 50 11 24","location":"https://www.telecontact.ma/plan-acces/pharmacie-du-stade-municipal-/3270990/larache","city":"Larache"},{"name":"Pharmacie Gharnata","address":"19, bd. Hassan II , 92000  LARACHE","phone":"05 39 91 29 29","location":"https://www.telecontact.ma/plan-acces/pharmacie-gharnata-/0310300/larache","city":"Larache"},{"name":"Pharmacie Hay ElJadid","address":"207, bd Mehdi Ben Toumert  LARACHE","phone":"05 39 91 68 43","location":"https://www.telecontact.ma/plan-acces/pharmacie-hay-eljadid-/3046723/larache","city":"Larache"},{"name":"Pharmacie hay Nador","address":"rue jakarta , jnane bouhssina LARACHE","phone":"05 39 91 60 04","location":"https://www.telecontact.ma/plan-acces/pharmacie-hay-nador-/3046107/larache","city":"Larache"},{"name":"Pharmacie Ibn Khaldoun","address":"49, bd Mohamed Ben Abdellah  LARACHE","phone":"05 39 91 45 31","location":"https://www.telecontact.ma/plan-acces/pharmacie-ibn-khaldoun-/3046151/larache","city":"Larache"},{"name":"Pharmacie Ibn Rochd","address":"88, bd. Abdelmoumen Ben Ali  LARACHE","phone":"05 39 91 56 07","location":"https://www.telecontact.ma/plan-acces/pharmacie-ibn-rochd-/3046143/larache","city":"Larache"},{"name":"Pharmacie Ibn Sina","address":"299, lot. AlWafae  LARACHE","phone":"05 39 50 04 04","location":"https://www.telecontact.ma/plan-acces/pharmacie-ibn-sina-/3046713/larache","city":"Larache"},{"name":"Pharmacie Jaoui","address":"av Ali Abi Taleb , résid. AlFath M4/A LARACHE","phone":"05 39 91 00 44","location":"https://www.telecontact.ma/plan-acces/pharmacie-jaoui-/3234801/larache","city":"Larache"},{"name":"Pharmacie Jnane Bacha","address":"92, bd Oqba Ibn Nafie  LARACHE","phone":"05 39 91 49 92","location":"https://www.telecontact.ma/plan-acces/pharmacie-jnane-bacha-/3046125/larache","city":"Larache"},{"name":"Pharmacie La farola","address":"93, bd. Abdelmoumen Ben Ali  LARACHE","phone":"05 39 50 10 17","location":"https://www.telecontact.ma/plan-acces/pharmacie-la-farola-/3046127/larache","city":"Larache"},{"name":"Pharmacie Lalla Mennana","address":"52, bd Mohammed V  LARACHE","phone":"05 39 91 65 44","location":"https://www.telecontact.ma/plan-acces/pharmacie-lalla-mennana-/3046120/larache","city":"Larache"},{"name":"Pharmacie Larache","address":"5, bd Omar Ben Abdelaziz  LARACHE","phone":"05 39 91 45 43","location":"https://www.telecontact.ma/plan-acces/pharmacie-larache-/3046115/larache","city":"Larache"},{"name":"Pharmacie Lixus","address":"112, bd. Hassan II  LARACHE","phone":"05 39 91 40 20","location":"https://www.telecontact.ma/plan-acces/pharmacie-lixus-/3046155/larache","city":"Larache"},{"name":"Pharmacie Maghreb El Jadida","address":"lot Maghreb El Jadid  LARACHE","phone":"06 80 70 31 31","location":"https://www.telecontact.ma/plan-acces/pharmacie-maghreb-el-jadida-/3346070/larache","city":"Larache"},{"name":"Pharmacie Masjid AlForkan","address":"17, lotiss. des Fonctionnaires , hay ElJadid LARACHE","phone":"05 39 52 11 21","location":"https://www.telecontact.ma/plan-acces/pharmacie-masjid-alforkan-/3198873/larache","city":"Larache"},{"name":"Pharmacie Nahda","address":"av Mehdi Ben Toumert  LARACHE","phone":"05 39 52 10 20","location":"https://www.telecontact.ma/plan-acces/pharmacie-nahda-/3198875/larache","city":"Larache"},{"name":"Pharmacie Nassiha","address":"1, bd. Abdelmoumen Ben Ali  LARACHE","phone":"05 39 91 26 00","location":"https://www.telecontact.ma/plan-acces/pharmacie-nassiha-/3046039/larache","city":"Larache"},{"name":"Pharmacie Populaire","address":"27, av. Al Massira Al Khadra  LARACHE","phone":"05 39 50 13 45","location":"https://www.telecontact.ma/plan-acces/pharmacie-populaire-/3270991/larache","city":"Larache"},{"name":"Pharmacie Principale","address":"3, place des Martyrs  LARACHE","phone":"05 39 50 11 11","location":"https://www.telecontact.ma/plan-acces/pharmacie-principale-/3046159/larache","city":"Larache"},{"name":"Pharmacie Riad","address":"124, bd Mly Med Ben Abdellah  LARACHE","phone":"05 39 91 13 27","location":"https://www.telecontact.ma/plan-acces/pharmacie-riad-/3046142/larache","city":"Larache"},{"name":"Pharmacie Rihab","address":"19, place de la Mecque  LARACHE","phone":"05 39 91 30 91","location":"https://www.telecontact.ma/plan-acces/pharmacie-rihab-/3046118/larache","city":"Larache"},{"name":"Pharmacie Salama","address":"161, bd Oqba Ibn Nafie  LARACHE","phone":"05 39 91 57 86","location":"https://www.telecontact.ma/plan-acces/pharmacie-salama-/3046111/larache","city":"Larache"},{"name":"Pharmacie Shadi","address":"lot Maghreb El Jadid  LARACHE","phone":"06 63 18 51 95","location":"https://www.telecontact.ma/plan-acces/pharmacie-shadi-/3344580/larache","city":"Larache"},{"name":"Pharmacie Al Amal","address":"lotiss. Chaabane 2  LARACHE","phone":"05 39 52 15 36","location":"https://www.telecontact.ma/plan-acces/pharmacie-al-amal-/3273834/larache","city":"Larache"},{"name":"Pharmacie Al Bayan","address":"134, lotiss. Al Inbiat  LARACHE","phone":"05 39 91 69 14","location":"https://www.telecontact.ma/plan-acces/pharmacie-al-bayan-/3273835/larache","city":"Larache"},{"name":"Pharmacie Al Ghofran","address":"1205, Lotiss. Maghrib El Jadid  LARACHE","phone":"05 39 52 37 32","location":"https://www.telecontact.ma/plan-acces/pharmacie-al-ghofran-/3270871/larache","city":"Larache"},{"name":"Pharmacie Al Manar","address":"lotiss. Al Manar 1, Mosquée My Al Hassan n°1 LARACHE","phone":"05 39 52 01 22","location":"https://www.telecontact.ma/plan-acces/pharmacie-al-manar-/3305198/larache","city":"Larache"},{"name":"Pharmacie Al Marssa","address":"1, rue Dora  LARACHE","phone":"05 39 50 00 39","location":"https://www.telecontact.ma/plan-acces/pharmacie-al-marssa-/3270992/larache","city":"Larache"},{"name":"Pharmacie Al Plazza","address":"10, bd Essaadiyine , 92000  LARACHE","phone":"05 39 91 06 75","location":"https://www.telecontact.ma/plan-acces/pharmacie-al-plazza-/3312710/larache","city":"Larache"},{"name":"Pharmacie Al Rayan","address":"581, Lotissement Al Maghrib El Jadid  LARACHE","phone":"05 39 52 17 77","location":"https://www.telecontact.ma/plan-acces/pharmacie-al-rayan-/3221248/larache","city":"Larache"},{"name":"Pharmacie Al Yakout","address":"308, lotiss. Al Maghreb Al Jadid  LARACHE","phone":"05 39 52 10 39","location":"https://www.telecontact.ma/plan-acces/pharmacie-al-yakout-/3275782/larache","city":"Larache"},{"name":"Pharmacie AlAndalous","address":"165, av. Moulay Ismail  LARACHE","phone":"05 39 91 13 13","location":"https://www.telecontact.ma/plan-acces/pharmacie-alandalous-/3198861/larache","city":"Larache"},{"name":"Pharmacie Boutaina","address":"39, rue Ibn Khaldoun  LARACHE","phone":"05 34 43 66 08","location":"https://www.telecontact.ma/plan-acces/pharmacie-boutaina-/3270994/larache","city":"Larache"},{"name":"Pharmacie C.d.g.","address":"hay Alwahda  LARACHE","phone":"05 39 52 13 55","location":"","city":"Larache"},{"name":"Pharmacie Centrale de Larache","address":"1 Bis, bd Mohamed Ben Abdellah , 92000  LARACHE","phone":"05 39 91 23 46","location":"https://www.telecontact.ma/plan-acces/pharmacie-centrale-de-larache-/1622400/larache","city":"Larache"},{"name":"Pharmacie Chaabane","address":"327, lot Chaabane  LARACHE","phone":"05 39 52 03 31","location":"https://www.telecontact.ma/plan-acces/pharmacie-chaabane-/3198869/larache","city":"Larache"},{"name":"Pharmacie Charkaoui","address":"lotiss. Assalam  LARACHE","phone":"05 39 91 39 60","location":"https://www.telecontact.ma/plan-acces/pharmacie-charkaoui-/3346072/larache","city":"Larache"}]