[{"name":"Pharmacie Tamouda Bay","address":"30, av. Mohamed V  M'DIQ","phone":"05 39 66 37 88","location":"https://www.telecontact.ma/plan-acces/pharmacie-tamouda-bay-/3066626/mdiq","city":"M'diq"},{"name":"Pharmacie Al Marsa","address":"bd Lalla Nouzha , rue 2 imm. Daibouni M'DIQ","phone":"05 39 66 36 66","location":"https://www.telecontact.ma/plan-acces/pharmacie-al-marsa-/3046863/mdiq","city":"M'diq"},{"name":"Pharmacie Alami","address":"300, av Tétouan , lot AlBahr M'DIQ","phone":"05 39 66 37 66","location":"https://www.telecontact.ma/plan-acces/pharmacie-alami-/3224541/mdiq","city":"M'diq"},{"name":"Pharmacie Badr","address":"45, rue AlMassira  M'DIQ","phone":"05 39 97 57 08","location":"https://www.telecontact.ma/plan-acces/pharmacie-badr-/3046403/mdiq","city":"M'diq"},{"name":"Pharmacie Chifae","address":"bd Moussa ibn Noussair  M'DIQ","phone":"05 39 66 37 71","location":"https://www.telecontact.ma/plan-acces/pharmacie-chifae-/3224494/mdiq","city":"M'diq"},{"name":"Pharmacie El Ouazzani Taibi","address":"av Massira El Khadra ang. rue Ibn Batouta M'DIQ","phone":"05 39 97 57 06","location":"https://www.telecontact.ma/plan-acces/pharmacie-el-ouazzani-taibi-/3046350/mdiq","city":"M'diq"},{"name":"Pharmacie Harras","address":"av. Abdelkrim ElKhattabi , lotiss. Bahr 15 M'DIQ","phone":"05 39 97 50 24","location":"https://www.telecontact.ma/plan-acces/pharmacie-harras-/3066628/mdiq","city":"M'diq"},{"name":"Pharmacie Hay AlKalaa","address":"av. Imam Malek , passage 12 n°10 M'DIQ","phone":"05 39 66 30 17","location":"","city":"M'diq"},{"name":"Pharmacie Kharkhour","address":"72, av. Jamia ElArabia, Mdiq  M'DIQ","phone":"05 39 97 51 50","location":"","city":"M'diq"},{"name":"Pharmacie M'diq","address":"3, av. Lalla Nezha , rte de Sebta M'DIQ","phone":"05 39 97 50 38","location":"","city":"M'diq"},{"name":"Pharmacie Rincon","address":"61, av. Moussa Ibn Noussair  M'DIQ","phone":"05 39 66 40 17","location":"","city":"M'diq"}]