[{"name":"Pharmacie Hay ElHassani","address":"268, hay Massira II, bloc B MARRAKECH","phone":"05 24 49 15 53","location":"https://www.telecontact.ma/plan-acces/pharmacie-hay-elhassani-/3089649/marrakech","city":"Marrakech"},{"name":"Pharmacie Hay ElJadid","address":"279 Bis, Centre Tassaltant II, Syba MARRAKECH","phone":"05 24 40 79 73","location":"https://www.telecontact.ma/plan-acces/pharmacie-hay-eljadid-/3198892/marrakech","city":"Marrakech"},{"name":"Pharmacie Hay Mabrouka","address":"lotiss. Mabrouka, imm. Jbel, Guéliz MARRAKECH","phone":"05 24 42 31 77","location":"https://www.telecontact.ma/plan-acces/pharmacie-hay-mabrouka-/3198884/marrakech","city":"Marrakech"},{"name":"Pharmacie Hay Machou","address":"236, Douar Machou, q. Inara MARRAKECH","phone":"06 61 33 33 57","location":"https://www.telecontact.ma/plan-acces/pharmacie-hay-machou-/3268328/marrakech","city":"Marrakech"},{"name":"Pharmacie Hay Semlalia","address":"11 Bis, bd Prince Moulay Abdallah, lotiss. Imad Eddine MARRAKECH","phone":"05 24 43 20 02","location":"https://www.telecontact.ma/plan-acces/pharmacie-hay-semlalia-/3121181/marrakech","city":"Marrakech"},{"name":"Pharmacie Hay Sinaï","address":"109, z.i. Sidi Ghanem  MARRAKECH","phone":"05 24 33 64 92","location":"","city":"Marrakech"},{"name":"Pharmacie Hay Tachfin","address":"8, lotiss. Bennani , Miress Azli MARRAKECH","phone":"05 24 34 98 27","location":"https://www.telecontact.ma/plan-acces/pharmacie-hay-tachfin-/3297433/marrakech","city":"Marrakech"},{"name":"Pharmacie Hay Zakariya","address":"150, lotiss. Zakaria, M'hamid MARRAKECH","phone":"05 24 37 15 72","location":"https://www.telecontact.ma/plan-acces/pharmacie-hay-zakariya-/3198938/marrakech","city":"Marrakech"},{"name":"Pharmacie Hind","address":"79, rue Bab Ahmar  MARRAKECH","phone":"05 24 38 45 66","location":"https://www.telecontact.ma/plan-acces/pharmacie-hind-/3086305/marrakech","city":"Marrakech"},{"name":"Pharmacie Hôpital Med VI","address":"169, lotiss. Boumessmar, Amerchich MARRAKECH","phone":"05 24 30 00 02","location":"","city":"Marrakech"},{"name":"Pharmacie Hôtel Wazo","address":"bd Abdelkrim Khattabi, rte de Casa MARRAKECH","phone":"05 24 30 58 43","location":"","city":"Marrakech"},{"name":"Pharmacie Houmane Elfatouaki","address":"956, bd Houmane El Fetouaki, Sidi Youssef Ben Ali MARRAKECH","phone":"05 24 40 55 54","location":"https://www.telecontact.ma/plan-acces/pharmacie-houmane-elfatouaki-/3086332/marrakech","city":"Marrakech"},{"name":"Pharmacie Ibn Al Aouam","address":"hay Massira I, Opération Doukkala 2 n°32, rte. d'Essaouira, 40000  MARRAKECH","phone":"05 24 34 65 46","location":"https://www.telecontact.ma/plan-acces/pharmacie-ibn-al-aouam-/3044893/marrakech","city":"Marrakech"},{"name":"Pharmacie Ibn Atia","address":"1, bd Abdelkerim Khattabi , hay Koudia MARRAKECH","phone":"05 24 43 27 77","location":"https://www.telecontact.ma/plan-acces/pharmacie-ibn-atia-/3292882/marrakech","city":"Marrakech"},{"name":"Pharmacie Ibn Bitar","address":"634, Douar Laâskar , 40000  MARRAKECH","phone":"05 24 39 25 91","location":"https://www.telecontact.ma/plan-acces/pharmacie-ibn-bitar-/3052044/marrakech","city":"Marrakech"},{"name":"Pharmacie Ibn Nafis","address":"8 Bis, bd Abdelkrim Khattabi, Guéliz, 40000  MARRAKECH","phone":"05 24 44 69 26","location":"https://www.telecontact.ma/plan-acces/pharmacie-ibn-nafis-/1784700/marrakech","city":"Marrakech"},{"name":"Pharmacie Ibn Rochd","address":"36, rue Ibn Aïcha, Guéliz, 40000  MARRAKECH","phone":"05 24 44 62 93","location":"https://www.telecontact.ma/plan-acces/pharmacie-ibn-rochd-/1783800/marrakech","city":"Marrakech"},{"name":"Pharmacie Ibn Tachfine","address":"442, bd Lamssalla, Sidi Youssef Ben Ali MARRAKECH","phone":"05 24 40 28 40","location":"https://www.telecontact.ma/plan-acces/pharmacie-ibn-tachfine-/3087233/marrakech","city":"Marrakech"},{"name":"Pharmacie Ibn Tofail","address":"rue Ibn Zaidoun ang. bd Derraq, 40000  MARRAKECH","phone":"05 24 44 85 69","location":"https://www.telecontact.ma/plan-acces/pharmacie-ibn-tofail-/1498400/marrakech","city":"Marrakech"},{"name":"Pharmacie Ibn Toumert","address":"13, lotiss. Ibn Toumert , hay El Hassani, rte d'Essaouira, 40000  MARRAKECH","phone":"05 24 49 40 91","location":"https://www.telecontact.ma/plan-acces/pharmacie-ibn-toumert-/3042623/marrakech","city":"Marrakech"},{"name":"Pharmacie Ibn Zohr","address":"547, Hay M'hamid 4  MARRAKECH","phone":"05 24 37 27 95","location":"https://www.telecontact.ma/plan-acces/pharmacie-ibn-zohr-/3198916/marrakech","city":"Marrakech"},{"name":"Pharmacie Ibnou Khaldoun","address":"lotiss. Syba III, C 10 n°7 Sidi Youssef Ben Ali, bd. El Houria MARRAKECH","phone":"05 24 40 06 92","location":"https://www.telecontact.ma/plan-acces/pharmacie-ibnou-khaldoun-/3087818/marrakech","city":"Marrakech"},{"name":"Pharmacie Idrissi","address":"74, bd Houmane El Fetouaki, Sidi Youssef BenAli MARRAKECH","phone":"05 24 40 65 79","location":"https://www.telecontact.ma/plan-acces/pharmacie-idrissi-/3086324/marrakech","city":"Marrakech"},{"name":"Pharmacie Illy","address":"rue Jamiaat Ben Youssef, Badii II Amerchich MARRAKECH","phone":"05 24 30 14 97","location":"https://www.telecontact.ma/plan-acces/pharmacie-illy-/3089280/marrakech","city":"Marrakech"},{"name":"Pharmacie Imam Mouslim","address":"381, lotiss. Saâda 6 (M'hamid)  MARRAKECH","phone":"05 24 36 00 61","location":"https://www.telecontact.ma/plan-acces/pharmacie-imam-mouslim-/3089990/marrakech","city":"Marrakech"},{"name":"Pharmacie Imane","address":"940, lotiss. Charaf, Manar C 3 MARRAKECH","phone":"05 24 31 45 84","location":"https://www.telecontact.ma/plan-acces/pharmacie-imane-/3227703/marrakech","city":"Marrakech"},{"name":"Pharmacie Ismailia","address":"4 C, Hay Assif B  MARRAKECH","phone":"05 24 30 52 54","location":"https://www.telecontact.ma/plan-acces/pharmacie-ismailia-/3121301/marrakech","city":"Marrakech"},{"name":"Pharmacie Issafarnes","address":"215, lotiss. Lalla Hayya, Targa MARRAKECH","phone":"05 24 49 82 38","location":"https://www.telecontact.ma/plan-acces/pharmacie-issafarnes-/3143009/marrakech","city":"Marrakech"},{"name":"Pharmacie Issil","address":"91, rue Abbass Ben Abdelmoutalib, q. Issil MARRAKECH","phone":"05 24 31 25 44","location":"https://www.telecontact.ma/plan-acces/pharmacie-issil-/3089333/marrakech","city":"Marrakech"},{"name":"Pharmacie Iziki","address":"1368, rte d' Essaouira, douar Iziki MARRAKECH","phone":"05 24 39 29 81","location":"https://www.telecontact.ma/plan-acces/pharmacie-iziki-/3089653/marrakech","city":"Marrakech"},{"name":"Pharmacie du Golf","address":"Souk Rbii, Bab Ghmat, Sidi Youssef Ben Ali, 40000  MARRAKECH","phone":"05 24 40 36 60","location":"https://www.telecontact.ma/plan-acces/pharmacie-du-golf-/1615600/marrakech","city":"Marrakech"},{"name":"Pharmacie du Haouz","address":"683 B, hay Massira I  MARRAKECH","phone":"05 24 34 05 26","location":"https://www.telecontact.ma/plan-acces/pharmacie-du-haouz-/3051858/marrakech","city":"Marrakech"},{"name":"Pharmacie du Kawkab","address":"36, bd Moulay Hassan, Kawkab Center, 40000  MARRAKECH","phone":"05 24 44 80 77","location":"https://www.telecontact.ma/plan-acces/pharmacie-du-kawkab-/2189033/marrakech","city":"Marrakech"},{"name":"Pharmacie du Maghreb","address":"8, rue Ibn Khaldoun , 40000  MARRAKECH","phone":"05 24 44 38 00","location":"https://www.telecontact.ma/plan-acces/pharmacie-du-maghreb-/0312000/marrakech","city":"Marrakech"},{"name":"Pharmacie du progrès","address":"56, pl. Jemaâ El Fena , 40000  MARRAKECH","phone":"05 24 44 25 63","location":"","city":"Marrakech"},{"name":"Pharmacie du Soleil","address":"28, lotiss. Sidi Abbad IV  MARRAKECH","phone":"05 24 30 57 56","location":"https://www.telecontact.ma/plan-acces/pharmacie-du-soleil-/3122064/marrakech","city":"Marrakech"},{"name":"Pharmacie Dyour Marjane","address":"rte de Casablanca, imm. dyour Marjane MARRAKECH","phone":"05 24 05 54 63","location":"https://www.telecontact.ma/plan-acces/pharmacie-dyour-marjane-/3331977/marrakech","city":"Marrakech"},{"name":"Pharmacie Eddafali","address":"1, rue Imam Ali, mosqué l'Hivernage MARRAKECH","phone":"05 24 43 89 09","location":"https://www.telecontact.ma/plan-acces/pharmacie-eddafali-/3163637/marrakech","city":"Marrakech"},{"name":"Pharmacie El Abiad","address":"286, lotiss. Socoma I, Askajour 2, lotiss. Fondation Hassan II MARRAKECH","phone":"05 24 39 55 45","location":"https://www.telecontact.ma/plan-acces/pharmacie-el-abiad-/3198827/marrakech","city":"Marrakech"},{"name":"Pharmacie El Badii","address":"198 Bis, Derb Ahl Souss, Berrima MARRAKECH","phone":"05 24 37 66 37","location":"https://www.telecontact.ma/plan-acces/pharmacie-el-badii-/3044533/marrakech","city":"Marrakech"},{"name":"Pharmacie El Basri","address":"5, rue Agadir, Azli, 40000  MARRAKECH","phone":"05 24 34 93 23","location":"https://www.telecontact.ma/plan-acces/pharmacie-el-basri-/3092264/marrakech","city":"Marrakech"},{"name":"Pharmacie El Filali","address":"2, bd Khalid Bnou Loualid, résid. Bakouri MARRAKECH","phone":"05 24 43 27 00","location":"https://www.telecontact.ma/plan-acces/pharmacie-el-filali-/3198829/marrakech","city":"Marrakech"},{"name":"Pharmacie El Hamidi","address":"26, rte de Fès, Aïn Itti, Municipalité Nakhil MARRAKECH","phone":"05 24 30 73 50","location":"https://www.telecontact.ma/plan-acces/pharmacie-el-hamidi-/3059234/marrakech","city":"Marrakech"},{"name":"Pharmacie El Housna","address":"767, lotiss. Al Houssna I, M'hamidi MARRAKECH","phone":"05 24 36 08 30","location":"https://www.telecontact.ma/plan-acces/pharmacie-el-housna-/3198832/marrakech","city":"Marrakech"},{"name":"Pharmacie El Imame Ali","address":"Quartier Ain Itti, Zohour I, imm. 631 MARRAKECH","phone":"05 24 32 88 68","location":"https://www.telecontact.ma/plan-acces/pharmacie-el-imame-ali-/3199067/marrakech","city":"Marrakech"},{"name":"Pharmacie El Kheir","address":"Douar Dlam, hay Jdid Tasseltant 2 MARRAKECH","phone":"05 24 40 67 30","location":"https://www.telecontact.ma/plan-acces/pharmacie-el-kheir-/3274080/marrakech","city":"Marrakech"},{"name":"Pharmacie El Machouar","address":"1, Sidi Amara, El Machouar , rte Ourika MARRAKECH","phone":"05 24 37 60 63","location":"https://www.telecontact.ma/plan-acces/pharmacie-el-machouar-/3198834/marrakech","city":"Marrakech"},{"name":"Pharmacie El Majd","address":"163, lotiss. Hamza I, Asekjour, M'hamid MARRAKECH","phone":"05 24 37 20 61","location":"https://www.telecontact.ma/plan-acces/pharmacie-el-majd-/3198836/marrakech","city":"Marrakech"},{"name":"Pharmacie El Massmoudi","address":"lotiss. Messmoudi, R29 Targa MARRAKECH","phone":"05 24 49 01 37","location":"https://www.telecontact.ma/plan-acces/pharmacie-el-massmoudi-/3198837/marrakech","city":"Marrakech"},{"name":"Pharmacie El Mellah","address":"1, Derb Sekia, hay Salam, Mellah MARRAKECH","phone":"05 24 38 52 29","location":"https://www.telecontact.ma/plan-acces/pharmacie-el-mellah-/3198839/marrakech","city":"Marrakech"},{"name":"Pharmacie Bab Ailen","address":"181, rue Bab Aylen, Médina MARRAKECH","phone":"05 24 44 37 38","location":"https://www.telecontact.ma/plan-acces/pharmacie-bab-ailen-/3067877/marrakech","city":"Marrakech"},{"name":"Pharmacie Bab Asfi","address":"488, lotiss. Bab Asfi, Al Azzouzia, Sidi Ghanem MARRAKECH","phone":"05 24 35 66 35","location":"https://www.telecontact.ma/plan-acces/pharmacie-bab-asfi-/3266614/marrakech","city":"Marrakech"},{"name":"Pharmacie Bab Assalam","address":"Hay M'hamid 9, n°323 MARRAKECH","phone":"05 24 20 26 38","location":"https://www.telecontact.ma/plan-acces/pharmacie-bab-assalam-/3320861/marrakech","city":"Marrakech"},{"name":"Pharmacie Bab Doukkala","address":"80, rue Boutouil Bab Doukkala , 40000  MARRAKECH","phone":"05 24 38 61 62","location":"https://www.telecontact.ma/plan-acces/pharmacie-bab-doukkala-/0310900/marrakech","city":"Marrakech"},{"name":"Pharmacie Bab Elkhemis","address":"rue Bab Lakhmis, kiss. Essaada n°6 MARRAKECH","phone":"05 24 30 12 84","location":"https://www.telecontact.ma/plan-acces/pharmacie-bab-elkhemis-/3198774/marrakech","city":"Marrakech"},{"name":"Pharmacie Bab Ftouh","address":"46, Pl. Bab Ftouh , 40000  MARRAKECH","phone":"05 24 44 26 78","location":"https://www.telecontact.ma/plan-acces/pharmacie-bab-ftouh-/0311000/marrakech","city":"Marrakech"},{"name":"Pharmacie Bab Jdid","address":"bd Paris, Hivernage MARRAKECH","phone":"05 24 43 00 54","location":"https://www.telecontact.ma/plan-acces/pharmacie-bab-jdid-/3198775/marrakech","city":"Marrakech"},{"name":"Pharmacie Bab Mansour","address":"Quartier Al Azzouzia, Opération Bab Mansour, imm. G n°31 MARRAKECH","phone":"06 22 68 45 13","location":"https://www.telecontact.ma/plan-acces/pharmacie-bab-mansour-/3268772/marrakech","city":"Marrakech"},{"name":"Pharmacie Bab Marrakech","address":"lotiss. Al Fadl, résid. AlFadl imm. 10 n°3 MARRAKECH","phone":"05 24 30 35 70","location":"https://www.telecontact.ma/plan-acces/pharmacie-bab-marrakech-/3267866/marrakech","city":"Marrakech"},{"name":"Pharmacie Badir","address":"Quartier Al Azzouzia, opération Bab Fteuh n°8 MARRAKECH","phone":"05 24 33 67 07","location":"https://www.telecontact.ma/plan-acces/pharmacie-badir-/3218827/marrakech","city":"Marrakech"},{"name":"Pharmacie Badre Addaoui","address":"26, lotiss. Taloujte II, Amerchich MARRAKECH","phone":"05 24 30 48 67","location":"https://www.telecontact.ma/plan-acces/pharmacie-badre-addaoui-/3069456/marrakech","city":"Marrakech"},{"name":"Pharmacie Baghdad","address":"133, Derb Jamaâ Lakbir (Syba)  MARRAKECH","phone":"05 24 40 66 68","location":"https://www.telecontact.ma/plan-acces/pharmacie-baghdad-/3069579/marrakech","city":"Marrakech"},{"name":"Pharmacie Bassatine Gueliz","address":"2, les portes de Gueliz  MARRAKECH","phone":"05 24 20 75 25","location":"https://www.telecontact.ma/plan-acces/pharmacie-bassatine-gueliz-/9017180/marrakech","city":"Marrakech"},{"name":"Pharmacie Bassatine Targa","address":"lotiss. Bassatine Targa, espaces Saada MARRAKECH","phone":"05 24 35 85 01","location":"https://www.telecontact.ma/plan-acces/pharmacie-bassatine-targa-/3318785/marrakech","city":"Marrakech"},{"name":"Pharmacie Bastoun","address":"lotiss. Annakhil, bloc 20 n°567, Sidi Youssef Ben Ali MARRAKECH","phone":"05 24 40 25 00","location":"https://www.telecontact.ma/plan-acces/pharmacie-bastoun-/3086272/marrakech","city":"Marrakech"},{"name":"Pharmacie Belbekkar","address":"lotiss. Sakar, lotiss. Belbakkar n°264, Daoudiate MARRAKECH","phone":"05 24 31 47 94","location":"https://www.telecontact.ma/plan-acces/pharmacie-belbekkar-/3044506/marrakech","city":"Marrakech"},{"name":"Pharmacie Belkaid","address":"lotiss. El Bassatine, Baraa bnou Malek, Targa MARRAKECH","phone":"07 00 87 00 40","location":"https://www.telecontact.ma/plan-acces/pharmacie-belkaid-/3340404/marrakech","city":"Marrakech"},{"name":"Pharmacie Belkziz","address":"5, hay El Bahja  MARRAKECH","phone":"05 24 49 21 04","location":"https://www.telecontact.ma/plan-acces/pharmacie-belkziz-/2214788/marrakech","city":"Marrakech"},{"name":"Pharmacie Belmejdoub","address":"lotiss. Oasis, hay Izdihar, rte de Safi MARRAKECH","phone":"05 24 33 66 77","location":"https://www.telecontact.ma/plan-acces/pharmacie-belmejdoub-/3291928/marrakech","city":"Marrakech"},{"name":"Pharmacie Ben Allal","address":"route Afaq , Addoha les portes de Marrakech n°2 MARRAKECH","phone":"05 24 01 13 32","location":"https://www.telecontact.ma/plan-acces/pharmacie-ben-allal-/3292885/marrakech","city":"Marrakech"},{"name":"Pharmacie Jananate","address":"lotiss. Al Izdihar II, rte de Safi, opération Anouar A3 MARRAKECH","phone":"05 24 33 58 00","location":"https://www.telecontact.ma/plan-acces/pharmacie-jananate-/3198906/marrakech","city":"Marrakech"},{"name":"Pharmacie Jardin Yassamine","address":"Centre Tamansourt, parc Yacine, G23, entrée 14, M1 MARRAKECH","phone":"05 24 01 31 78","location":"https://www.telecontact.ma/plan-acces/pharmacie-jardin-yassamine-/3268215/marrakech","city":"Marrakech"},{"name":"Pharmacie Jardins d'Agdal","address":"153, bd Agdal, Syba 4 MARRAKECH","phone":"05 24 40 97 65","location":"","city":"Marrakech"},{"name":"Pharmacie Jasmin","address":"1139, lotiss. Socoma I  MARRAKECH","phone":"05 24 49 41 62","location":"https://www.telecontact.ma/plan-acces/pharmacie-jasmin-/3144892/marrakech","city":"Marrakech"},{"name":"Pharmacie Jawhar","address":"rte de Targa, mag. n°3 et 4 Mosquée Jawhar Sidi Ghanem MARRAKECH","phone":"05 24 34 43 86","location":"","city":"Marrakech"},{"name":"Pharmacie Jawhara","address":"164, lotiss. Sidi Abbad II  MARRAKECH","phone":"05 24 30 74 18","location":"","city":"Marrakech"},{"name":"Pharmacie Jbal Gueliz","address":"137, hay Zitoune, q. Militaire n°114 MARRAKECH","phone":"05 24 45 86 35","location":"","city":"Marrakech"},{"name":"Pharmacie Jbilet","address":"100, lotiss. Jbilate, sidi Youssef ben Ali MARRAKECH","phone":"05 24 40 98 78","location":"","city":"Marrakech"},{"name":"Pharmacie Jebli","address":"Quartier Al Azzouzia, résid. Bayti, n°2 Mt 38 MARRAKECH","phone":"05 24 35 66 96","location":"","city":"Marrakech"},{"name":"Pharmacie Jenane Faiza","address":"Portes de marrakech , tranche 12 rte lafak MARRAKECH","phone":"05 24 01 18 90","location":"","city":"Marrakech"},{"name":"Pharmacie Jennan Essaada","address":"Douar Goundafi, résid. Saada II, imm. 5 n°4, Al Azzouzia MARRAKECH","phone":"05 24 33 61 63","location":"","city":"Marrakech"},{"name":"Pharmacie Jnane","address":"318 Bis, lotiss. Syba III, Sidi Youssef Ben Ali MARRAKECH","phone":"05 24 40 49 95","location":"","city":"Marrakech"},{"name":"Pharmacie Jnane Awrad","address":"Quartier Jnane Awrad , rte de Safi MARRAKECH","phone":"05 24 45 89 45","location":"","city":"Marrakech"},{"name":"Pharmacie Jnane ElAfia","address":"rue Jnane Lafia, Toualate MARRAKECH","phone":"05 24 37 64 76","location":"","city":"Marrakech"},{"name":"Pharmacie Jnane Slimane","address":"587, Hay M'hamid 9  MARRAKECH","phone":"05 24 37 12 45","location":"","city":"Marrakech"},{"name":"Pharmacie Kaadoud","address":"53, bd Prince Moulay Abdallah, imm. Ben Raïs, lotiss. Ali Ouhmade MARRAKECH","phone":"05 24 44 85 55","location":"","city":"Marrakech"},{"name":"Pharmacie Kabbadj","address":"1197, lotiss. Zerktouni (bouakkaz), M'hamid MARRAKECH","phone":"05 24 37 26 26","location":"","city":"Marrakech"},{"name":"Pharmacie Kamilia","address":"75, lotiss. Boutaina, 7 Assif D MARRAKECH","phone":"05 24 30 63 22","location":"","city":"Marrakech"},{"name":"Pharmacie Karam","address":"1548, lotiss. Socoma I, Askajour, Guéliz, 40000  MARRAKECH","phone":"05 24 34 98 88","location":"","city":"Marrakech"},{"name":"Pharmacie Kawtar","address":"6 Bis, Derb Ali Benasser, Sekhara Ennakhil sud MARRAKECH","phone":"05 24 32 88 92","location":"","city":"Marrakech"},{"name":"Pharmacie Kechich","address":"13, rue Bab Lakhmis, Sidi Jaber Kechich MARRAKECH","phone":"05 24 38 39 58","location":"https://www.telecontact.ma/plan-acces/pharmacie-kechich-/3121189/marrakech","city":"Marrakech"},{"name":"Pharmacie Kennaria","address":"94, rue Kennaria, Médina MARRAKECH","phone":"05 24 42 75 21","location":"https://www.telecontact.ma/plan-acces/pharmacie-kennaria-/3086322/marrakech","city":"Marrakech"},{"name":"Pharmacie Kenza","address":"299, hay Massira III, bloc C MARRAKECH","phone":"05 24 49 20 01","location":"https://www.telecontact.ma/plan-acces/pharmacie-kenza-/3165059/marrakech","city":"Marrakech"},{"name":"Pharmacie Kezibri","address":"Hay M'hamid, résid. Salama n°18 MARRAKECH","phone":"05 24 20 24 00","location":"https://www.telecontact.ma/plan-acces/pharmacie-kezibri-/3334122/marrakech","city":"Marrakech"},{"name":"Pharmacie Khalid Ben ElWalid","address":"hay Mohammadi, unité V, n°12, Daoudiate MARRAKECH","phone":"05 24 30 90 94","location":"https://www.telecontact.ma/plan-acces/pharmacie-khalid-ben-elwalid-/3044514/marrakech","city":"Marrakech"},{"name":"Pharmacie Ksar ElHamra","address":"170 Bis, rue Riad Zitoun Lakdim , 40000  MARRAKECH","phone":"05 24 42 61 54","location":"https://www.telecontact.ma/plan-acces/pharmacie-ksar-elhamra-/3040807/marrakech","city":"Marrakech"},{"name":"Pharmacie l'Aéroport de Marrakech","address":"aéroport Marrakech-Ménara  MARRAKECH","phone":"05 24 44 60 38","location":"","city":"Marrakech"},{"name":"Pharmacie l'Hivernage","address":"1, rue Cadi Ayad, Guéliz MARRAKECH","phone":"05 24 44 96 62","location":"","city":"Marrakech"},{"name":"Pharmacie l'Hôpital Militaire","address":"bd Mohammed VI, résid. Jacaranda n°3, 40000  MARRAKECH","phone":"05 24 44 93 16","location":"","city":"Marrakech"},{"name":"Pharmacie l'Hôpital Régional","address":"Hay M'hamid Sud, 30 Op Badr 2 Bouakhaz MARRAKECH","phone":"05 25 09 33 77","location":"","city":"Marrakech"},{"name":"Pharmacie l'Opéra","address":"bd Mohammed VI , 40000  MARRAKECH","phone":"05 24 42 09 94","location":"","city":"Marrakech"},{"name":"Pharmacie Akioud","address":"100 Bis, bd Akioud  MARRAKECH","phone":"05 24 42 03 55","location":"https://www.telecontact.ma/plan-acces/pharmacie-akioud-/3199020/marrakech","city":"Marrakech"},{"name":"Pharmacie Al Aksa","address":"4, lotiss. Doha, imm 4 zone 15,les portes de marrakech MARRAKECH","phone":"05 24 01 23 74","location":"https://www.telecontact.ma/plan-acces/pharmacie-al-aksa-/3318303/marrakech","city":"Marrakech"},{"name":"Pharmacie Al Akwas","address":"372, Hay M'hamid 4  MARRAKECH","phone":"05 24 36 14 86","location":"https://www.telecontact.ma/plan-acces/pharmacie-al-akwas-/3198747/marrakech","city":"Marrakech"},{"name":"Pharmacie Al Amana","address":"rte Ait Ourir, douar ouled El Garne n°78 MARRAKECH","phone":"05 24 32 83 28","location":"https://www.telecontact.ma/plan-acces/pharmacie-al-amana-/3312846/marrakech","city":"Marrakech"},{"name":"Pharmacie Al Badre","address":"985, Hay M'hamid 2  MARRAKECH","phone":"05 24 37 20 24","location":"https://www.telecontact.ma/plan-acces/pharmacie-al-badre-/3198821/marrakech","city":"Marrakech"},{"name":"Pharmacie Al Boustane","address":"bd Allal El Fassi, opération Boustane II , imm. B n°10 MARRAKECH","phone":"05 24 30 40 04","location":"https://www.telecontact.ma/plan-acces/pharmacie-al-boustane-/3217687/marrakech","city":"Marrakech"},{"name":"Pharmacie Al Firdaous","address":"15, lotiss. Hamza II, M'hamid MARRAKECH","phone":"05 24 36 06 46","location":"https://www.telecontact.ma/plan-acces/pharmacie-al-firdaous-/3198822/marrakech","city":"Marrakech"},{"name":"Pharmacie Al Ghofrane","address":"1177, hay Saada, lotiss. Afaq MARRAKECH","phone":"05 24 01 10 10","location":"","city":"Marrakech"},{"name":"Pharmacie Al Hamd","address":"251, lotiss. Zerktouni (bouakkaz), M'hamid MARRAKECH","phone":"05 24 36 10 40","location":"","city":"Marrakech"},{"name":"Pharmacie Al Harakat","address":"rte d' Ourika, douar El Harakate MARRAKECH","phone":"05 24 38 30 60","location":"","city":"Marrakech"},{"name":"Pharmacie Al Ihssane","address":"45, Dar Al Bir Oualihssane, cité Mohammadi, Amerchich MARRAKECH","phone":"05 24 30 24 10","location":"","city":"Marrakech"},{"name":"Pharmacie Al Imam Malek","address":"17, bd Allal El Fassi, opération elhouda MARRAKECH","phone":"05 24 31 15 95","location":"","city":"Marrakech"},{"name":"Pharmacie Al Imane","address":"1592, bd Al Orouba, lot Maatallah, M'hamid MARRAKECH","phone":"05 24 37 26 01","location":"","city":"Marrakech"},{"name":"Pharmacie Al Inara","address":"367, lotiss. Inara, bloc 4 MARRAKECH","phone":"05 24 34 55 81","location":"","city":"Marrakech"},{"name":"Pharmacie Al Manal","address":"877, lotiss. Zerktouni (bouakkaz), M'hamid MARRAKECH","phone":"05 24 37 27 08","location":"","city":"Marrakech"},{"name":"Pharmacie Al Marifa","address":"bd Prince Moulay Abdallah  MARRAKECH","phone":"05 24 44 76 97","location":"","city":"Marrakech"},{"name":"Pharmacie Al Quods","address":"bd Allal El Fassi, n°7, 40000  MARRAKECH","phone":"05 24 30 82 94","location":"","city":"Marrakech"},{"name":"Pharmacie AlAbawayn","address":"lotiss. Al Fadl, 3°éme. Tranche imm.B2 Jnanat MARRAKECH","phone":"05 24 33 02 27","location":"","city":"Marrakech"},{"name":"Pharmacie AlAkhawayne","address":"2531, Quartier Al Azzouzia, douar Chaouf El Ayyadi MARRAKECH","phone":"05 24 33 52 53","location":"","city":"Marrakech"},{"name":"Pharmacie Alamal","address":"30, rue Sidi Boulaâbada , 40000  MARRAKECH","phone":"05 24 37 70 96","location":"","city":"Marrakech"},{"name":"Pharmacie l'Orchidée","address":"9, rue Ibn El Cadi, Guéliz MARRAKECH","phone":"05 24 44 91 60","location":"","city":"Marrakech"},{"name":"Pharmacie la Cité Universitaire","address":"42, lotiss. Bougharbal, Amerchich, hay Mohammadie, 40000  MARRAKECH","phone":"05 24 31 10 21","location":"","city":"Marrakech"},{"name":"Pharmacie La Croix Verte","address":"Hay M'hamid 7, Imam Talha n°4, 40160  MARRAKECH","phone":"05 24 37 27 90","location":"","city":"Marrakech"},{"name":"Pharmacie La Famille","address":"269, lotiss. Azli Sud II  MARRAKECH","phone":"05 24 39 49 20","location":"","city":"Marrakech"},{"name":"Pharmacie la Fierté","address":"rte d' Agadir, Ain Dada MARRAKECH","phone":"05 24 39 52 58","location":"","city":"Marrakech"},{"name":"Pharmacie les Résidences Nouha","address":"2296, lotiss. Maatallah, M'hamid MARRAKECH","phone":"05 24 37 27 85","location":"","city":"Marrakech"},{"name":"Pharmacie les Trois Palmiers","address":"Quartier Al Azzouzia, résidence Trois Palmiers, n°15 MARRAKECH","phone":"05 24 35 53 12","location":"https://www.telecontact.ma/plan-acces/pharmacie-les-trois-palmiers-/3279180/marrakech","city":"Marrakech"},{"name":"Pharmacie les Vergers","address":"lotiss. Akioud, lot Badr 16 MARRAKECH","phone":"05 24 42 33 78","location":"https://www.telecontact.ma/plan-acces/pharmacie-les-vergers-/3343350/marrakech","city":"Marrakech"},{"name":"Pharmacie Lina","address":"803, Hay M'hamid 5  MARRAKECH","phone":"05 24 36 11 17","location":"https://www.telecontact.ma/plan-acces/pharmacie-lina-/3268008/marrakech","city":"Marrakech"},{"name":"Pharmacie Lkssour","address":"10, lotiss. Al Hamra, Amerchich MARRAKECH","phone":"05 24 33 16 12","location":"https://www.telecontact.ma/plan-acces/pharmacie-lkssour-/3198914/marrakech","city":"Marrakech"},{"name":"Pharmacie Loudaya","address":"Tnine Oudaya , Ménara MARRAKECH","phone":"05 24 36 90 48","location":"","city":"Marrakech"},{"name":"Pharmacie Loughribi","address":"244, Dar Tounsi, Annakhil aïn Itti MARRAKECH","phone":"05 24 32 80 55","location":"","city":"Marrakech"},{"name":"Pharmacie M'Hamdia","address":"rte Nationale 8, km. 9 MARRAKECH","phone":"05 24 32 93 82","location":"","city":"Marrakech"},{"name":"Pharmacie Maâtallah","address":"495, lotiss. Maatallah, M'hamid MARRAKECH","phone":"05 24 36 06 68","location":"","city":"Marrakech"},{"name":"Pharmacie Mahaj Essalam","address":"6, rue Dar Essalam, c.com resid. dar Essalam MARRAKECH","phone":"05 24 01 27 72","location":"","city":"Marrakech"},{"name":"Pharmacie Majda","address":"z.i. Sidi Ghanem, résid. Al Firdaous Lot Tayssir MARRAKECH","phone":"07 00 86 33 80","location":"","city":"Marrakech"},{"name":"Pharmacie Mamar Annakhil","address":"336, lotiss. Belbekar II, Daoudiate MARRAKECH","phone":"05 24 30 78 76","location":"","city":"Marrakech"},{"name":"Pharmacie Mamoune","address":"58, Douar Sraghna, Laqdim MARRAKECH","phone":"05 24 30 59 72","location":"","city":"Marrakech"},{"name":"Pharmacie Mamounia","address":"rue Oqba Bnou Nafiaa , 40000  MARRAKECH","phone":"05 24 38 41 46","location":"","city":"Marrakech"},{"name":"Pharmacie Maniss","address":"12, lotiss. Merstane III, Amerchich, 40000  MARRAKECH","phone":"05 24 30 13 27","location":"","city":"Marrakech"},{"name":"Pharmacie Mansoura","address":"rue Khalid Bnou Loualid, 25 imm. Rachadi, Guéliz MARRAKECH","phone":"05 24 43 46 46","location":"","city":"Marrakech"},{"name":"Pharmacie Marché de Gros","address":"111, lotiss. Al Massar I, q.i. Sidi Ghanem MARRAKECH","phone":"05 24 33 64 77","location":"","city":"Marrakech"},{"name":"Pharmacie Marjane","address":"bd Abdelkrim Khattabi, c.com. Marjane n°5 MARRAKECH","phone":"05 24 31 27 23","location":"","city":"Marrakech"},{"name":"Pharmacie Marjane Al Massira","address":"rte d' Agadir, c.com. Marjane Massira MARRAKECH","phone":"05 24 34 64 56","location":"","city":"Marrakech"},{"name":"Pharmacie Masjid Daoudiate","address":"hay Mohammadi, bloc 41, unité 2 n°597, Daoudiate MARRAKECH","phone":"05 24 30 97 82","location":"","city":"Marrakech"},{"name":"Pharmacie Zohour Targa","address":"7, Mosquée Saad Ibn Abi Waqqas , opération Zohour MARRAKECH","phone":"05 25 04 51 94","location":"https://www.telecontact.ma/plan-acces/pharmacie-zohour-targa-/9017189/marrakech","city":"Marrakech"},{"name":"Grande  Pharmacie M'hamid","address":"86, lotiss. Saâda 1 (M'hamid)  MARRAKECH","phone":"05 24 37 03 33","location":"","city":"Marrakech"},{"name":"La Grande  Pharmacie Attawhid","address":"hay Mabrouka, porte Gueliz MARRAKECH","phone":"05 24 44 84 57","location":"https://www.telecontact.ma/plan-acces/la-grande-pharmacie-attawhid-/3315858/marrakech","city":"Marrakech"},{"name":"Pharmacie 11 Janvier","address":"10, bd Onze Janvier, ang. Yahia Lmansour MARRAKECH","phone":"05 24 44 74 70","location":"https://www.telecontact.ma/plan-acces/pharmacie-11-janvier-/3198718/marrakech","city":"Marrakech"},{"name":"Pharmacie Abdelkarim ElKhattabi","address":"154, bd Abdelkrim Khattabi, Guéliz MARRAKECH","phone":"05 24 43 93 72","location":"https://www.telecontact.ma/plan-acces/pharmacie-abdelkarim-elkhattabi-/3044385/marrakech","city":"Marrakech"},{"name":"Pharmacie Abihafs","address":"rte d' Essaouira, les portes de Marrakech MARRAKECH","phone":"05 24 01 78 96","location":"https://www.telecontact.ma/plan-acces/pharmacie-abihafs-/3317490/marrakech","city":"Marrakech"},{"name":"Pharmacie Abraj AlKoutoubia","address":"Hay M'hamid 9, lotiss. Addoha, imm. Abraj MARRAKECH","phone":"05 24 37 00 44","location":"https://www.telecontact.ma/plan-acces/pharmacie-abraj-alkoutoubia-/3266105/marrakech","city":"Marrakech"},{"name":"Pharmacie Abwab Addoha","address":"les Portes de Marrakech II  MARRAKECH","phone":"05 24 01 29 44","location":"https://www.telecontact.ma/plan-acces/pharmacie-abwab-addoha-/3307001/marrakech","city":"Marrakech"},{"name":"Pharmacie Abwab AlKhair","address":"rte de Souihla, opération les Portes de Marrakech MARRAKECH","phone":"05 24 01 75 70","location":"https://www.telecontact.ma/plan-acces/pharmacie-abwab-alkhair-/3267869/marrakech","city":"Marrakech"},{"name":"Pharmacie Acharaf","address":"872, lotiss. Charaf  MARRAKECH","phone":"05 24 30 40 46","location":"https://www.telecontact.ma/plan-acces/pharmacie-acharaf-/3267679/marrakech","city":"Marrakech"},{"name":"Pharmacie Addaoui","address":"175, lotiss. Addaoui, M'hamid MARRAKECH","phone":"05 24 37 00 47","location":"https://www.telecontact.ma/plan-acces/pharmacie-addaoui-/3266965/marrakech","city":"Marrakech"},{"name":"Pharmacie Adoha","address":"56, lotiss. Azli  MARRAKECH","phone":"05 24 34 22 10","location":"https://www.telecontact.ma/plan-acces/pharmacie-adoha-/3144716/marrakech","city":"Marrakech"},{"name":"Pharmacie Adrar","address":"2169, lotiss. Maatallah, M'hamid MARRAKECH","phone":"05 24 37 20 08","location":"https://www.telecontact.ma/plan-acces/pharmacie-adrar-/3125672/marrakech","city":"Marrakech"},{"name":"Pharmacie Agdal","address":"1, Derb Soudeur, Sidi Youssef Ben Ali, 40000  MARRAKECH","phone":"05 24 40 29 21","location":"https://www.telecontact.ma/plan-acces/pharmacie-agdal-/0310500/marrakech","city":"Marrakech"},{"name":"Pharmacie Ain Itti","address":"Quartier Ain Itti, Jnanat 5 n°8 MARRAKECH","phone":"05 24 30 40 72","location":"https://www.telecontact.ma/plan-acces/pharmacie-ain-itti-/3199063/marrakech","city":"Marrakech"},{"name":"Pharmacie Aïn Mezouar","address":"308, Quartier Ain Mezouar, Ménara MARRAKECH","phone":"05 24 34 22 86","location":"","city":"Marrakech"},{"name":"Pharmacie Ain Souna","address":"25, Lamhamid , Gh8 imm.A6 MARRAKECH","phone":"05 24 37 12 72","location":"https://www.telecontact.ma/plan-acces/pharmacie-ain-souna-/9019146/marrakech","city":"Marrakech"},{"name":"Pharmacie Essaadiyne","address":"58, Derb Boutouil (Kasbah) , 40000  MARRAKECH","phone":"05 24 38 18 52","location":"https://www.telecontact.ma/plan-acces/pharmacie-essaadiyne-/0311600/marrakech","city":"Marrakech"},{"name":"Pharmacie Essajda","address":"Hay M'hamid 9, entrée de la Banque populaire MARRAKECH","phone":"05 24 36 07 76","location":"https://www.telecontact.ma/plan-acces/pharmacie-essajda-/3268331/marrakech","city":"Marrakech"},{"name":"Pharmacie Ettaoufik","address":"371, lotiss. Iziki  MARRAKECH","phone":"05 24 49 37 65","location":"https://www.telecontact.ma/plan-acces/pharmacie-ettaoufik-/3144692/marrakech","city":"Marrakech"},{"name":"Pharmacie Ezzahraoui","address":"1, Bine Lakchali, cité des Oliviers Jdid MARRAKECH","phone":"05 24 43 74 98","location":"https://www.telecontact.ma/plan-acces/pharmacie-ezzahraoui-/3069476/marrakech","city":"Marrakech"},{"name":"Pharmacie Ezzaytoune","address":"3, hay Zitoune, Camp El Ghoul, Guéliz MARRAKECH","phone":"05 24 43 80 67","location":"https://www.telecontact.ma/plan-acces/pharmacie-ezzaytoune-/3198842/marrakech","city":"Marrakech"},{"name":"Pharmacie Fadil","address":"365, hay Massira II, bloc C, 40000  MARRAKECH","phone":"05 24 34 87 95","location":"https://www.telecontact.ma/plan-acces/pharmacie-fadil-/3044891/marrakech","city":"Marrakech"},{"name":"Pharmacie Fadila","address":"138, lotiss. SafSaf, Inara MARRAKECH","phone":"05 24 34 85 34","location":"https://www.telecontact.ma/plan-acces/pharmacie-fadila-/3267986/marrakech","city":"Marrakech"},{"name":"Pharmacie Fakhara","address":"130, hay El Fakhara, Ennakhil sud, Syba MARRAKECH","phone":"05 24 31 46 72","location":"https://www.telecontact.ma/plan-acces/pharmacie-fakhara-/3198845/marrakech","city":"Marrakech"},{"name":"Pharmacie Farabi","address":"246, bd Saquia, Syba MARRAKECH","phone":"05 24 40 43 03","location":"https://www.telecontact.ma/plan-acces/pharmacie-farabi-/3116882/marrakech","city":"Marrakech"},{"name":"Pharmacie Fath AlAndalous","address":"492, lotiss. Al Amane, M'hamid MARRAKECH","phone":"05 24 37 21 60","location":"https://www.telecontact.ma/plan-acces/pharmacie-fath-alandalous-/3267689/marrakech","city":"Marrakech"},{"name":"Pharmacie Fleming","address":"3, lotiss. Lamhita, Semlalia, guéliz MARRAKECH","phone":"05 24 42 22 26","location":"https://www.telecontact.ma/plan-acces/pharmacie-fleming-/3223795/marrakech","city":"Marrakech"},{"name":"Pharmacie Galien","address":"bd Abdelkrim Khattabi, lotiss. Bouyzgaren résid. l'Oasis MARRAKECH","phone":"05 24 42 17 75","location":"https://www.telecontact.ma/plan-acces/pharmacie-galien-/3221755/marrakech","city":"Marrakech"},{"name":"Pharmacie Guéliz","address":"52, bd Moulay Rachid, Guéliz, 40000  MARRAKECH","phone":"05 24 44 88 00","location":"","city":"Marrakech"},{"name":"Pharmacie Guennoun","address":"105, lotiss. Guennoun, 1ère tranche Palmeraie Nord, Syba MARRAKECH","phone":"05 24 32 85 18","location":"https://www.telecontact.ma/plan-acces/pharmacie-guennoun-/3199038/marrakech","city":"Marrakech"},{"name":"Pharmacie Hadaiq Hay Chrifia","address":"rte d'Elhadaik  MARRAKECH","phone":"05 24 37 16 59","location":"https://www.telecontact.ma/plan-acces/pharmacie-hadaiq-hay-chrifia-/3344848/marrakech","city":"Marrakech"},{"name":"Pharmacie Hadji","address":"289, lotiss. Annakhil, bloc 30, Syba MARRAKECH","phone":"05 24 40 77 87","location":"https://www.telecontact.ma/plan-acces/pharmacie-hadji-/3198843/marrakech","city":"Marrakech"},{"name":"Pharmacie Halima Essaadia","address":"2, rue Halima Saâdia, Issil MARRAKECH","phone":"05 24 31 06 06","location":"https://www.telecontact.ma/plan-acces/pharmacie-halima-essaadia-/3125644/marrakech","city":"Marrakech"},{"name":"Pharmacie Hamza","address":"Quartier Al Azzouzia, façade mosquée Aicha Oum Al Mouminin MARRAKECH","phone":"05 24 39 71 37","location":"https://www.telecontact.ma/plan-acces/pharmacie-hamza-/3312849/marrakech","city":"Marrakech"},{"name":"Pharmacie Hani","address":"rue Souria, lotiss. Saâda résid. AlAmane Gueliz MARRAKECH","phone":"05 24 43 99 14","location":"https://www.telecontact.ma/plan-acces/pharmacie-hani-/3176688/marrakech","city":"Marrakech"},{"name":"Pharmacie Harbil","address":"rte de Safi  MARRAKECH","phone":"06 68 27 53 50","location":"https://www.telecontact.ma/plan-acces/pharmacie-harbil-/3250180/marrakech","city":"Marrakech"},{"name":"Pharmacie Asseha","address":"28, hay Massira II, Opération Tafilalt III, 40000  MARRAKECH","phone":"05 24 34 04 73","location":"https://www.telecontact.ma/plan-acces/pharmacie-asseha-/3092315/marrakech","city":"Marrakech"},{"name":"Pharmacie Assif","address":"219, bd Allal El Fassi, unité 4 Daoudiate, 40000  MARRAKECH","phone":"05 24 30 30 35","location":"https://www.telecontact.ma/plan-acces/pharmacie-assif-/1784900/marrakech","city":"Marrakech"},{"name":"Pharmacie Assoraya","address":"lotiss. Charaf, imm. Dar Saada MARRAKECH","phone":"05 24 29 25 91","location":"https://www.telecontact.ma/plan-acces/pharmacie-assoraya-/3266980/marrakech","city":"Marrakech"},{"name":"Pharmacie Assounna","address":"384, Hay M'hamid  MARRAKECH","phone":"05 24 36 16 22","location":"https://www.telecontact.ma/plan-acces/pharmacie-assounna-/3089981/marrakech","city":"Marrakech"},{"name":"Pharmacie Atlas Targa","address":"centre commercial Carrefour Targa  MARRAKECH","phone":"05 24 39 28 39","location":"https://www.telecontact.ma/plan-acces/pharmacie-atlas-targa-/3312175/marrakech","city":"Marrakech"},{"name":"Pharmacie Attaiba","address":"23 Bis, lotiss. Salima  MARRAKECH","phone":"05 24 31 08 77","location":"https://www.telecontact.ma/plan-acces/pharmacie-attaiba-/3198724/marrakech","city":"Marrakech"},{"name":"Pharmacie Avenue Hassan II","address":"6, bd Hassan II, résid. Ajiad Guéliz MARRAKECH","phone":"05 24 42 13 17","location":"https://www.telecontact.ma/plan-acces/pharmacie-avenue-hassan-ii-/3166101/marrakech","city":"Marrakech"},{"name":"Pharmacie Avicenne","address":"112, bd Abdelkrim Khattabi , 40000  MARRAKECH","phone":"05 24 44 86 29","location":"https://www.telecontact.ma/plan-acces/pharmacie-avicenne-/1617700/marrakech","city":"Marrakech"},{"name":"Pharmacie Awatif","address":"Hay Assif C, lotiss. Awatif, imm. A1 MARRAKECH","phone":"05 24 33 12 93","location":"https://www.telecontact.ma/plan-acces/pharmacie-awatif-/3121179/marrakech","city":"Marrakech"},{"name":"Pharmacie Aya","address":"1436, rte Douar Koukou, Oasis Sidi Youssef MARRAKECH","phone":"05 24 40 01 40","location":"https://www.telecontact.ma/plan-acces/pharmacie-aya-/3270182/marrakech","city":"Marrakech"},{"name":"Pharmacie Ayour-Ex Azzouzia","address":"165 Bis, Douar Chaouf Layadi, Sidi Ghanem MARRAKECH","phone":"05 24 33 62 11","location":"https://www.telecontact.ma/plan-acces/pharmacie-ayour-ex-azzouzia-/3069440/marrakech","city":"Marrakech"},{"name":"Pharmacie Azli","address":"3, lotiss. Azli, quartier industriel MARRAKECH","phone":"05 24 34 25 13","location":"https://www.telecontact.ma/plan-acces/pharmacie-azli-/3144712/marrakech","city":"Marrakech"},{"name":"Pharmacie Azzahra","address":"107, rue Rahba Lakdima, médina, 40000  MARRAKECH","phone":"05 24 44 34 24","location":"https://www.telecontact.ma/plan-acces/pharmacie-azzahra-/1625000/marrakech","city":"Marrakech"},{"name":"Pharmacie Bab Aghmat","address":"57, bd Ba Hmad , 40000  MARRAKECH","phone":"05 24 38 79 22","location":"https://www.telecontact.ma/plan-acces/pharmacie-bab-aghmat-/1618500/marrakech","city":"Marrakech"},{"name":"Pharmacie Ben Saleh","address":"18, Derb Sidi Ishak, pl. Ben Saleh, 40000  MARRAKECH","phone":"05 24 37 89 82","location":"https://www.telecontact.ma/plan-acces/pharmacie-ben-saleh-/1498300/marrakech","city":"Marrakech"},{"name":"Pharmacie Ben Youssef","address":"rte de Casablanca, c.com. Riad Salam MARRAKECH","phone":"05 24 29 11 11","location":"https://www.telecontact.ma/plan-acces/pharmacie-ben-youssef-/3266982/marrakech","city":"Marrakech"},{"name":"Pharmacie Bennouna","address":"283, lotiss. Belbekar II, hay Mohammadi MARRAKECH","phone":"05 24 30 25 82","location":"https://www.telecontact.ma/plan-acces/pharmacie-bennouna-/3198726/marrakech","city":"Marrakech"},{"name":"Pharmacie Benzouine","address":"lotiss. Charaf, Yasmine II n°21 MARRAKECH","phone":"05 24 29 22 00","location":"https://www.telecontact.ma/plan-acces/pharmacie-benzouine-/3267328/marrakech","city":"Marrakech"},{"name":"Pharmacie Berradi Centrale","address":"34, lotiss. Berradi II, M'hamid 7 MARRAKECH","phone":"05 24 37 34 13","location":"https://www.telecontact.ma/plan-acces/pharmacie-berradi-centrale-/3266618/marrakech","city":"Marrakech"},{"name":"Pharmacie Berradi III","address":"179, lotiss. Berradi III, Socoma II MARRAKECH","phone":"05 24 34 04 10","location":"https://www.telecontact.ma/plan-acces/pharmacie-berradi-iii-/3219642/marrakech","city":"Marrakech"},{"name":"Pharmacie Bichara","address":"hay Massira III, Les Portes de Marrakech II, z. 25 MARRAKECH","phone":"05 24 01 11 74","location":"https://www.telecontact.ma/plan-acces/pharmacie-bichara-/3287587/marrakech","city":"Marrakech"},{"name":"Pharmacie Bidaya","address":"2, lotiss. Razi, Amerchich MARRAKECH","phone":"05 24 30 31 55","location":"https://www.telecontact.ma/plan-acces/pharmacie-bidaya-/3132146/marrakech","city":"Marrakech"},{"name":"Pharmacie Bilal","address":"96, hay Massira I, bloc C MARRAKECH","phone":"05 24 34 55 30","location":"https://www.telecontact.ma/plan-acces/pharmacie-bilal-/3088930/marrakech","city":"Marrakech"},{"name":"Pharmacie Bine Lekchali","address":"bd Cheikh Rabhi, n°A-4-2, Gueliz MARRAKECH","phone":"05 24 43 60 82","location":"https://www.telecontact.ma/plan-acces/pharmacie-bine-lekchali-/3137681/marrakech","city":"Marrakech"},{"name":"Pharmacie Bismi Allah","address":"266, z.i. Sidi Ghanem  MARRAKECH","phone":"05 24 33 57 49","location":"https://www.telecontact.ma/plan-acces/pharmacie-bismi-allah-/3089655/marrakech","city":"Marrakech"},{"name":"Pharmacie Borj Ennakhil","address":"9, rte de Fès, lotiss. Mejjat 3 MARRAKECH","phone":"05 24 32 97 89","location":"https://www.telecontact.ma/plan-acces/pharmacie-borj-ennakhil-/3198777/marrakech","city":"Marrakech"},{"name":"Pharmacie Borj Targa","address":"rte de Souihla, Targa MARRAKECH","phone":"05 24 34 34 60","location":"https://www.telecontact.ma/plan-acces/pharmacie-borj-targa-/3198779/marrakech","city":"Marrakech"},{"name":"Pharmacie Bouakkaz","address":"lotiss. Zerktouni (bouakkaz), M'hamid, bloc 11, 519 MARRAKECH","phone":"05 24 37 13 29","location":"https://www.telecontact.ma/plan-acces/pharmacie-bouakkaz-/3198780/marrakech","city":"Marrakech"},{"name":"Pharmacie Lamcella","address":"123, bd Al Madarisse, sidi Youssef ben Ali, 40000  MARRAKECH","phone":"05 24 40 38 60","location":"https://www.telecontact.ma/plan-acces/pharmacie-lamcella-/1497800/marrakech","city":"Marrakech"},{"name":"Pharmacie Lamhamid","address":"lotiss. Saâda 4 (M'hamid), Erac n°241 MARRAKECH","phone":"05 24 36 01 59","location":"https://www.telecontact.ma/plan-acces/pharmacie-lamhamid-/3089992/marrakech","city":"Marrakech"},{"name":"Pharmacie Larbaa","address":"2 Bis, bd Abdallah Ben Yacine  MARRAKECH","phone":"05 24 34 31 09","location":"https://www.telecontact.ma/plan-acces/pharmacie-larbaa-/3144774/marrakech","city":"Marrakech"},{"name":"Pharmacie le Caducee","address":"17, lotiss. Ighli VIII, M'hamid MARRAKECH","phone":"05 24 36 13 43","location":"https://www.telecontact.ma/plan-acces/pharmacie-le-caducee-/3089970/marrakech","city":"Marrakech"},{"name":"Pharmacie le Laurier","address":"247, hay Youssef Ibn Tachfine, z.i. Azli, 40000  MARRAKECH","phone":"05 24 49 10 60","location":"https://www.telecontact.ma/plan-acces/pharmacie-le-laurier-/3092248/marrakech","city":"Marrakech"},{"name":"Pharmacie le Pont","address":"hay Massira I, lot D MARRAKECH","phone":"05 24 34 37 11","location":"https://www.telecontact.ma/plan-acces/pharmacie-le-pont-/3314436/marrakech","city":"Marrakech"},{"name":"Pharmacie le Printemps","address":"1043, rte d' Essaouira, douar Iziki MARRAKECH","phone":"05 24 34 08 53","location":"https://www.telecontact.ma/plan-acces/pharmacie-le-printemps-/3089651/marrakech","city":"Marrakech"},{"name":"Pharmacie Les Cyprès","address":"127, lotiss. Mabrouka  MARRAKECH","phone":"05 24 43 02 03","location":"","city":"Marrakech"},{"name":"Pharmacie les Iris","address":"79, bd El Machaar El Haram, Sidi Abbad III MARRAKECH","phone":"05 24 30 72 60","location":"https://www.telecontact.ma/plan-acces/pharmacie-les-iris-/3121162/marrakech","city":"Marrakech"},{"name":"Pharmacie les Jardins de la Mamounia","address":"6, rue Bab Jdid  MARRAKECH","phone":"05 24 39 01 01","location":"https://www.telecontact.ma/plan-acces/pharmacie-les-jardins-de-la-mamounia-/3314370/marrakech","city":"Marrakech"},{"name":"Pharmacie les Jardins de la Ménara","address":"16, rue El Ikhaa, q.i. n°1 MARRAKECH","phone":"05 24 42 39 09","location":"","city":"Marrakech"},{"name":"Pharmacie les Narcisses","address":"243, bd Allal El Fassi, Unité V, Daoudiate MARRAKECH","phone":"05 24 30 73 63","location":"https://www.telecontact.ma/plan-acces/pharmacie-les-narcisses-/3051734/marrakech","city":"Marrakech"},{"name":"Pharmacie Les Orangers","address":"60, lotiss. Lalla Hayya, Targa MARRAKECH","phone":"05 24 39 42 69","location":"https://www.telecontact.ma/plan-acces/pharmacie-les-orangers-/3266598/marrakech","city":"Marrakech"},{"name":"Pharmacie Les Portes de Gueliz","address":"hay Mabrouka, résid. les portes de Guéliz tranche II imm.M3 Akloud MARRAKECH","phone":"05 24 43 88 61","location":"https://www.telecontact.ma/plan-acces/pharmacie-les-portes-de-gueliz-/3312844/marrakech","city":"Marrakech"},{"name":"Pharmacie les Portes de Marrakech","address":"rte de Souihla, les Porte de Marrakech grp. Addoha MARRAKECH","phone":"05 24 01 75 41","location":"","city":"Marrakech"},{"name":"Pharmacie Nakhil Mhamid","address":"5, av moulay Hassan , Mhamid MARRAKECH","phone":"05 24 36 12 36","location":"https://www.telecontact.ma/plan-acces/pharmacie-nakhil-mhamid-/3295186/marrakech","city":"Marrakech"},{"name":"Pharmacie Nassir","address":"227 Bis, lotiss. Annakhil, bloc 9 n°227, Sidi Youssef Ben Ali MARRAKECH","phone":"05 24 40 66 88","location":"https://www.telecontact.ma/plan-acces/pharmacie-nassir-/3199015/marrakech","city":"Marrakech"},{"name":"Pharmacie Natura","address":"bd Al Qadissia ang. rue Chouhada MARRAKECH","phone":"05 24 44 77 97","location":"https://www.telecontact.ma/plan-acces/pharmacie-natura-/3267863/marrakech","city":"Marrakech"},{"name":"Pharmacie Nazik","address":"142, lotiss. Al Massar I, z.i. rte de Safi MARRAKECH","phone":"05 24 35 60 76","location":"https://www.telecontact.ma/plan-acces/pharmacie-nazik-/3199017/marrakech","city":"Marrakech"},{"name":"Pharmacie Nouara de Marjane","address":"Douar Sraghna, Opération Nouara n°10 MARRAKECH","phone":"05 27 92 69 29","location":"https://www.telecontact.ma/plan-acces/pharmacie-nouara-de-marjane-/3267685/marrakech","city":"Marrakech"},{"name":"Pharmacie Noujoud","address":"rte de Safi, lotiss. Bouzgaren résid. Sofia bloc 4 n°19 MARRAKECH","phone":"05 24 44 60 06","location":"https://www.telecontact.ma/plan-acces/pharmacie-noujoud-/3268388/marrakech","city":"Marrakech"},{"name":"Pharmacie Noun Oualkalam","address":"29, Hay M'hamid 9  MARRAKECH","phone":"05 24 37 14 14","location":"https://www.telecontact.ma/plan-acces/pharmacie-noun-oualkalam-/3267882/marrakech","city":"Marrakech"},{"name":"Pharmacie Oisiria","address":"148, complexe commercial AlAtlas , Golf Chrifia MARRAKECH","phone":"05 24 36 30 20","location":"","city":"Marrakech"},{"name":"Pharmacie Oscar","address":"98, lotiss. Zaitoune, M'hamid MARRAKECH","phone":"05 24 37 39 18","location":"","city":"Marrakech"},{"name":"Pharmacie Oualili","address":"546, lotiss. Zerktouni (bouakkaz), M'hamid MARRAKECH","phone":"05 24 36 07 80","location":"","city":"Marrakech"},{"name":"Pharmacie Oudrhiri","address":"Hay M'hamid 6, entrés I , Wahat Ezzaitoune MARRAKECH","phone":"05 24 37 17 25","location":"","city":"Marrakech"},{"name":"Pharmacie Oued Lahjar","address":"rte de Fès, km 16 MARRAKECH","phone":"05 24 32 20 02","location":"","city":"Marrakech"},{"name":"Pharmacie Ouhoud","address":"294, lotiss. Messmoudi, Targa MARRAKECH","phone":"05 24 34 43 95","location":"","city":"Marrakech"},{"name":"Pharmacie Ouirgane","address":"526, lotiss. Al Houssna I, M'Hamid MARRAKECH","phone":"05 24 36 18 60","location":"","city":"Marrakech"},{"name":"Pharmacie Ouled Hassoune","address":"rte de Kalâa Sraghna  MARRAKECH","phone":"05 24 32 22 31","location":"","city":"Marrakech"},{"name":"Pharmacie Oum Rabii","address":"hay Massira III, C n°466 MARRAKECH","phone":"05 24 34 44 92","location":"","city":"Marrakech"},{"name":"Pharmacie Oumaima","address":"506, lotiss. Socoma I  MARRAKECH","phone":"05 24 49 69 12","location":"","city":"Marrakech"},{"name":"Pharmacie Palacio","address":"183, rue Mohamed El Beqqal, résid. Palacio, 40000  MARRAKECH","phone":"05 24 42 24 52","location":"","city":"Marrakech"},{"name":"Pharmacie Petersbourg","address":"717 B, hay Massira II  MARRAKECH","phone":"05 24 34 68 02","location":"","city":"Marrakech"},{"name":"Pharmacie Petit Marché","address":"7, bd 4ème Dmm, Camp El Ghoul MARRAKECH","phone":"05 24 43 17 88","location":"","city":"Marrakech"},{"name":"Pharmacie AlFadl","address":"133, lotiss. Charaf  MARRAKECH","phone":"05 24 30 56 62","location":"https://www.telecontact.ma/plan-acces/pharmacie-alfadl-/3267985/marrakech","city":"Marrakech"},{"name":"Pharmacie AlFajr","address":"Quartier Al Azzouzia, résid. Bab Mansour n°1099 MARRAKECH","phone":"05 40 03 01 16","location":"https://www.telecontact.ma/plan-acces/pharmacie-alfajr-/3270698/marrakech","city":"Marrakech"},{"name":"Pharmacie AlFath","address":"398, hay Massira II, bloc B MARRAKECH","phone":"05 24 34 67 55","location":"https://www.telecontact.ma/plan-acces/pharmacie-alfath-/3044405/marrakech","city":"Marrakech"},{"name":"Pharmacie AlHaramaine","address":"hay Massira III, Addoha Gh 10, zone 44M, mag. 13, Abwab Marrakech 2 MARRAKECH","phone":"05 40 06 97 77","location":"https://www.telecontact.ma/plan-acces/pharmacie-alharamaine-/3268007/marrakech","city":"Marrakech"},{"name":"Pharmacie AlHilal","address":"lotiss. Iziki II J1, Azli Sud MARRAKECH","phone":"05 24 34 23 98","location":"https://www.telecontact.ma/plan-acces/pharmacie-alhilal-/3088914/marrakech","city":"Marrakech"},{"name":"Pharmacie Alhouda","address":"368, lotiss. Sidi M’barek, Targa, hay Hassani, 40000  MARRAKECH","phone":"05 24 34 33 66","location":"https://www.telecontact.ma/plan-acces/pharmacie-alhouda-/3051854/marrakech","city":"Marrakech"},{"name":"Pharmacie Ali","address":"687 Bis, bd Houmane El Fetouaki, Sidi Youssef BenAli MARRAKECH","phone":"05 24 40 62 62","location":"https://www.telecontact.ma/plan-acces/pharmacie-ali-/3086327/marrakech","city":"Marrakech"},{"name":"Pharmacie AlIkhlasse","address":"773, lotiss. Azli Sud I  MARRAKECH","phone":"05 24 34 56 34","location":"https://www.telecontact.ma/plan-acces/pharmacie-alikhlasse-/3219800/marrakech","city":"Marrakech"},{"name":"Pharmacie Alirfane","address":"40, Hay Rouidat III , 40000  MARRAKECH","phone":"05 24 30 82 86","location":"https://www.telecontact.ma/plan-acces/pharmacie-alirfane-/3051737/marrakech","city":"Marrakech"},{"name":"Pharmacie Alistiklal","address":"bd 18 Novembre, Assif B n° 50 MARRAKECH","phone":"05 24 30 34 01","location":"https://www.telecontact.ma/plan-acces/pharmacie-alistiklal-/3142644/marrakech","city":"Marrakech"},{"name":"Pharmacie AlIzdihar","address":"332, lotiss. Al Izdihar I, rte Safi MARRAKECH","phone":"05 24 33 54 56","location":"https://www.telecontact.ma/plan-acces/pharmacie-alizdihar-/3266102/marrakech","city":"Marrakech"},{"name":"Pharmacie Alkasbah","address":"33, rue Sehrij Gnaoua, Kasbah MARRAKECH","phone":"05 24 37 67 78","location":"https://www.telecontact.ma/plan-acces/pharmacie-alkasbah-/3198786/marrakech","city":"Marrakech"},{"name":"Pharmacie AlKhabir","address":"hay Massira III, n° 203 A MARRAKECH","phone":"05 24 49 37 81","location":"https://www.telecontact.ma/plan-acces/pharmacie-alkhabir-/3165123/marrakech","city":"Marrakech"},{"name":"Pharmacie Alkhalil","address":"251 Bis, rue Dar El Makhzen, Kasba, 40000  MARRAKECH","phone":"05 24 38 36 62","location":"https://www.telecontact.ma/plan-acces/pharmacie-alkhalil-/3044503/marrakech","city":"Marrakech"},{"name":"Pharmacie AlKhawarizmi","address":"609, lotiss. Azli Sud I , 40000  MARRAKECH","phone":"05 25 08 49 75","location":"https://www.telecontact.ma/plan-acces/pharmacie-alkhawarizmi-/3092257/marrakech","city":"Marrakech"},{"name":"Pharmacie Allal ElFassi","address":"37, bd Allal El Fassi, Opération Hamra II MARRAKECH","phone":"05 24 31 00 59","location":"https://www.telecontact.ma/plan-acces/pharmacie-allal-elfassi-/3089242/marrakech","city":"Marrakech"},{"name":"Pharmacie AlMadariss","address":"210, bd Al Madarisse, Sidi Youssef Ben Ali MARRAKECH","phone":"05 24 40 11 71","location":"https://www.telecontact.ma/plan-acces/pharmacie-almadariss-/3134449/marrakech","city":"Marrakech"},{"name":"Pharmacie Almahata","address":"9, bd Prince Moulay Abdallah , 40000  MARRAKECH","phone":"05 24 43 04 06","location":"https://www.telecontact.ma/plan-acces/pharmacie-almahata-/0310700/marrakech","city":"Marrakech"},{"name":"Pharmacie AlManar","address":"1, rue Irak, résid. Al Manar, Ain Mezouar, Ménara MARRAKECH","phone":"05 24 42 04 87","location":"https://www.telecontact.ma/plan-acces/pharmacie-almanar-/3088928/marrakech","city":"Marrakech"},{"name":"Pharmacie AlManfalouti","address":"632, lotiss. Socoma II  MARRAKECH","phone":"05 24 49 32 84","location":"https://www.telecontact.ma/plan-acces/pharmacie-almanfalouti-/3270453/marrakech","city":"Marrakech"},{"name":"Pharmacie Sijilmassa","address":"209 Bis, rue Bin Lamaassar, Bab El Khamisse, 40000  MARRAKECH","phone":"05 24 38 35 11","location":"https://www.telecontact.ma/plan-acces/pharmacie-sijilmassa-/3051523/marrakech","city":"Marrakech"},{"name":"Pharmacie Simo","address":"958, lotiss. Maatallah, M'Hamid MARRAKECH","phone":"05 24 37 04 76","location":"https://www.telecontact.ma/plan-acces/pharmacie-simo-/3125659/marrakech","city":"Marrakech"},{"name":"Pharmacie Skalli","address":"368, Hay M'hamid 3  MARRAKECH","phone":"05 24 37 02 94","location":"https://www.telecontact.ma/plan-acces/pharmacie-skalli-/3069462/marrakech","city":"Marrakech"},{"name":"Pharmacie Socoma","address":"84 A, lotiss. Socoma I, Azli, 40000  MARRAKECH","phone":"05 24 49 45 71","location":"https://www.telecontact.ma/plan-acces/pharmacie-socoma-/3042468/marrakech","city":"Marrakech"},{"name":"Pharmacie Sofia","address":"lotiss. Sofia, résid. Bahia,Targa MARRAKECH","phone":"05 24 34 83 48","location":"https://www.telecontact.ma/plan-acces/pharmacie-sofia-/3266617/marrakech","city":"Marrakech"},{"name":"Pharmacie Soudri","address":"391, lotiss. Soudri, Socoma II MARRAKECH","phone":"05 24 34 41 73","location":"https://www.telecontact.ma/plan-acces/pharmacie-soudri-/3198862/marrakech","city":"Marrakech"},{"name":"Pharmacie Soufiane","address":"652, hay Youssef Ibn Tachfine, z.i. Azli MARRAKECH","phone":"05 24 49 36 88","location":"https://www.telecontact.ma/plan-acces/pharmacie-soufiane-/3089647/marrakech","city":"Marrakech"},{"name":"Pharmacie Souihla","address":"rte de Targa  MARRAKECH","phone":"05 24 49 14 24","location":"https://www.telecontact.ma/plan-acces/pharmacie-souihla-/3089706/marrakech","city":"Marrakech"},{"name":"Pharmacie Souk Kattara","address":"rte Nationale 7, centre Kettara, Souk Jamaa d'Mnabha, douar Slimane MARRAKECH","phone":"07 00 78 20 78","location":"https://www.telecontact.ma/plan-acces/pharmacie-souk-kattara-/9017758/marrakech","city":"Marrakech"},{"name":"Pharmacie Souk Laouad","address":"Douar Chaouf, rte de Targa, Al azzouzia MARRAKECH","phone":"05 24 35 62 55","location":"https://www.telecontact.ma/plan-acces/pharmacie-souk-laouad-/3318838/marrakech","city":"Marrakech"},{"name":"Pharmacie Sraghna","address":"Douar Sraghna, ElJadid MARRAKECH","phone":"05 24 33 04 12","location":"https://www.telecontact.ma/plan-acces/pharmacie-sraghna-/3269955/marrakech","city":"Marrakech"},{"name":"Pharmacie Sup de Co","address":"26, bd Prince Moulay Abdallah  MARRAKECH","phone":"05 24 42 33 33","location":"https://www.telecontact.ma/plan-acces/pharmacie-sup-de-co-/3140182/marrakech","city":"Marrakech"},{"name":"Pharmacie Tabhirte","address":"92, rue Sidi Abdallah El Fakhar, hay ElMoukof MARRAKECH","phone":"05 24 38 00 19","location":"https://www.telecontact.ma/plan-acces/pharmacie-tabhirte-/3134392/marrakech","city":"Marrakech"},{"name":"Pharmacie Tallaght","address":"hay Annakhil, n°144 sud Syba Sidi Youssef ben Ali MARRAKECH","phone":"05 24 40 30 11","location":"https://www.telecontact.ma/plan-acces/pharmacie-tallaght-/3312647/marrakech","city":"Marrakech"},{"name":"Pharmacie Targa","address":"Douar Laâskar, rte d'Essaouira, 40000  MARRAKECH","phone":"05 24 34 08 70","location":"https://www.telecontact.ma/plan-acces/pharmacie-targa-/0313300/marrakech","city":"Marrakech"},{"name":"Pharmacie Targa Palmier","address":"lotiss. Jawhara, Palmier Targa n°1, 40000  MARRAKECH","phone":"05 24 49 52 30","location":"","city":"Marrakech"},{"name":"Pharmacie Tensift","address":"37, Jnane 4, Sidi Youssef Ben Ali, 40000  MARRAKECH","phone":"05 24 40 42 26","location":"","city":"Marrakech"},{"name":"Pharmacie Tichka","address":"183, bd Al Barrada, Sidi Youssef Ben Ali MARRAKECH","phone":"05 24 40 42 63","location":"","city":"Marrakech"},{"name":"Pharmacie Tikida","address":"rte de Fès, n°152 Aïn Atti MARRAKECH","phone":"05 24 32 83 23","location":"","city":"Marrakech"},{"name":"Pharmacie Tilila","address":"Centre Targa, résid. les Roses de la Targa n°4 MARRAKECH","phone":"05 24 34 51 61","location":"","city":"Marrakech"},{"name":"Pharmacie Chaab","address":"541, lotiss. Berradi II, M'hamid 7 MARRAKECH","phone":"05 24 37 36 49","location":"https://www.telecontact.ma/plan-acces/pharmacie-chaab-/3276328/marrakech","city":"Marrakech"},{"name":"Pharmacie Chahrazad","address":"hay Mohammadi, Unité 3 n°212, Daoudiate, 40000  MARRAKECH","phone":"05 24 30 57 57","location":"https://www.telecontact.ma/plan-acces/pharmacie-chahrazad-/3042778/marrakech","city":"Marrakech"},{"name":"Pharmacie Chair ElHamra","address":"36, rue Abou Oubaida, unité 2, cité Mohammadi, Daoudiate MARRAKECH","phone":"05 24 30 27 66","location":"https://www.telecontact.ma/plan-acces/pharmacie-chair-elhamra-/3090899/marrakech","city":"Marrakech"},{"name":"Pharmacie Chama","address":"hay Andalous, Massira 1 n°391 MARRAKECH","phone":"05 24 30 90 03","location":"https://www.telecontact.ma/plan-acces/pharmacie-chama-/3305908/marrakech","city":"Marrakech"},{"name":"Pharmacie Chaouf","address":"34, Douar Goundafi, rte de Targa, Al Azzouzia MARRAKECH","phone":"05 24 35 65 77","location":"https://www.telecontact.ma/plan-acces/pharmacie-chaouf-/3199023/marrakech","city":"Marrakech"},{"name":"Pharmacie Chatebi","address":"535, lotiss. Belbekar II, hay Mohammadi MARRAKECH","phone":"05 24 30 43 96","location":"https://www.telecontact.ma/plan-acces/pharmacie-chatebi-/3198783/marrakech","city":"Marrakech"},{"name":"Pharmacie Chater","address":"51, Arsat El Bardi Jadida, Médina MARRAKECH","phone":"05 24 37 64 44","location":"https://www.telecontact.ma/plan-acces/pharmacie-chater-/3198784/marrakech","city":"Marrakech"},{"name":"Pharmacie Chichid","address":"rte de Safi, Herbil MARRAKECH","phone":"06 15 13 26 20","location":"https://www.telecontact.ma/plan-acces/pharmacie-chichid-/3250075/marrakech","city":"Marrakech"},{"name":"Pharmacie Chifaa","address":"hay Massira I,Tafilalte II n° 20 MARRAKECH","phone":"05 24 34 96 80","location":"https://www.telecontact.ma/plan-acces/pharmacie-chifaa-/3043145/marrakech","city":"Marrakech"},{"name":"Pharmacie Chouhada","address":"255, bd Al Barrada, Sidi Youssef Ben Ali MARRAKECH","phone":"05 24 40 46 26","location":"https://www.telecontact.ma/plan-acces/pharmacie-chouhada-/3086320/marrakech","city":"Marrakech"},{"name":"Pharmacie Chouitar","address":"rte d' Ouarzazate, cercle Alouidane, km 22 MARRAKECH","phone":"05 24 48 42 61","location":"https://www.telecontact.ma/plan-acces/pharmacie-chouitar-/3199028/marrakech","city":"Marrakech"},{"name":"Pharmacie Cité Yasmine","address":"rte de Casablanca, c.com. Yasmine MARRAKECH","phone":"05 24 29 20 77","location":"","city":"Marrakech"},{"name":"Pharmacie Complexe Askajour","address":"lotiss. Socoma I, Askajour, E2 M'hamid MARRAKECH","phone":"05 24 37 18 00","location":"https://www.telecontact.ma/plan-acces/pharmacie-complexe-askajour-/3267338/marrakech","city":"Marrakech"},{"name":"Pharmacie Conseil","address":"119, lotiss. Iziki V  MARRAKECH","phone":"05 24 34 29 49","location":"https://www.telecontact.ma/plan-acces/pharmacie-conseil-/3199031/marrakech","city":"Marrakech"},{"name":"Pharmacie Dakar","address":"Quartier Al Azzouzia, Bab Enakhla 1, Sidi Ghanem MARRAKECH","phone":"05 24 35 65 82","location":"https://www.telecontact.ma/plan-acces/pharmacie-dakar-/3253910/marrakech","city":"Marrakech"},{"name":"Pharmacie Daoudiat","address":"bd Allal El Fassi, lot Sine n°14 Daoudiat, 40000  MARRAKECH","phone":"05 24 30 25 69","location":"https://www.telecontact.ma/plan-acces/pharmacie-daoudiat-/1620000/marrakech","city":"Marrakech"},{"name":"Pharmacie Dar Bakka","address":"rte de Fès, km 20 MARRAKECH","phone":"05 24 32 23 74","location":"","city":"Marrakech"},{"name":"Pharmacie Dar El Bacha","address":"17, bd Fatima Zahra, R'mila, 40000  MARRAKECH","phone":"05 24 38 69 88","location":"","city":"Marrakech"},{"name":"Pharmacie Dar Lahlib","address":"144, hay Zitoun Jdid  MARRAKECH","phone":"05 24 45 83 64","location":"","city":"Marrakech"},{"name":"Pharmacie Dar Saada","address":"hay Saada, Dar Saada, imm. 93 n°6 MARRAKECH","phone":"05 24 29 09 49","location":"","city":"Marrakech"}]