[{"name":"Pharmacie Annour","address":"260, rte Cabo Negro  MARTIL","phone":"05 39 68 83 96","location":"https://www.telecontact.ma/plan-acces/pharmacie-annour-/3064496/martil","city":"Martil"},{"name":"Pharmacie Dar D'Mana","address":"av. Mly Rachid Miramar MARTIL","phone":"05 39 68 89 23","location":"","city":"Martil"},{"name":"Pharmacie Del-Lero","address":"Rue Mer Meditérranée , cplxe. Essafia bloc 36 n°1 MARTIL","phone":"05 39 68 89 07","location":"https://www.telecontact.ma/plan-acces/pharmacie-del-lero-/3239113/martil","city":"Martil"},{"name":"Pharmacie Diza","address":"av. Diza  MARTIL","phone":"05 39 68 99 42","location":"https://www.telecontact.ma/plan-acces/pharmacie-diza-/3292785/martil","city":"Martil"},{"name":"Pharmacie du Lycée","address":"bd Ibn Sina  MARTIL","phone":"05 39 68 96 68","location":"","city":"Martil"},{"name":"Pharmacie ElBorj","address":"46, av Mly Abdeslam  MARTIL","phone":"05 39 68 85 84","location":"https://www.telecontact.ma/plan-acces/pharmacie-elborj-/3148066/martil","city":"Martil"},{"name":"Pharmacie ElHadj","address":"331, av. My Rachid  MARTIL","phone":"05 39 68 83 92","location":"https://www.telecontact.ma/plan-acces/pharmacie-elhadj-/3126582/martil","city":"Martil"},{"name":"Pharmacie Elharamaine","address":"av. Mly Rachid  MARTIL","phone":"05 39 68 88 30","location":"https://www.telecontact.ma/plan-acces/pharmacie-elharamaine-/3047111/martil","city":"Martil"},{"name":"Pharmacie La Corniche","address":"av. La Corniche , lot Karima MARTIL","phone":"05 39 68 96 35","location":"https://www.telecontact.ma/plan-acces/pharmacie-la-corniche-/3224141/martil","city":"Martil"},{"name":"Pharmacie la Mosquée","address":"109, av. de la résistance  MARTIL","phone":"05 39 97 97 75","location":"","city":"Martil"},{"name":"Pharmacie la playa","address":"5, av. la plage  MARTIL","phone":"05 39 68 80 08","location":"https://www.telecontact.ma/plan-acces/pharmacie-la-playa-/3064493/martil","city":"Martil"},{"name":"Pharmacie Martil","address":"28, av Mly ElHassan  MARTIL","phone":"05 39 97 93 53","location":"https://www.telecontact.ma/plan-acces/pharmacie-martil-/3047113/martil","city":"Martil"},{"name":"Pharmacie Miramar","address":"av. My Rachid (ex Miramar)  MARTIL","phone":"05 39 68 84 59","location":"https://www.telecontact.ma/plan-acces/pharmacie-miramar-/3105713/martil","city":"Martil"},{"name":"Pharmacie My Abdeslam","address":"25, av. Mly ElMehdi  MARTIL","phone":"05 39 68 93 88","location":"https://www.telecontact.ma/plan-acces/pharmacie-my-abdeslam-/3064486/martil","city":"Martil"},{"name":"Pharmacie Nouvelle","address":"bd Mly ElHassan  MARTIL","phone":"05 39 97 95 47","location":"https://www.telecontact.ma/plan-acces/pharmacie-nouvelle-/3049524/martil","city":"Martil"},{"name":"Pharmacie Oumkeltoum","address":"Lotiss. Oumkeltoum , résid. Bahia, rdc n°1 MARTIL","phone":"05 39 97 93 26","location":"https://www.telecontact.ma/plan-acces/pharmacie-oumkeltoum-/3288198/martil","city":"Martil"},{"name":"Pharmacie Principale","address":"159, bd Mly ElHassan  MARTIL","phone":"05 39 68 96 96","location":"https://www.telecontact.ma/plan-acces/pharmacie-principale-/3046250/martil","city":"Martil"},{"name":"Pharmacie Réda","address":"119, Prince Héritier  MARTIL","phone":"05 39 68 80 88","location":"","city":"Martil"},{"name":"Pharmacie Souk","address":"1, av. Mohammed V  MARTIL","phone":"05 39 68 92 56","location":"https://www.telecontact.ma/plan-acces/pharmacie-souk-/3047106/martil","city":"Martil"},{"name":"Farmacia AlMenzah","address":"rue El Menzeh, hay Ahrik MARTIL","phone":"05 39 68 63 05","location":"https://www.telecontact.ma/plan-acces/farmacia-almenzah-/9001960/martil","city":"Martil"},{"name":"Pharmacie AlAbrar","address":"quartier Al Montalaq  MARTIL","phone":"05 39 68 94 05","location":"https://www.telecontact.ma/plan-acces/pharmacie-alabrar-/3268401/martil","city":"Martil"},{"name":"Pharmacie AlAghrass","address":"169, av. My ElHassan Hay AlArghrass  MARTIL","phone":"05 39 68 99 33","location":"https://www.telecontact.ma/plan-acces/pharmacie-alaghrass-/3064489/martil","city":"Martil"}]