[{"name":"Pharmacie Najat","address":"71, lot. Tissir , 20490  MEDIOUNA","phone":"05 22 51 90 07","location":"https://www.telecontact.ma/plan-acces/pharmacie-najat-/2222794/mediouna","city":"Mediouna"},{"name":"Pharmacie Nasr Allah","address":"43, lot. Nasr Allah II , 20490  MEDIOUNA","phone":"05 22 33 85 09","location":"https://www.telecontact.ma/plan-acces/pharmacie-nasr-allah-/2186635/mediouna","city":"Mediouna"},{"name":"Pharmacie Omar","address":"42, lot. Nasser Allah 1 , 20490  MEDIOUNA","phone":"05 22 33 88 24","location":"https://www.telecontact.ma/plan-acces/pharmacie-omar-/3037906/mediouna","city":"Mediouna"},{"name":"grande  Pharmacie Yasmine","address":"Mediouna centre , 20490  MEDIOUNA","phone":"05 22 33 81 24","location":"https://www.telecontact.ma/plan-acces/grande-pharmacie-yasmine-/0885800/mediouna","city":"Mediouna"},{"name":"Pharmacie Douaa AlKhair","address":"7, bd Mohammed V , Grp Belfakir, Mediouna, 20490  MEDIOUNA","phone":"05 22 51 96 96","location":"https://www.telecontact.ma/plan-acces/pharmacie-douaa-alkhair-/3101827/mediouna","city":"Mediouna"},{"name":"Pharmacie El Mohammadi","address":"zone indus. Urbanisation , El Hraouiyine lot. n°2921 MEDIOUNA","phone":"05 22 56 95 76","location":"","city":"Mediouna"},{"name":"Pharmacie El Yadari","address":"76, lotiss. Abderrahim 2  MEDIOUNA","phone":"05 22 33 81 31","location":"","city":"Mediouna"},{"name":"Pharmacie Jawharat Mediouna","address":"rte Nationale 9, Station Hamria El Mejatia Oulad Talab MEDIOUNA","phone":"06 84 40 25 91","location":"","city":"Mediouna"},{"name":"Pharmacie Médiouna","address":"3, bd. Hassan II , 20490  MEDIOUNA","phone":"05 22 33 81 42","location":"","city":"Mediouna"}]