[{"name":"Pharmacie Zamzam","address":"douar Bouzarzarane , Ihddadan NADOR","phone":"05 36 33 35 00","location":"https://www.telecontact.ma/plan-acces/pharmacie-zamzam-/3199462/nador","city":"Nador"},{"name":"Pharmacie Zariouh","address":"Tlat Jbel , Béni Sidal NADOR","phone":"05 36 35 08 33","location":"","city":"Nador"},{"name":"La Grande  Pharmacie","address":"97, av Abdelkarim Khattabi  NADOR","phone":"05 36 60 73 60","location":"","city":"Nador"},{"name":"Pharmacie Abou Al Waffa","address":"ouled Boutayeb Al Foukani  NADOR","phone":"06 68 41 66 41","location":"","city":"Nador"},{"name":"Pharmacie Achergui","address":"bd Toum , rte Taouima NADOR","phone":"05 36 33 70 33","location":"","city":"Nador"},{"name":"Pharmacie Adam","address":"25, hay Al Matar  NADOR","phone":"05 36 38 11 33","location":"","city":"Nador"},{"name":"Pharmacie Afra","address":"96, av Mly. Rachid , Jaadar NADOR","phone":"05 36 35 08 08","location":"","city":"Nador"},{"name":"Pharmacie Ahkim","address":"12, rue Tanger  NADOR","phone":"05 36 32 09 06","location":"","city":"Nador"},{"name":"Pharmacie Ahlane","address":"rue Principale , Tafarsit NADOR","phone":"05 36 40 23 72","location":"","city":"Nador"},{"name":"Pharmacie Ain Zohra","address":"Ain Zohra Centre  NADOR","phone":"05 36 60 09 41","location":"","city":"Nador"},{"name":"Pharmacie Ajouaou","address":"Quartier Ouled Lahcen  NADOR","phone":"05 36 33 59 42","location":"","city":"Nador"},{"name":"Pharmacie Al Hay","address":"85, Terakaa Est  NADOR","phone":"05 36 60 55 41","location":"","city":"Nador"},{"name":"Pharmacie Al Hikma","address":"294, bd. Mohammed V , Jaadar NADOR","phone":"05 36 35 33 38","location":"","city":"Nador"},{"name":"Pharmacie Al Irfane","address":"route principale , q. Bouyzarzan NADOR","phone":"06 32 38 75 42","location":"","city":"Nador"},{"name":"Pharmacie Al Kadaoui","address":"Rte de Zegangan , km 5 Ihdadden NADOR","phone":"05 36 35 19 95","location":"","city":"Nador"},{"name":"Pharmacie Al Majd","address":"hay Rouissi  NADOR","phone":"05 36 35 07 06","location":"","city":"Nador"},{"name":"Pharmacie Al Masjid","address":"bd Mohammed V  NADOR","phone":"05 36 35 01 48","location":"","city":"Nador"},{"name":"Pharmacie Al Montazah","address":"route Principale de Cimetière  NADOR","phone":"05 36 60 33 77","location":"","city":"Nador"},{"name":"Pharmacie Al Mostakbal","address":"Rte Berraka , hay El Fid NADOR","phone":"05 36 33 03 32","location":"","city":"Nador"},{"name":"Pharmacie Al Omal","address":"bd Al Wahda, Jaadar NADOR","phone":"05 36 35 37 88","location":"","city":"Nador"},{"name":"Pharmacie Baraka","address":"rue Baraka , ouled Mimoun NADOR","phone":"05 36 60 59 90","location":"https://www.telecontact.ma/plan-acces/pharmacie-baraka-/3134832/nador","city":"Nador"},{"name":"Pharmacie Ben Ali","address":"lotiss. Al Boustane, bd. Mirabel NADOR","phone":"05 36 60 60 90","location":"https://www.telecontact.ma/plan-acces/pharmacie-ben-ali-/3306899/nador","city":"Nador"},{"name":"Pharmacie Benchellal","address":"58, rue Mly Ali Charif  NADOR","phone":"05 36 60 78 34","location":"https://www.telecontact.ma/plan-acces/pharmacie-benchellal-/3123752/nador","city":"Nador"},{"name":"Pharmacie Beni Said","address":"av ElMassira , Dar ElKabdani, Beni Said NADOR","phone":"05 36 41 02 52","location":"https://www.telecontact.ma/plan-acces/pharmacie-beni-said-/3127059/nador","city":"Nador"},{"name":"Pharmacie Blanco","address":"Hay Ould Boutayeb , rue 3 n°176 NADOR","phone":"05 36 33 73 03","location":"https://www.telecontact.ma/plan-acces/pharmacie-blanco-/3271132/nador","city":"Nador"},{"name":"Pharmacie Bouarg","address":"Sect Messaud , bloc 7 Bouarg NADOR","phone":"05 36 33 03 08","location":"","city":"Nador"},{"name":"Pharmacie Bouarourou Al Jadida","address":"hay Bouarourou Al Jadida  NADOR","phone":"05 36 60 59 14","location":"","city":"Nador"},{"name":"Pharmacie Bouyzarzar","address":"commune Ihaddaden  NADOR","phone":"05 36 60 11 92","location":"","city":"Nador"},{"name":"Pharmacie Centrale","address":"6, rue de Tanger , kariat Akermane, 62000  NADOR","phone":"05 36 36 02 37","location":"","city":"Nador"},{"name":"Pharmacie Chaabi","address":"Al Iskan Caâbi  NADOR","phone":"05 36 38 00 11","location":"","city":"Nador"},{"name":"Pharmacie Charia 20","address":"bd Vingt Août  NADOR","phone":"05 36 35 39 82","location":"","city":"Nador"},{"name":"Pharmacie Chems","address":"rte de Zghanghan , n°26030 NADOR","phone":"05 36 60 04 02","location":"","city":"Nador"},{"name":"Pharmacie Chirif Ameziane","address":"44, av Hassan II  NADOR","phone":"05 36 33 11 28","location":"","city":"Nador"},{"name":"Pharmacie Cooperative","address":"Quartier ElFath , Kariat Akermane NADOR","phone":"05 36 36 01 53","location":"","city":"Nador"},{"name":"Pharmacie Dar Al Olom","address":"hay Al Matar, résid. Al Ikhlass NADOR","phone":"05 36 38 09 59","location":"","city":"Nador"},{"name":"Pharmacie Dar El Makhzen","address":"Douar Bouyzarzaren  NADOR","phone":"05 36 33 03 61","location":"","city":"Nador"},{"name":"Pharmacie de l'hôpital","address":"35, rue de l'hôpital Hassani , 62000  NADOR","phone":"05 36 60 38 54","location":"","city":"Nador"},{"name":"Pharmacie du Rif","address":"85, bd. Youssef Ben Tachfine , 62000  NADOR","phone":"05 36 33 72 83","location":"","city":"Nador"},{"name":"Pharmacie El Amal","address":"cité Mohammadia  NADOR","phone":"05 36 63 37 60","location":"","city":"Nador"},{"name":"Pharmacie El Bachiri","address":"hay Al Matar  NADOR","phone":"05 34 55 03 77","location":"","city":"Nador"},{"name":"Pharmacie Assakina","address":"hay Bouarourou , rue n°95 NADOR","phone":"05 36 33 78 43","location":"https://www.telecontact.ma/plan-acces/pharmacie-assakina-/3273659/nador","city":"Nador"},{"name":"Pharmacie Aviation","address":"68, rue Arrid , Bloc 2, 62000  NADOR","phone":"05 36 60 66 41","location":"https://www.telecontact.ma/plan-acces/pharmacie-aviation-/3134836/nador","city":"Nador"},{"name":"Pharmacie Azlaf","address":"Centre Azlaf  NADOR","phone":"05 36 41 91 93","location":"","city":"Nador"},{"name":"Pharmacie Babel","address":"65, rue Taha Houcein  NADOR","phone":"05 36 60 55 44","location":"","city":"Nador"},{"name":"Pharmacie Ghazza","address":"14, Berraka El Oulya  NADOR","phone":"05 36 60 70 63","location":"https://www.telecontact.ma/plan-acces/pharmacie-ghazza-/3271131/nador","city":"Nador"},{"name":"Pharmacie Granada","address":"39, Rte Principale , Taouima NADOR","phone":"05 36 60 67 67","location":"https://www.telecontact.ma/plan-acces/pharmacie-granada-/3103488/nador","city":"Nador"},{"name":"Pharmacie Hamama","address":"rte de Zghanghan , km 5, Ehaddaden NADOR","phone":"05 36 33 04 25","location":"https://www.telecontact.ma/plan-acces/pharmacie-hamama-/3199387/nador","city":"Nador"},{"name":"Pharmacie Ibn Hazm","address":"hay Laâroussi , rue 4 n°78 NADOR","phone":"05 36 60 67 11","location":"https://www.telecontact.ma/plan-acces/pharmacie-ibn-hazm-/3134818/nador","city":"Nador"},{"name":"Pharmacie Ibn Rochd","address":"70, av des far , 62000  NADOR","phone":"05 36 60 32 39","location":"https://www.telecontact.ma/plan-acces/pharmacie-ibn-rochd-/1480400/nador","city":"Nador"},{"name":"Pharmacie Ibn Sina","address":"242, bd. Youssef Ben Tachfine , 62000  NADOR","phone":"05 36 60 30 43","location":"https://www.telecontact.ma/plan-acces/pharmacie-ibn-sina-/0317000/nador","city":"Nador"},{"name":"Pharmacie Ichoumay","address":"quartier Ichoumay  NADOR","phone":"05 36 33 41 29","location":"https://www.telecontact.ma/plan-acces/pharmacie-ichoumay-/3123767/nador","city":"Nador"},{"name":"Pharmacie Igounaf","address":"q. Igounaf  NADOR","phone":"05 36 60 37 96","location":"https://www.telecontact.ma/plan-acces/pharmacie-igounaf-/3273657/nador","city":"Nador"},{"name":"Pharmacie Ihaddaden","address":"rte Zghanghan Km 3  NADOR","phone":"05 36 60 04 09","location":"https://www.telecontact.ma/plan-acces/pharmacie-ihaddaden-/3126603/nador","city":"Nador"},{"name":"Pharmacie Ismailia","address":"92, av. Abdelkhalek Torres  NADOR","phone":"05 36 33 24 08","location":"https://www.telecontact.ma/plan-acces/pharmacie-ismailia-/3199385/nador","city":"Nador"},{"name":"Pharmacie Iwaaliten","address":"Hay Idagharen  NADOR","phone":"05 36 60 28 54","location":"https://www.telecontact.ma/plan-acces/pharmacie-iwaaliten-/3271134/nador","city":"Nador"},{"name":"Pharmacie Jaadar","address":"Rte de Zghanghan  NADOR","phone":"05 36 35 27 55","location":"https://www.telecontact.ma/plan-acces/pharmacie-jaadar-/3199392/nador","city":"Nador"},{"name":"Pharmacie Kachadiya","address":"Douar Kachadia  NADOR","phone":"05 36 60 91 83","location":"https://www.telecontact.ma/plan-acces/pharmacie-kachadiya-/3319727/nador","city":"Nador"},{"name":"Pharmacie Kariat","address":"100, bd Hassan II, kariate Arekmane NADOR","phone":"05 36 36 00 29","location":"https://www.telecontact.ma/plan-acces/pharmacie-kariat-/3199394/nador","city":"Nador"},{"name":"Pharmacie Kassita","address":"111, bd Hassan II, kassita NADOR","phone":"05 36 40 81 74","location":"https://www.telecontact.ma/plan-acces/pharmacie-kassita-/3199397/nador","city":"Nador"},{"name":"Pharmacie Krona","address":"Krona centre  NADOR","phone":"05 36 40 65 49","location":"","city":"Nador"},{"name":"Pharmacie l'Institut","address":"2, Lotissement Sara Arrid  NADOR","phone":"05 36 38 08 37","location":"","city":"Nador"},{"name":"Pharmacie La Corniche","address":"24, bd Moulay Abdellah  NADOR","phone":"05 36 33 60 91","location":"","city":"Nador"},{"name":"Pharmacie la Fontaine","address":"167, av. 3 Mars  NADOR","phone":"05 36 33 66 54","location":"","city":"Nador"},{"name":"Pharmacie La Santé","address":"156, av des F.a.r.  NADOR","phone":"05 36 60 60 70","location":"","city":"Nador"},{"name":"Pharmacie Al Wafa","address":"16, rue Kaid Ahmed Rifi  NADOR","phone":"05 36 60 67 00","location":"","city":"Nador"},{"name":"Pharmacie AlAmine","address":"258, hay Issabbonane  NADOR","phone":"05 36 60 41 11","location":"","city":"Nador"},{"name":"Pharmacie AlAndalous","address":"39, bd 3 mars , 62000  NADOR","phone":"05 36 60 29 09","location":"","city":"Nador"},{"name":"Pharmacie El Hassani","address":"quartier Choumay  NADOR","phone":"05 36 60 03 34","location":"","city":"Nador"},{"name":"Pharmacie ElFatouaki","address":"quartier Laârassi , rue 121 NADOR","phone":"05 36 60 26 96","location":"","city":"Nador"},{"name":"Pharmacie ElFid","address":"241, hay Bouchaouaf  NADOR","phone":"05 36 60 56 46","location":"","city":"Nador"},{"name":"Pharmacie ElKendy","address":"431, av. Mly Hassan 1er , 62000  NADOR","phone":"05 36 60 36 70","location":"","city":"Nador"},{"name":"Pharmacie Lamalmi","address":"594, bd. AlMassira  NADOR","phone":"05 36 33 48 15","location":"https://www.telecontact.ma/plan-acces/pharmacie-lamalmi-/3136389/nador","city":"Nador"},{"name":"Pharmacie Le Monde","address":"rue 10 n°67 , ouled Mimoun NADOR","phone":"05 36 33 43 84","location":"https://www.telecontact.ma/plan-acces/pharmacie-le-monde-/3199402/nador","city":"Nador"},{"name":"Pharmacie Le Village","address":"Boudimar Centre  NADOR","phone":"05 36 40 61 47","location":"","city":"Nador"},{"name":"Pharmacie Lope de Vega","address":"Lotissement Al Matar , lot. n°51 NADOR","phone":"05 36 38 10 01","location":"","city":"Nador"},{"name":"Pharmacie Lotissement Sara","address":"quartier Arrid II , rue 104 NADOR","phone":"05 36 33 60 76","location":"","city":"Nador"},{"name":"Pharmacie Maghreb Arabe","address":"rte Zeghanghan  NADOR","phone":"05 36 33 48 55","location":"","city":"Nador"},{"name":"Pharmacie Majestic","address":"rte de Zghanghan , km. 3 NADOR","phone":"05 36 33 03 75","location":"","city":"Nador"},{"name":"Pharmacie Marché","address":"Khemis Tamsamane centre  NADOR","phone":"05 36 40 69 00","location":"","city":"Nador"},{"name":"Pharmacie Marchica","address":"5, Hay Chaala  NADOR","phone":"05 36 33 43 81","location":"","city":"Nador"},{"name":"Pharmacie Mariam","address":"Ihaddaden  NADOR","phone":"05 36 35 14 03","location":"","city":"Nador"},{"name":"Pharmacie Masjid Badr","address":"lotiss. Boulghoudan  NADOR","phone":"05 36 60 08 32","location":"","city":"Nador"},{"name":"Pharmacie Méditérranée","address":"av des Far ang. rue Marche verte , imm. Rahmouni, 62000  NADOR","phone":"05 36 60 70 80","location":"","city":"Nador"},{"name":"Pharmacie Mekka","address":"Rte Joutia  NADOR","phone":"05 36 33 65 25","location":"","city":"Nador"},{"name":"Pharmacie Mly Baghdad","address":"Rte principale Béni Ensar  NADOR","phone":"05 36 64 83 07","location":"","city":"Nador"},{"name":"Pharmacie Molen","address":"26, Lotissement Ondalm Wiam  NADOR","phone":"05 36 38 07 70","location":"","city":"Nador"},{"name":"Pharmacie Naanaa","address":"39, Route de Taouima  NADOR","phone":"05 36 38 04 05","location":"","city":"Nador"},{"name":"Pharmacie Nador","address":"12, quartier Laarassi  NADOR","phone":"05 36 33 06 60","location":"","city":"Nador"}]