[{"name":"Pharmacie Keram Daif","address":"route 301 , Ahyout Chair Ayir OUALIDIA","phone":"06 64 99 53 48","location":"https://www.telecontact.ma/plan-acces/pharmacie-keram-daif-/3308193/oualidia","city":"Oualidia"},{"name":"Pharmacie la Lagune","address":"Route de Safi  OUALIDIA","phone":"05 23 36 62 55","location":"https://www.telecontact.ma/plan-acces/pharmacie-la-lagune-/3197293/oualidia","city":"Oualidia"},{"name":"Pharmacie Nasrallah","address":"Route Régionale 301 , Hay Mly Abdesslem OUALIDIA","phone":"05 23 36 61 24","location":"","city":"Oualidia"},{"name":"Pharmacie Omi Aicha","address":"centre Jasba , lot. Erraha, R.n.301 OUALIDIA","phone":"05 40 09 31 28","location":"","city":"Oualidia"},{"name":"Pharmacie Al Hamd","address":"av. Hassan II  OUALIDIA","phone":"05 27 62 40 95","location":"","city":"Oualidia"},{"name":"Pharmacie de la Mosquée","address":"av 20 Août  OUALIDIA","phone":"05 23 36 64 97","location":"","city":"Oualidia"},{"name":"Pharmacie El Oualidia","address":"15, Av. Hassan II , 24250  OUALIDIA","phone":"05 23 36 64 94","location":"","city":"Oualidia"}]