[{"name":"Pharmacie Skoura","address":"bd Mohammed V , Skoura Ahl El Ouast OUARZAZATE","phone":"05 24 85 20 16","location":"https://www.telecontact.ma/plan-acces/pharmacie-skoura-/3199466/ouarzazate","city":"Ouarzazate"},{"name":"Pharmacie Tarmigt","address":"rte de Zagora , Tabounte Tarmigt OUARZAZATE","phone":"05 24 85 48 48","location":"https://www.telecontact.ma/plan-acces/pharmacie-tarmigt-/3228356/ouarzazate","city":"Ouarzazate"},{"name":"Pharmacie Tassoumaate","address":"10, bd Mohammed V , 45000  OUARZAZATE","phone":"05 24 88 74 99","location":"https://www.telecontact.ma/plan-acces/pharmacie-tassoumaate-/3125472/ouarzazate","city":"Ouarzazate"},{"name":"Pharmacie Adrar","address":"171, av. Bir Anzarane , 45000  OUARZAZATE","phone":"05 24 83 57 65","location":"","city":"Ouarzazate"},{"name":"Pharmacie Ait Kdif","address":"Hay Ait Kdif , n°1066 OUARZAZATE","phone":"05 24 88 55 77","location":"","city":"Ouarzazate"},{"name":"Pharmacie Al Fadilia","address":"2, bd Mohammed V, lotiss. Ennader OUARZAZATE","phone":"05 24 88 68 86","location":"","city":"Ouarzazate"},{"name":"Pharmacie Al Hizame","address":"77, av. My Abdellah  OUARZAZATE","phone":"05 24 88 80 81","location":"","city":"Ouarzazate"},{"name":"Pharmacie Al Maghreb Al Arabi","address":"1398, bd Al Maghrib Al Arabi, cité Al Wahda OUARZAZATE","phone":"05 24 88 83 55","location":"","city":"Ouarzazate"},{"name":"Pharmacie Al Mansour","address":"9, rte Principale , Tiguemi Jdid, Tarmigte OUARZAZATE","phone":"05 24 85 45 34","location":"","city":"Ouarzazate"},{"name":"Pharmacie Al Massira","address":"44, hay Al Massira  OUARZAZATE","phone":"05 24 89 05 05","location":"","city":"Ouarzazate"},{"name":"Pharmacie Al Moussala","address":"550, hay Al Wahda  OUARZAZATE","phone":"05 24 88 55 33","location":"","city":"Ouarzazate"},{"name":"Pharmacie Al Wahda","address":"311, av. Al Maghreb Al Arabi , lotiss. Al Wahda, 45000  OUARZAZATE","phone":"05 24 88 79 90","location":"","city":"Ouarzazate"},{"name":"Pharmacie AlMasjid","address":"cité de la résistance bloc 18 n°18 bis OUARZAZATE","phone":"05 24 89 09 67","location":"","city":"Ouarzazate"},{"name":"Pharmacie Annour","address":"place la Municipalité , bd. Med. V, 45000  OUARZAZATE","phone":"05 24 88 73 73","location":"","city":"Ouarzazate"},{"name":"Pharmacie Atlas","address":"av. Maghreb Al Arabi, Lot. El Wahda, n°1714  OUARZAZATE","phone":"05 24 88 78 77","location":"","city":"Ouarzazate"},{"name":"Pharmacie centrale","address":"33, bd Mohammed V , 45000  OUARZAZATE","phone":"05 24 88 26 01","location":"","city":"Ouarzazate"},{"name":"Pharmacie Chifa","address":"bd Moulay Rachid, imm. Daoudi, 45000  OUARZAZATE","phone":"05 24 88 35 88","location":"","city":"Ouarzazate"},{"name":"Pharmacie Dadouch","address":"hay Mohammadi, n°329 OUARZAZATE","phone":"05 24 88 78 52","location":"","city":"Ouarzazate"},{"name":"Pharmacie Draa","address":"quartier Tabounte , Tarmigte OUARZAZATE","phone":"05 24 85 43 74","location":"","city":"Ouarzazate"},{"name":"Pharmacie du Sud","address":"rue El Mouahidine, lot du centre OUARZAZATE","phone":"05 24 88 40 00","location":"","city":"Ouarzazate"},{"name":"Pharmacie Ibn Al Atik","address":"Av Moulay Abdellah , Lot chems 2, n° 65 , OUARZAZATE","phone":"05 24 88 40 78","location":"https://www.telecontact.ma/plan-acces/pharmacie-ibn-al-atik-/3345947/ouarzazate","city":"Ouarzazate"},{"name":"Pharmacie Ibn Sina","address":"210, bd Ait Gdif  OUARZAZATE","phone":"05 24 88 63 59","location":"https://www.telecontact.ma/plan-acces/pharmacie-ibn-sina-/3276470/ouarzazate","city":"Ouarzazate"},{"name":"Pharmacie Itrane","address":"bd Al Maghrib Al Arabi  OUARZAZATE","phone":"06 69 84 67 70","location":"https://www.telecontact.ma/plan-acces/pharmacie-itrane-/3332049/ouarzazate","city":"Ouarzazate"},{"name":"Pharmacie l'Aéroport","address":"52, lot El Wahda, Erac  OUARZAZATE","phone":"05 24 88 66 14","location":"","city":"Ouarzazate"},{"name":"Pharmacie l'hôpital","address":"78, bd Mohammed VI , 45000  OUARZAZATE","phone":"05 24 88 55 00","location":"","city":"Ouarzazate"},{"name":"Pharmacie l'oasis","address":"douar tiguemi lejdid , tarmigte, 45000  OUARZAZATE","phone":"05 24 85 43 39","location":"","city":"Ouarzazate"},{"name":"Pharmacie la Gare Routière","address":"100, rue Moulay Tahar Ben Abdelkrim, bloc D cité la Résistance, 45000  OUARZAZATE","phone":"05 24 88 69 90","location":"","city":"Ouarzazate"},{"name":"Pharmacie la Kasbah","address":"av. Mohamed V, résid. AlWaha , 45000  OUARZAZATE","phone":"05 24 88 79 00","location":"https://www.telecontact.ma/plan-acces/pharmacie-la-kasbah-/3042823/ouarzazate","city":"Ouarzazate"},{"name":"Pharmacie la Palmeraie","address":"hay Sidi Daoud , n°28 OUARZAZATE","phone":"05 24 88 32 34","location":"https://www.telecontact.ma/plan-acces/pharmacie-la-palmeraie-/3266901/ouarzazate","city":"Ouarzazate"},{"name":"Pharmacie la Renaissance","address":"Bd Mohammed V ang. place du 3 Mars , 45000  OUARZAZATE","phone":"05 24 88 22 03","location":"https://www.telecontact.ma/plan-acces/pharmacie-la-renaissance-/0317300/ouarzazate","city":"Ouarzazate"},{"name":"Pharmacie la Résistance","address":"256, rue Moulay Tahar Ben Abdelkrim, cité la Résistance, 45000  OUARZAZATE","phone":"05 24 88 49 01","location":"","city":"Ouarzazate"},{"name":"Pharmacie La Santé","address":"bd. Mohammed V , 45000  OUARZAZATE","phone":"05 24 88 81 55","location":"","city":"Ouarzazate"},{"name":"Pharmacie Noumidia","address":"bd My Abdellah  OUARZAZATE","phone":"05 24 88 87 15","location":"https://www.telecontact.ma/plan-acces/pharmacie-noumidia-/3273965/ouarzazate","city":"Ouarzazate"},{"name":"Pharmacie Ouarzazate","address":"av. Mohammed V  OUARZAZATE","phone":"05 24 88 66 21","location":"https://www.telecontact.ma/plan-acces/pharmacie-ouarzazate-/3199467/ouarzazate","city":"Ouarzazate"},{"name":"Pharmacie Principale","address":"129, lotiss. du centre , 45000  OUARZAZATE","phone":"05 24 88 88 37","location":"https://www.telecontact.ma/plan-acces/pharmacie-principale-/3125389/ouarzazate","city":"Ouarzazate"},{"name":"Pharmacie Rte de Zagora","address":"9, Rte nationale , Tigami Lajdid Tarmigte OUARZAZATE","phone":"05 24 85 46 46","location":"https://www.telecontact.ma/plan-acces/pharmacie-rte-de-zagora-/3228818/ouarzazate","city":"Ouarzazate"},{"name":"Pharmacie Sidi Daoud","address":"bd Mohammed V, lotiss. Tichka, 45000  OUARZAZATE","phone":"05 24 88 33 80","location":"https://www.telecontact.ma/plan-acces/pharmacie-sidi-daoud-/3042827/ouarzazate","city":"Ouarzazate"},{"name":"Pharmacie Sidi Hsein","address":"1, hay Sidi Hsein Ben Nacer  OUARZAZATE","phone":"05 24 88 25 88","location":"https://www.telecontact.ma/plan-acces/pharmacie-sidi-hsein-/3273964/ouarzazate","city":"Ouarzazate"}]