[{"name":"Pharmacie Oued Nachef","address":"10, rue Mly Youssef , 60000  OUJDA","phone":"05 36 68 60 20","location":"https://www.telecontact.ma/plan-acces/pharmacie-oued-nachef-/1620400/oujda","city":"Oujda"},{"name":"Pharmacie Oujda","address":"rue Figuig ang. rue Mly ElHassan OUJDA","phone":"05 36 68 41 03","location":"https://www.telecontact.ma/plan-acces/pharmacie-oujda-/3174860/oujda","city":"Oujda"},{"name":"Pharmacie Palais de Justice","address":"78, rue Oued Oum Errabia, Lotiss iris OUJDA","phone":"05 36 53 25 00","location":"https://www.telecontact.ma/plan-acces/pharmacie-palais-de-justice-/3318973/oujda","city":"Oujda"},{"name":"Pharmacie Parc Aïcha","address":"13, rue Yacoub Al Mansour  OUJDA","phone":"05 36 50 65 19","location":"","city":"Oujda"},{"name":"Pharmacie Pasteur","address":"53, bd. Fétouaki , 60000  OUJDA","phone":"05 36 68 60 44","location":"https://www.telecontact.ma/plan-acces/pharmacie-pasteur-/1618600/oujda","city":"Oujda"},{"name":"Pharmacie Pont Benkhirane","address":"lot Benkhirane , B17 n°58 OUJDA","phone":"05 36 51 05 93","location":"https://www.telecontact.ma/plan-acces/pharmacie-pont-benkhirane-/3331455/oujda","city":"Oujda"},{"name":"Pharmacie Pont Lamhalla","address":"5 A, bd. Armée de Libération lotiss. Benkhirane , Oued Nachef OUJDA","phone":"05 36 51 12 30","location":"https://www.telecontact.ma/plan-acces/pharmacie-pont-lamhalla-/3101558/oujda","city":"Oujda"},{"name":"Pharmacie Populaire Lazaret","address":"hay Salam , n°84 rue A58 Lazaret, 60000  OUJDA","phone":"05 36 74 81 54","location":"https://www.telecontact.ma/plan-acces/pharmacie-populaire-lazaret-/3162307/oujda","city":"Oujda"},{"name":"Pharmacie principale","address":"37, bd. Bir Anzarane , 60000  OUJDA","phone":"05 36 68 26 98","location":"https://www.telecontact.ma/plan-acces/pharmacie-principale-/0319300/oujda","city":"Oujda"},{"name":"Pharmacie Rachdi","address":"bd. Oum Errabie , lot. les Iris n°346 OUJDA","phone":"05 36 50 56 50","location":"https://www.telecontact.ma/plan-acces/pharmacie-rachdi-/3200043/oujda","city":"Oujda"},{"name":"Pharmacie Rahmouni","address":"57, rue Kaoutar , Hay Zaitoune, Bouknadel OUJDA","phone":"05 36 50 51 36","location":"https://www.telecontact.ma/plan-acces/pharmacie-rahmouni-/3126629/oujda","city":"Oujda"},{"name":"Pharmacie Rajaa Fi Allah","address":"hay Rajaa Fi Allah , Lotiss. Taoufik n°78, Rte d'Algérie OUJDA","phone":"05 36 70 39 29","location":"https://www.telecontact.ma/plan-acces/pharmacie-rajaa-fi-allah-/3108059/oujda","city":"Oujda"},{"name":"Pharmacie Riad","address":"bd Allal El Fassi , Bloc 11 n°1, 60000  OUJDA","phone":"05 36 68 51 02","location":"https://www.telecontact.ma/plan-acces/pharmacie-riad-/1167900/oujda","city":"Oujda"},{"name":"Pharmacie Riad Isly","address":"20, hay Riad Isly  OUJDA","phone":"05 36 52 29 00","location":"https://www.telecontact.ma/plan-acces/pharmacie-riad-isly-/9019286/oujda","city":"Oujda"},{"name":"Pharmacie Ridouane","address":"1, bd Mouad Ibn Jabal  OUJDA","phone":"05 36 51 86 00","location":"https://www.telecontact.ma/plan-acces/pharmacie-ridouane-/3107339/oujda","city":"Oujda"},{"name":"Pharmacie Rif","address":"Rte Zaïr Voie E , Dhar Lamhalla, Lazaret OUJDA","phone":"05 36 74 91 86","location":"https://www.telecontact.ma/plan-acces/pharmacie-rif-/3106944/oujda","city":"Oujda"},{"name":"Pharmacie Route Bouchtat","address":"route Bouchtat  OUJDA","phone":"05 36 74 76 00","location":"https://www.telecontact.ma/plan-acces/pharmacie-route-bouchtat-/3270322/oujda","city":"Oujda"},{"name":"Pharmacie Sabahi","address":"Hay Pam , Sidi Yahya rue 1 n°4 OUJDA","phone":"05 36 54 07 14","location":"https://www.telecontact.ma/plan-acces/pharmacie-sabahi-/3109902/oujda","city":"Oujda"},{"name":"Pharmacie Salam Aouinat Serrak","address":"hay Salam , Aouinet Serrak, rue C n°53 OUJDA","phone":"05 36 53 22 38","location":"https://www.telecontact.ma/plan-acces/pharmacie-salam-aouinat-serrak-/3108005/oujda","city":"Oujda"},{"name":"Pharmacie Salama","address":"lotiss. Essaidi , rue D7 n°3 bis, hay Mouritanie OUJDA","phone":"05 36 68 17 20","location":"https://www.telecontact.ma/plan-acces/pharmacie-salama-/3270377/oujda","city":"Oujda"},{"name":"Pharmacie Beladel","address":"5, rue Nassira , Jananat Sidi Maafa, Lot Aziz OUJDA","phone":"05 36 53 80 91","location":"","city":"Oujda"},{"name":"Pharmacie Belle Vue","address":"36, Avenue Ibn Elkhattab , 60000  OUJDA","phone":"05 36 71 04 75","location":"","city":"Oujda"},{"name":"Pharmacie Beni Snassen","address":"43, av Nadram Kaba , lot. Mchiouer rte. de Taza OUJDA","phone":"05 36 51 78 76","location":"","city":"Oujda"},{"name":"Pharmacie Benkhirane","address":"lotiss. Benkhirane , C5/48 OUJDA","phone":"05 36 51 81 54","location":"","city":"Oujda"},{"name":"Pharmacie Benmansour","address":"93, rue Sidi Driss , ElAounia OUJDA","phone":"05 36 68 60 35","location":"","city":"Oujda"},{"name":"Pharmacie Bennis","address":"45, lotiss. Makri , hay Tennis rte Maghnia OUJDA","phone":"05 36 71 28 08","location":"","city":"Oujda"},{"name":"Pharmacie Benqachour","address":"12, Bd. Sidi yahya , 60000  OUJDA","phone":"05 36 70 53 02","location":"","city":"Oujda"},{"name":"Pharmacie Berrichi","address":"1, rue AlIntilaka, bd. Mohammed. VI  OUJDA","phone":"05 36 50 00 45","location":"","city":"Oujda"},{"name":"Pharmacie Bismillah","address":"24, bd. Ennakhil , lot. Haj Kaddour OUJDA","phone":"05 36 74 44 14","location":"","city":"Oujda"},{"name":"Pharmacie Boubou","address":"329, bd. Derfoufi  OUJDA","phone":"05 36 70 69 68","location":"","city":"Oujda"},{"name":"Pharmacie Boudlal","address":"26, hay AlMostakbal, rte Sidi Yahya  OUJDA","phone":"05 36 50 35 71","location":"","city":"Oujda"},{"name":"Pharmacie Bouknadel","address":"rte Bouknadel , lotiss. Talhaoui rue D4 n°2 OUJDA","phone":"05 36 50 27 76","location":"","city":"Oujda"},{"name":"Pharmacie Boutkhil","address":"2504, lotiss. Ennajd II I, rte sidi yahya OUJDA","phone":"05 36 54 12 02","location":"","city":"Oujda"},{"name":"Pharmacie Bouzidi","address":"16, Lotissement El Amri , rte. Sidi Yahya OUJDA","phone":"05 36 50 45 04","location":"","city":"Oujda"},{"name":"Pharmacie Centrale","address":"55, av Allal Ben Abdellah  OUJDA","phone":"05 36 71 28 00","location":"","city":"Oujda"},{"name":"Pharmacie Centrale Ain Serrak","address":"lot. Laalej n°209 , rue D, n°57 rte. Ain Serrak OUJDA","phone":"05 36 71 20 09","location":"","city":"Oujda"},{"name":"Pharmacie Centre Culturel","address":"7, bd Touat  OUJDA","phone":"05 36 69 65 17","location":"","city":"Oujda"},{"name":"Pharmacie Chifa","address":"26, bd des Far , Mosquée My Slimane OUJDA","phone":"05 36 68 86 64","location":"","city":"Oujda"},{"name":"Pharmacie Chrif","address":"13, bd Abderahim Bouabid , lot Anakhil OUJDA","phone":"05 36 74 49 03","location":"","city":"Oujda"},{"name":"Pharmacie Chu Al Irfane","address":"14, rue Mohamed Jaloul  OUJDA","phone":"05 36 53 22 20","location":"","city":"Oujda"},{"name":"Pharmacie Cmi Lazaret","address":"bd Allal Al Fassi , Dhar Lamhala Lazaret OUJDA","phone":"05 36 74 89 38","location":"https://www.telecontact.ma/plan-acces/pharmacie-cmi-lazaret-/3235160/oujda","city":"Oujda"},{"name":"Pharmacie d'Urgence de l'Hôpital de l'Universitaire","address":"760 Bis, bd Oum Rabii , rte Aouint Serrak, lot Iris n°1, 60000  OUJDA","phone":"05 36 50 05 50","location":"","city":"Oujda"},{"name":"Pharmacie de l'Espoir","address":"Oued Nachef rue 1 n°203  OUJDA","phone":"05 36 51 53 08","location":"","city":"Oujda"},{"name":"Pharmacie de l'Université","address":"bd. de l'université hay AlQods marché Qadissia n°3  OUJDA","phone":"05 36 50 06 48","location":"","city":"Oujda"},{"name":"Pharmacie de la Gare","address":"1, bd El hansali , 60000  OUJDA","phone":"05 36 68 31 04","location":"https://www.telecontact.ma/plan-acces/pharmacie-de-la-gare-/3153260/oujda","city":"Oujda"},{"name":"Pharmacie de la Mosquée","address":"rte Sidi Yahya , hay AlKheroub, 60000  OUJDA","phone":"05 36 50 16 98","location":"","city":"Oujda"},{"name":"Pharmacie Derb Berrahmoun","address":"3, rue El Khalif Al Arabi , Souk Lakhmiss, Lazaret OUJDA","phone":"05 36 74 82 52","location":"https://www.telecontact.ma/plan-acces/pharmacie-derb-berrahmoun-/3101294/oujda","city":"Oujda"},{"name":"Pharmacie Dhar Lamhala Lazaret","address":"55, bd. Allal El Fassi , 60000  OUJDA","phone":"05 36 74 02 25","location":"https://www.telecontact.ma/plan-acces/pharmacie-dhar-lamhala-lazaret-/1168000/oujda","city":"Oujda"},{"name":"Pharmacie Diwana","address":"107, bd. Mohammed V , 60000  OUJDA","phone":"05 36 68 66 03","location":"https://www.telecontact.ma/plan-acces/pharmacie-diwana-/1792700/oujda","city":"Oujda"},{"name":"Pharmacie Dounia","address":"hay Nahda II, rue F 15 n°411 OUJDA","phone":"05 36 54 83 07","location":"https://www.telecontact.ma/plan-acces/pharmacie-dounia-/3337770/oujda","city":"Oujda"},{"name":"Pharmacie du Cinéma Rif","address":"53, rue Zaïr Dhar Lamhalla Lazaret , 60000  OUJDA","phone":"05 36 74 86 32","location":"","city":"Oujda"},{"name":"Pharmacie du Complexe Sportif","address":"Oued Nachef , lotiss. Sabouni rue 1 OUJDA","phone":"05 36 51 52 89","location":"https://www.telecontact.ma/plan-acces/pharmacie-du-complexe-sportif-/3107551/oujda","city":"Oujda"},{"name":"Pharmacie du Conseil","address":"lotiss. Jaouhara , rue C n°58, Oued Nachef OUJDA","phone":"05 36 51 21 00","location":"https://www.telecontact.ma/plan-acces/pharmacie-du-conseil-/3108031/oujda","city":"Oujda"},{"name":"Pharmacie du Grande Stade","address":"bd Fayçal Ben Abdelaziz, lot n°189 OUJDA","phone":"05 36 51 39 31","location":"https://www.telecontact.ma/plan-acces/pharmacie-du-grande-stade-/3330505/oujda","city":"Oujda"},{"name":"Pharmacie Santé et Beauté","address":"rte d'Algérie , hay Mauritania, rue H6 n°1, 60000  OUJDA","phone":"05 36 68 49 97","location":"","city":"Oujda"},{"name":"Pharmacie Sefraoui","address":"136, bd. Hassan II, Hay AlAndalous  OUJDA","phone":"05 36 50 38 06","location":"https://www.telecontact.ma/plan-acces/pharmacie-sefraoui-/3107563/oujda","city":"Oujda"},{"name":"Pharmacie Sfakes","address":"1124, lotiss. Ennajd II, route sidi yahya OUJDA","phone":"05 36 54 22 27","location":"https://www.telecontact.ma/plan-acces/pharmacie-sfakes-/3316190/oujda","city":"Oujda"},{"name":"Pharmacie Shérine","address":"bd Ibnoussina ang. rue Ziani OUJDA","phone":"05 36 68 93 32","location":"","city":"Oujda"},{"name":"Pharmacie Si Lakhdar","address":"Rte. de Taza , B30/90, 60000  OUJDA","phone":"05 36 51 16 47","location":"https://www.telecontact.ma/plan-acces/pharmacie-si-lakhdar-/3153257/oujda","city":"Oujda"},{"name":"Pharmacie Siham","address":"119, rue AlBoughaz , hay Azzaitoun OUJDA","phone":"05 36 50 11 46","location":"https://www.telecontact.ma/plan-acces/pharmacie-siham-/3101297/oujda","city":"Oujda"},{"name":"Pharmacie Souidi","address":"210, rue Sidi Yahya, lotiss Elkhalfaoui OUJDA","phone":"05 36 54 20 01","location":"https://www.telecontact.ma/plan-acces/pharmacie-souidi-/3319625/oujda","city":"Oujda"},{"name":"Pharmacie Souk Mellilia","address":"1, Rte. Bouknadel  OUJDA","phone":"05 36 68 04 04","location":"https://www.telecontact.ma/plan-acces/pharmacie-souk-mellilia-/3109920/oujda","city":"Oujda"},{"name":"Pharmacie Stade d'Honneur","address":"233, lotiss. Camps des Manoeuvres , 60000  OUJDA","phone":"05 36 51 29 80","location":"","city":"Oujda"},{"name":"Pharmacie Syagha","address":"12, impasse Mazouzi  OUJDA","phone":"05 36 68 55 53","location":"https://www.telecontact.ma/plan-acces/pharmacie-syagha-/3108028/oujda","city":"Oujda"},{"name":"Pharmacie Taha","address":"Aouinat Serrak , rue 2 n°34 OUJDA","phone":"06 45 00 76 72","location":"","city":"Oujda"},{"name":"Pharmacie Taiba","address":"79, lotiss. Miri , hay El Hassani OUJDA","phone":"05 36 52 42 00","location":"","city":"Oujda"},{"name":"Pharmacie Takouine","address":"116, bd Narjisse , lot. Chourok Dhar Lamhala OUJDA","phone":"05 36 74 06 66","location":"","city":"Oujda"},{"name":"Pharmacie Tarik AlGharb","address":"rte Taza , hay Si Lakhdar OUJDA","phone":"05 36 51 61 53","location":"","city":"Oujda"},{"name":"Pharmacie Tarik Ibn Ziad","address":"62 Bis, rue Essadiine ang. rue Omar Slaoui OUJDA","phone":"05 36 68 04 06","location":"","city":"Oujda"},{"name":"Pharmacie Tayret","address":"531 Bis, rue de Tayret  OUJDA","phone":"05 36 68 14 10","location":"","city":"Oujda"},{"name":"Pharmacie Tennis","address":"rte Maghnia , bloc 3 n°19 OUJDA","phone":"05 36 69 06 02","location":"https://www.telecontact.ma/plan-acces/pharmacie-tennis-/3109898/oujda","city":"Oujda"},{"name":"Pharmacie Torbi","address":"hay Oueld Chrif , rue 11/62 Oued Nachef OUJDA","phone":"05 36 51 05 02","location":"https://www.telecontact.ma/plan-acces/pharmacie-torbi-/3126637/oujda","city":"Oujda"},{"name":"Pharmacie Village Jdid","address":"43, bd Hachmi Miloud , rue 8 OUJDA","phone":"06 23 96 98 88","location":"https://www.telecontact.ma/plan-acces/pharmacie-village-jdid-/9019287/oujda","city":"Oujda"},{"name":"Pharmacie Wilaya Pharma","address":"av Hassan II , rte Sidi Yahya, 60000  OUJDA","phone":"05 36 71 24 24","location":"https://www.telecontact.ma/plan-acces/pharmacie-wilaya-pharma-/3161870/oujda","city":"Oujda"},{"name":"Pharmacie Yacoub AlMansour","address":"180, bd. Yacoub AlMansour  OUJDA","phone":"05 36 50 26 87","location":"https://www.telecontact.ma/plan-acces/pharmacie-yacoub-almansour-/3107578/oujda","city":"Oujda"},{"name":"Pharmacie Yahyaoui","address":"66, bd Allal El Fassi  OUJDA","phone":"05 36 74 41 26","location":"https://www.telecontact.ma/plan-acces/pharmacie-yahyaoui-/3108451/oujda","city":"Oujda"},{"name":"Pharmacie Yassine","address":"27, rte Bouknadel , hay Ezaitoun OUJDA","phone":"05 36 50 34 67","location":"https://www.telecontact.ma/plan-acces/pharmacie-yassine-/3108351/oujda","city":"Oujda"},{"name":"Pharmacie Zenati Lazaret","address":"lotiss.Msirdi , Dhar Lamhala Lazaret OUJDA","phone":"05 36 74 75 52","location":"https://www.telecontact.ma/plan-acces/pharmacie-zenati-lazaret-/3107588/oujda","city":"Oujda"},{"name":"Pharmacie Zohir","address":"rue d'Oran ang. rue d'Alger , 60000  OUJDA","phone":"05 36 68 27 25","location":"https://www.telecontact.ma/plan-acces/pharmacie-zohir-/0319600/oujda","city":"Oujda"},{"name":"Pharmacie Zone Industrielle","address":"rte d'Algérie , bd Mohamed V, 60000  OUJDA","phone":"05 36 70 89 00","location":"https://www.telecontact.ma/plan-acces/pharmacie-zone-industrielle-/3161838/oujda","city":"Oujda"},{"name":"Pharmacie Zrouri","address":"22, rue Al Hidaya , lot Kahoui Al Hassani OUJDA","phone":"05 36 52 52 51","location":"https://www.telecontact.ma/plan-acces/pharmacie-zrouri-/9019283/oujda","city":"Oujda"},{"name":"Pharmacie Abdellah Guennoun","address":"rte de Bouknadel  OUJDA","phone":"05 36 50 37 90","location":"https://www.telecontact.ma/plan-acces/pharmacie-abdellah-guennoun-/3199959/oujda","city":"Oujda"},{"name":"Pharmacie Abdellaoui","address":"Hay Mly. ElMostapha , lot. Debani Lazaret OUJDA","phone":"05 36 74 47 74","location":"","city":"Oujda"},{"name":"Pharmacie Abdelmoumen","address":"100, rue Ras Asfour  OUJDA","phone":"05 36 70 28 19","location":"","city":"Oujda"},{"name":"Pharmacie Abi Inane Lazaret","address":"Hay Essalam , lotiss. Hamdi n°11, Rte Alfath OUJDA","phone":"05 36 74 14 75","location":"","city":"Oujda"},{"name":"Pharmacie Afaq Aounia","address":"236, Lot Talhaoui , AlAounia OUJDA","phone":"05 36 74 90 91","location":"","city":"Oujda"},{"name":"Pharmacie Afilal","address":"352, hay Lebyayed Lazaret  OUJDA","phone":"05 36 74 74 23","location":"","city":"Oujda"},{"name":"Pharmacie Afriquia","address":"lotiss. Al Mountazah 1, Rte Sidi Yayha n°14 Maafa OUJDA","phone":"05 36 54 14 44","location":"","city":"Oujda"},{"name":"Pharmacie Agdal","address":"172, bd Roudani , Hay Zaytoun OUJDA","phone":"05 36 54 07 99","location":"","city":"Oujda"},{"name":"Pharmacie Ahmed","address":"lot Saadi , n°5 OUJDA","phone":"05 36 50 34 80","location":"","city":"Oujda"},{"name":"Pharmacie Karzazi","address":"Lot. Mimouni , rue M4 n°12 rte. Aaouaja OUJDA","phone":"05 33 86 56 36","location":"https://www.telecontact.ma/plan-acces/pharmacie-karzazi-/3200029/oujda","city":"Oujda"},{"name":"Pharmacie Khalidi","address":"17, rue de Casablanca , 60000  OUJDA","phone":"05 36 68 40 07","location":"https://www.telecontact.ma/plan-acces/pharmacie-khalidi-/0319400/oujda","city":"Oujda"},{"name":"Pharmacie Khouna","address":"bd Allal ElFassi , Lazaret, 60000  OUJDA","phone":"05 36 74 12 38","location":"https://www.telecontact.ma/plan-acces/pharmacie-khouna-/3162022/oujda","city":"Oujda"},{"name":"Pharmacie Kissi","address":"hay ElFath , bloc A n°6, Sidi Yahya, 60000  OUJDA","phone":"05 36 54 03 13","location":"https://www.telecontact.ma/plan-acces/pharmacie-kissi-/3109904/oujda","city":"Oujda"},{"name":"Pharmacie Koulouch Takadoum","address":"Hay Takadoum, C26  OUJDA","phone":"05 36 52 15 29","location":"https://www.telecontact.ma/plan-acces/pharmacie-koulouch-takadoum-/3107638/oujda","city":"Oujda"},{"name":"Pharmacie l'Avenir","address":"479, rue Boudir  OUJDA","phone":"05 36 69 70 38","location":"","city":"Oujda"},{"name":"Pharmacie l'Urgence","address":"bd Razi , imm. Benjeloune n°2 OUJDA","phone":"05 36 68 29 16","location":"","city":"Oujda"},{"name":"Pharmacie la Clinique","address":"32, bd. Mohamed. Bellakhdar  OUJDA","phone":"05 36 70 47 96","location":"https://www.telecontact.ma/plan-acces/pharmacie-la-clinique-/3107592/oujda","city":"Oujda"},{"name":"Pharmacie la Colline","address":"lotiss. la Colline, imm 55 n°7 OUJDA","phone":"05 36 53 48 53","location":"https://www.telecontact.ma/plan-acces/pharmacie-la-colline-/3318137/oujda","city":"Oujda"},{"name":"Pharmacie la Foire","address":"Hay Mir Ali , rue 23/103 OUJDA","phone":"05 36 51 13 35","location":"https://www.telecontact.ma/plan-acces/pharmacie-la-foire-/3200030/oujda","city":"Oujda"},{"name":"Pharmacie La Grande","address":"lotiss. Benkhirane , rue 01/29, 60000  OUJDA","phone":"05 36 51 08 17","location":"https://www.telecontact.ma/plan-acces/pharmacie-la-grande-/3161867/oujda","city":"Oujda"},{"name":"Pharmacie la Libérté","address":"169, hay Essalam, rue A11. Aouinat Sarrak OUJDA","phone":"05 36 53 46 82","location":"","city":"Oujda"},{"name":"Pharmacie La Maman","address":"hay Riad, lot Mouahidine n°335 OUJDA","phone":"05 36 51 20 43","location":"","city":"Oujda"},{"name":"Pharmacie la Paix","address":"dhar Lamhala , n°8 rue 29 OUJDA","phone":"05 36 74 49 59","location":"","city":"Oujda"},{"name":"Pharmacie La Polyclinique","address":"28, rue Echouhada , 60000  OUJDA","phone":"05 36 68 49 48","location":"","city":"Oujda"},{"name":"Pharmacie la Victoire","address":"24, bd Fayçal Ben Abdelaziz, hay Ben Hamou OUJDA","phone":"05 36 51 63 76","location":"","city":"Oujda"},{"name":"Pharmacie Laboratoire Elhijaz","address":"40, bd. El Hijaz , 60000  OUJDA","phone":"05 36 68 60 50","location":"","city":"Oujda"},{"name":"Pharmacie Lalla Asmae","address":"8, Bd. Mansour Addahbi , 60000  OUJDA","phone":"05 36 68 21 99","location":"","city":"Oujda"},{"name":"Pharmacie Lamsala Sidi Yahya","address":"route Agdal , lot Bensahli OUJDA","phone":"05 36 74 09 15","location":"","city":"Oujda"},{"name":"Pharmacie Lazaret ElMalti","address":"bd. Allal ElFassi Lazaret  OUJDA","phone":"05 36 74 09 58","location":"","city":"Oujda"},{"name":"Pharmacie Amzil","address":"hay Agdal 1, lot Ben Sahli n° A 4 OUJDA","phone":"05 36 74 56 11","location":"https://www.telecontact.ma/plan-acces/pharmacie-amzil-/3344464/oujda","city":"Oujda"},{"name":"Pharmacie Anas","address":"lotiss. Héritier Belhoucine , Dhar Lmhalla hay zaitoun bur. n°114 Al Azhar, 60000  OUJDA","phone":"05 36 74 90 19","location":"https://www.telecontact.ma/plan-acces/pharmacie-anas-/3126537/oujda","city":"Oujda"},{"name":"Pharmacie Annahar","address":"Masjid Annahar , n°3 & 4 OUJDA","phone":"05 36 52 13 31","location":"","city":"Oujda"},{"name":"Pharmacie Annahda","address":"Hay Annahda II , rue E3 n°51 OUJDA","phone":"05 36 51 61 62","location":"","city":"Oujda"},{"name":"Pharmacie Armée de libération","address":"34 Bis, bd. Armée de libération  OUJDA","phone":"05 36 71 19 53","location":"","city":"Oujda"},{"name":"Pharmacie Arrajae","address":"hay Assalam , Aouint Serrak rte C OUJDA","phone":"05 36 70 55 25","location":"","city":"Oujda"},{"name":"Pharmacie Asfour","address":"174, rue Ras Asfrou , 60000  OUJDA","phone":"05 36 68 66 13","location":"","city":"Oujda"},{"name":"Pharmacie Aswak Essalam","address":"route d'Algerie , lot. Al Boustan III n°71 E OUJDA","phone":"05 36 68 83 52","location":"","city":"Oujda"},{"name":"Pharmacie Avicenne","address":"179, Rue Boudir , 60000  OUJDA","phone":"05 36 68 40 74","location":"","city":"Oujda"},{"name":"Pharmacie Aynaou","address":"hay Essalam B1 n°3 rte Jerada OUJDA","phone":"05 36 51 47 51","location":"","city":"Oujda"},{"name":"Pharmacie Ayoub","address":"5, hay El Moustaqbal  OUJDA","phone":"05 36 54 18 00","location":"","city":"Oujda"},{"name":"Pharmacie Azarkane","address":"20, hay El Hassani, El ouifak, rue B1 OUJDA","phone":"05 36 52 21 98","location":"","city":"Oujda"},{"name":"Pharmacie Azhar Isly","address":"rue Ahfir, lot Riad Isly 3/4 bloc 5 imm. Abou Imam OUJDA","phone":"05 36 52 22 76","location":"","city":"Oujda"},{"name":"Pharmacie Azizi","address":"23, bd. ElMakdiss , Hay Elqods OUJDA","phone":"05 36 50 25 33","location":"","city":"Oujda"},{"name":"Pharmacie Azzahrae","address":"16, bd. Mohamed Benouda , hay ElAndalous OUJDA","phone":"05 36 50 14 54","location":"","city":"Oujda"},{"name":"Pharmacie Bab Erryan","address":"Hay Riadi , lotiss. Kada Houcine H12/38 OUJDA","phone":"05 36 51 74 78","location":"","city":"Oujda"},{"name":"Pharmacie Badr Amal","address":"hay Al Amal, lot Benadi imm. Amal FVIT-TR2 OUJDA","phone":"05 36 52 00 95","location":"","city":"Oujda"},{"name":"Pharmacie Baghdad","address":"route Sidi Mrrafa , lotiss. l'Avenir n°32 OUJDA","phone":"05 36 53 48 80","location":"","city":"Oujda"},{"name":"Pharmacie Balsem","address":"rte de Jerada hay Nour  OUJDA","phone":"05 36 51 00 16","location":"","city":"Oujda"},{"name":"Pharmacie Batal","address":"hay Ngadi, Berramdan n°1  OUJDA","phone":"05 36 51 75 91","location":"","city":"Oujda"},{"name":"Pharmacie Echouhada","address":"Hay Salam , rue B10, n°35 OUJDA","phone":"05 36 51 71 61","location":"https://www.telecontact.ma/plan-acces/pharmacie-echouhada-/3199995/oujda","city":"Oujda"},{"name":"Pharmacie Ejjarda Koulouch","address":"Hay ElHassani , rue 115 ang. rue 146 OUJDA","phone":"05 36 52 21 21","location":"https://www.telecontact.ma/plan-acces/pharmacie-ejjarda-koulouch-/3107333/oujda","city":"Oujda"},{"name":"Pharmacie El Andaloussi","address":"Hay Si Lakhdar , rte. ElGharb B 46 n°4 OUJDA","phone":"05 36 51 80 80","location":"https://www.telecontact.ma/plan-acces/pharmacie-el-andaloussi-/3101295/oujda","city":"Oujda"},{"name":"Pharmacie El Ansari","address":"Hay ElWifak , rue 115 n°137 Koulouch OUJDA","phone":"05 36 52 09 19","location":"https://www.telecontact.ma/plan-acces/pharmacie-el-ansari-/3199996/oujda","city":"Oujda"},{"name":"Pharmacie El Meskyny","address":"rte d'Algérie , n°4 lot Al Kawtar OUJDA","phone":"05 36 71 63 06","location":"https://www.telecontact.ma/plan-acces/pharmacie-el-meskyny-/3335985/oujda","city":"Oujda"},{"name":"Pharmacie El Mouna","address":"bd. Hassan II ang. rue ElHachmi ElMiloud, n°24 OUJDA","phone":"05 36 50 33 53","location":"https://www.telecontact.ma/plan-acces/pharmacie-el-mouna-/3101298/oujda","city":"Oujda"},{"name":"Pharmacie El Mrabet","address":"13 Bis, lotiss. Mouhoub , rte El Aouina Lazaret OUJDA","phone":"05 36 74 91 19","location":"https://www.telecontact.ma/plan-acces/pharmacie-el-mrabet-/3274090/oujda","city":"Oujda"},{"name":"Pharmacie ElAounia","address":"rte ElAounia , Mosqué Essoufa OUJDA","phone":"05 36 70 09 04","location":"https://www.telecontact.ma/plan-acces/pharmacie-elaounia-/3107599/oujda","city":"Oujda"},{"name":"Pharmacie ElAzzaoui","address":"10, Kaffr Kacem , ElQods OUJDA","phone":"05 36 50 06 20","location":"https://www.telecontact.ma/plan-acces/pharmacie-elazzaoui-/3107589/oujda","city":"Oujda"},{"name":"Pharmacie ElBaraka","address":"10, bd. Mohamed Bedrane , hay ElWahda OUJDA","phone":"05 36 51 06 73","location":"https://www.telecontact.ma/plan-acces/pharmacie-elbaraka-/3199997/oujda","city":"Oujda"},{"name":"Pharmacie ElHouda","address":"Hay Elwahda E11 , n°31 Tarik ElGharb OUJDA","phone":"05 36 51 86 30","location":"https://www.telecontact.ma/plan-acces/pharmacie-elhouda-/3109896/oujda","city":"Oujda"},{"name":"Pharmacie ElHoudhoud","address":"Hay Nasr , rue Khabr n°1 OUJDA","phone":"05 36 70 02 03","location":"https://www.telecontact.ma/plan-acces/pharmacie-elhoudhoud-/3199999/oujda","city":"Oujda"},{"name":"Pharmacie ElJai","address":"5, rue Abdelaziz Taâlabi  OUJDA","phone":"05 36 71 24 70","location":"https://www.telecontact.ma/plan-acces/pharmacie-eljai-/3107999/oujda","city":"Oujda"},{"name":"Pharmacie ElMouhammadia","address":"rue Maâzouza, lotiss. Jebbour n°2  OUJDA","phone":"05 36 68 95 69","location":"https://www.telecontact.ma/plan-acces/pharmacie-elmouhammadia-/3108003/oujda","city":"Oujda"},{"name":"Pharmacie ElOuafi","address":"18, rue Tendrara , q. Sadrite Bouamoud OUJDA","phone":"05 36 70 60 12","location":"https://www.telecontact.ma/plan-acces/pharmacie-elouafi-/3107995/oujda","city":"Oujda"},{"name":"Pharmacie ElWali Sidi Driss","address":"Rte Sidi Driss , lotiss. Talhaoui, rue 2 n°8 OUJDA","phone":"05 36 70 70 40","location":"https://www.telecontact.ma/plan-acces/pharmacie-elwali-sidi-driss-/3101299/oujda","city":"Oujda"},{"name":"Pharmacie Elyousr","address":"Hay Riadi , lot Kada, n° 26, 60000  OUJDA","phone":"05 36 51 75 29","location":"https://www.telecontact.ma/plan-acces/pharmacie-elyousr-/3153282/oujda","city":"Oujda"},{"name":"Pharmacie Ennakhla","address":"51, bd. Ahfir , lotiss. Karsenty, 60000  OUJDA","phone":"05 36 52 38 98","location":"https://www.telecontact.ma/plan-acces/pharmacie-ennakhla-/1480700/oujda","city":"Oujda"},{"name":"Pharmacie Errahma","address":"59, rue Aouinet Serak  OUJDA","phone":"05 36 71 03 03","location":"https://www.telecontact.ma/plan-acces/pharmacie-errahma-/3200001/oujda","city":"Oujda"},{"name":"Pharmacie Errazi","address":"41, bd Sidi Yahya  OUJDA","phone":"05 36 69 02 25","location":"https://www.telecontact.ma/plan-acces/pharmacie-errazi-/3200003/oujda","city":"Oujda"},{"name":"Pharmacie Mly Miloud","address":"Hay Mly Miloud , lot Laalej rue E5/33 OUJDA","phone":"05 36 74 33 66","location":"https://www.telecontact.ma/plan-acces/pharmacie-mly-miloud-/3200034/oujda","city":"Oujda"},{"name":"Pharmacie Moderne","address":"35, Rue de Marrakech , 60000  OUJDA","phone":"05 36 68 28 71","location":"https://www.telecontact.ma/plan-acces/pharmacie-moderne-/0318700/oujda","city":"Oujda"},{"name":"Pharmacie Mosquée Anajd","address":"Hay Anajd II , bloc A n°C 2 Sidi Yahya OUJDA","phone":"05 50 01 28 28","location":"","city":"Oujda"},{"name":"Pharmacie Moulay Idriss","address":"7, bd Mly Idriss Al Akbar , 60000  OUJDA","phone":"05 36 68 43 99","location":"https://www.telecontact.ma/plan-acces/pharmacie-moulay-idriss-/1168200/oujda","city":"Oujda"},{"name":"Pharmacie Moulay Tayeb","address":"route d'Algerie , hay Mouritania OUJDA","phone":"05 36 74 20 60","location":"","city":"Oujda"},{"name":"Pharmacie Mouloudia","address":"hay AlManar , rue Mohamed Daoudi OUJDA","phone":"05 36 51 59 59","location":"","city":"Oujda"},{"name":"Pharmacie Mouslim","address":"25, bd. Mohammed V , 60000  OUJDA","phone":"05 36 70 60 66","location":"","city":"Oujda"},{"name":"Pharmacie Moustaousef Mbasso","address":"av. Allal El Fassi, lotiss. Sahli-B5.n°1  OUJDA","phone":"05 36 70 30 01","location":"","city":"Oujda"},{"name":"Pharmacie My Youssef","address":"20, bd. Mly Youssef ang. bd.Mohamed Boujemaâ, 60000  OUJDA","phone":"05 36 68 17 63","location":"","city":"Oujda"},{"name":"Pharmacie Nadia","address":"4, bd. Allal El Fassi, bloc 61  OUJDA","phone":"05 36 70 38 00","location":"","city":"Oujda"},{"name":"Pharmacie Nasrallah","address":"53, bd Hassan II , hay Moustakbal OUJDA","phone":"05 36 54 16 38","location":"","city":"Oujda"},{"name":"Pharmacie Nasser","address":"Dhar Lamhala , Lotiss. Alj, rue A n°82 OUJDA","phone":"05 36 74 57 41","location":"","city":"Oujda"},{"name":"Pharmacie Nil","address":"75, rue AlFourat , hay Najd Sidi Yahya OUJDA","phone":"05 36 54 00 62","location":"","city":"Oujda"},{"name":"Pharmacie Nora","address":"rte Sidi Yahia du Gharb, rue Alkhayrat n°29 hay Najd 3 OUJDA","phone":"05 36 54 27 22","location":"","city":"Oujda"},{"name":"Pharmacie Nour Marjane","address":"hay El Hassani, Nour Borj n°3 OUJDA","phone":"05 36 68 04 73","location":"","city":"Oujda"},{"name":"Pharmacie Nouvelle","address":"75, bd. Mohamed Derfoufi , 60000  OUJDA","phone":"05 36 68 44 37","location":"","city":"Oujda"},{"name":"Pharmacie Okba Ibn Nafi","address":"hay Kouloch , rue 101 n°16 OUJDA","phone":"05 36 52 04 10","location":"","city":"Oujda"},{"name":"Pharmacie Omar Ibn Khattab","address":"rte Omar Ibn Khattab  OUJDA","phone":"05 36 68 76 75","location":"","city":"Oujda"},{"name":"Pharmacie Omar Riffi","address":"rue Mohamed Slaoui ang. rue Med. Diouri, n°27 OUJDA","phone":"05 36 69 66 67","location":"","city":"Oujda"},{"name":"Pharmacie orientale","address":"71, bd. Mohamed V , 60000  OUJDA","phone":"05 36 68 27 69","location":"","city":"Oujda"},{"name":"Pharmacie Bay Koulouch","address":"hay Al Hassani , rue n°105 OUJDA","phone":"05 36 52 48 17","location":"","city":"Oujda"},{"name":"Pharmacie Aïn Serrak","address":"17, Hay Essalam, Aïn Serrak  OUJDA","phone":"05 36 53 19 39","location":"","city":"Oujda"},{"name":"Pharmacie Al Aqsa","address":"32, Lot Alfath 628  OUJDA","phone":"05 36 74 69 41","location":"https://www.telecontact.ma/plan-acces/pharmacie-al-aqsa-/3199968/oujda","city":"Oujda"},{"name":"Pharmacie Al Faraj","address":"3, hay Annasr, rte Marhnia OUJDA","phone":"05 36 70 28 28","location":"https://www.telecontact.ma/plan-acces/pharmacie-al-faraj-/3274758/oujda","city":"Oujda"},{"name":"Pharmacie Al Haram","address":"Dhar Lamhalla, lotiss. Douhi n°26 , Lazaret OUJDA","phone":"05 36 74 00 25","location":"https://www.telecontact.ma/plan-acces/pharmacie-al-haram-/3101300/oujda","city":"Oujda"},{"name":"Pharmacie Al Haramayne","address":"rue Med Ben Abdelkader , rte de Sidi Yahya OUJDA","phone":"05 36 50 18 18","location":"https://www.telecontact.ma/plan-acces/pharmacie-al-haramayne-/3266350/oujda","city":"Oujda"},{"name":"Pharmacie Al Hidaya","address":"1, rue Sanabil , hay Andalous OUJDA","phone":"05 36 50 13 90","location":"https://www.telecontact.ma/plan-acces/pharmacie-al-hidaya-/3199974/oujda","city":"Oujda"},{"name":"Pharmacie Al Irfane","address":"47, rue la Colombe , Hay Essaada OUJDA","phone":"05 36 50 43 63","location":"https://www.telecontact.ma/plan-acces/pharmacie-al-irfane-/3199978/oujda","city":"Oujda"},{"name":"Pharmacie Al Israe","address":"hay Essalam 2, al Ounia OUJDA","phone":"05 36 74 87 77","location":"https://www.telecontact.ma/plan-acces/pharmacie-al-israe-/3318978/oujda","city":"Oujda"},{"name":"Pharmacie Al Jaouhara","address":"Hay Al Jaouhara , rue B4 OUJDA","phone":"05 36 51 54 69","location":"https://www.telecontact.ma/plan-acces/pharmacie-al-jaouhara-/3246477/oujda","city":"Oujda"},{"name":"Pharmacie Al Kaa Al Morhatate","address":"9, rue AlKhalloufi 5 , Oued Nachef, 60000  OUJDA","phone":"05 36 51 35 47","location":"https://www.telecontact.ma/plan-acces/pharmacie-al-kaa-al-morhatate-/3161880/oujda","city":"Oujda"},{"name":"Pharmacie Al Kasr","address":"hay Mohammadi , résid. AlWahda OUJDA","phone":"05 36 52 44 94","location":"https://www.telecontact.ma/plan-acces/pharmacie-al-kasr-/3199979/oujda","city":"Oujda"},{"name":"Pharmacie Al Machfa Al Jamii","address":"Hay Al Hikma , lot. Oued Al Makhazine rue S6 n°5 OUJDA","phone":"05 36 50 30 64","location":"https://www.telecontact.ma/plan-acces/pharmacie-al-machfa-al-jamii-/3220602/oujda","city":"Oujda"},{"name":"Pharmacie Al Maghreb Al Arabi","address":"Bd Sidi Yahya ang. bd. Sidi Maâfa OUJDA","phone":"05 36 50 38 30","location":"https://www.telecontact.ma/plan-acces/pharmacie-al-maghreb-al-arabi-/3101296/oujda","city":"Oujda"},{"name":"Pharmacie Al Ouiam Al Fath","address":"hay El Fath, rue Wassila B20 n°1 OUJDA","phone":"06 97 37 54 10","location":"https://www.telecontact.ma/plan-acces/pharmacie-al-ouiam-al-fath-/3335986/oujda","city":"Oujda"},{"name":"Pharmacie Al Rayan","address":"hay El Hassani, rue Jissr OUJDA","phone":"05 36 68 28 07","location":"https://www.telecontact.ma/plan-acces/pharmacie-al-rayan-/3322093/oujda","city":"Oujda"},{"name":"Pharmacie Al Wiam","address":"rte. deTaza, hay El Wahda rue E  OUJDA","phone":"05 36 51 61 41","location":"https://www.telecontact.ma/plan-acces/pharmacie-al-wiam-/3107564/oujda","city":"Oujda"},{"name":"Pharmacie Alfirdaous","address":"75, Lot. Mouhoub , hay Oulad Yahya rte. AlAounia OUJDA","phone":"05 36 74 67 02","location":"https://www.telecontact.ma/plan-acces/pharmacie-alfirdaous-/3199972/oujda","city":"Oujda"},{"name":"Pharmacie AlHayat","address":"Hay Mohammadi  OUJDA","phone":"05 36 52 35 89","location":"https://www.telecontact.ma/plan-acces/pharmacie-alhayat-/3199973/oujda","city":"Oujda"},{"name":"Pharmacie AlHidaya","address":"1, rue Sanabil , Hay AlAndalous OUJDA","phone":"05 36 50 60 55","location":"https://www.telecontact.ma/plan-acces/pharmacie-alhidaya-/3266768/oujda","city":"Oujda"},{"name":"Pharmacie AlHikma","address":"10, rue Bouknadel , lotiss. Hila , Lazaret OUJDA","phone":"05 36 74 32 84","location":"https://www.telecontact.ma/plan-acces/pharmacie-alhikma-/3107797/oujda","city":"Oujda"},{"name":"Pharmacie AlIman","address":"5, bd Abderrahim Bouaabid  OUJDA","phone":"05 36 50 29 18","location":"https://www.telecontact.ma/plan-acces/pharmacie-aliman-/3101710/oujda","city":"Oujda"},{"name":"Pharmacie AlInara","address":"56, bd. Hassan II, cité ElInara  OUJDA","phone":"05 36 50 24 28","location":"https://www.telecontact.ma/plan-acces/pharmacie-alinara-/3107565/oujda","city":"Oujda"},{"name":"Pharmacie Alinsaf","address":"Rue Oued Eddahab , lot. Benkachour, n° 36, 60000  OUJDA","phone":"05 36 69 78 02","location":"https://www.telecontact.ma/plan-acces/pharmacie-alinsaf-/3153289/oujda","city":"Oujda"},{"name":"Pharmacie AlIrchad","address":"37, bd. Al Houria , hay AlHikma OUJDA","phone":"05 36 50 24 59","location":"https://www.telecontact.ma/plan-acces/pharmacie-alirchad-/3199977/oujda","city":"Oujda"}]