[{"name":"Pharmacie Galaxy Santé","address":"avenue Med. Belhassan El Ouazzani, Nahda 2 RABAT","phone":"05 37 63 60 56","location":"","city":"Rabat"},{"name":"Pharmacie Galien","address":"avenue Med. Belhassan El Ouazzani ang. rue Sanhaja, 10210  RABAT","phone":"05 37 75 97 47","location":"https://www.telecontact.ma/plan-acces/pharmacie-galien-/3096870/rabat","city":"Rabat"},{"name":"Pharmacie Gare Agdal","address":"place Gare Agdal , 10000  RABAT","phone":"05 37 77 42 20","location":"https://www.telecontact.ma/plan-acces/pharmacie-gare-agdal-/2193319/rabat","city":"Rabat"},{"name":"Pharmacie Gharbia","address":"35, rue de Karatchi, Gharbia, 10040  RABAT","phone":"05 37 20 16 50","location":"https://www.telecontact.ma/plan-acces/pharmacie-gharbia-/3032362/rabat","city":"Rabat"},{"name":"Pharmacie Gharnata","address":"812, quartier Amal 1 (c.y.m.), sect J5, 10140  RABAT","phone":"05 37 28 12 07","location":"https://www.telecontact.ma/plan-acces/pharmacie-gharnata-/2208805/rabat","city":"Rabat"},{"name":"Pharmacie Ghayt","address":"av. Annakhil, résid. Amical des Cadres RABAT","phone":"05 37 57 15 72","location":"https://www.telecontact.ma/plan-acces/pharmacie-ghayt-/3206296/rabat","city":"Rabat"},{"name":"Pharmacie Guedira","address":"3, avenue Allal Ben Abdellah , 10000  RABAT","phone":"05 37 73 03 00","location":"https://www.telecontact.ma/plan-acces/pharmacie-guedira-/0322800/rabat","city":"Rabat"},{"name":"Pharmacie Guelzim","address":"504, hay Nahda I, grp. Alaahd, 10210  RABAT","phone":"05 37 75 46 30","location":"https://www.telecontact.ma/plan-acces/pharmacie-guelzim-/3035449/rabat","city":"Rabat"},{"name":"Pharmacie Guennoun","address":"275, avenue Hassan II, résid. Oum Kaltoum, 10090  RABAT","phone":"05 37 69 80 02","location":"https://www.telecontact.ma/plan-acces/pharmacie-guennoun-/2194264/rabat","city":"Rabat"},{"name":"Pharmacie Hassania","address":"avenue Ahmed Réda Guédira, résid. Nakhil n°12 P RABAT","phone":"05 37 65 74 29","location":"https://www.telecontact.ma/plan-acces/pharmacie-hassania-/2194214/rabat","city":"Rabat"},{"name":"Pharmacie Hay Al Kora","address":"93, lotiss. Sidi Lyabouri , 10120  RABAT","phone":"05 37 29 91 76","location":"https://www.telecontact.ma/plan-acces/pharmacie-hay-al-kora-/3142315/rabat","city":"Rabat"},{"name":"Pharmacie hay AlFarah","address":"81, avenue El Farah , 102000  RABAT","phone":"05 37 75 06 03","location":"https://www.telecontact.ma/plan-acces/pharmacie-hay-alfarah-/3011007/rabat","city":"Rabat"},{"name":"Pharmacie hay Bouhlal","address":"43, avenue Sidi Mohamed Ben Abdallah, hay Bouhlal, 10120  RABAT","phone":"05 37 29 77 17","location":"https://www.telecontact.ma/plan-acces/pharmacie-hay-bouhlal-/2193266/rabat","city":"Rabat"},{"name":"Pharmacie Hay Echabab","address":"avenue Ennour bloc 18 n° 2 Hay Chabab, 10120  RABAT","phone":"05 37 69 29 02","location":"https://www.telecontact.ma/plan-acces/pharmacie-hay-echabab-/3138335/rabat","city":"Rabat"},{"name":"Pharmacie Hyper Label'vie","address":"bd Mohammed VI -ex Imam Malik, Souissi c. com. Label'vie, 10170  RABAT","phone":"05 37 75 55 55","location":"","city":"Rabat"},{"name":"Pharmacie Ibn Baytar","address":"40, quartier Amal 0, av AlMassira C.y.m., 10130  RABAT","phone":"05 37 79 43 64","location":"https://www.telecontact.ma/plan-acces/pharmacie-ibn-baytar-/0323100/rabat","city":"Rabat"},{"name":"Pharmacie Ibn Elhaytham","address":"119, avenue Al Moukaouama - ex Résistance , 10050  RABAT","phone":"05 37 73 46 03","location":"https://www.telecontact.ma/plan-acces/pharmacie-ibn-elhaytham-/1621800/rabat","city":"Rabat"},{"name":"Pharmacie Ibn Hajar","address":"4, rue Ibn Hajjar, Agdal, 10090  RABAT","phone":"05 37 68 06 87","location":"https://www.telecontact.ma/plan-acces/pharmacie-ibn-hajar-/3010053/rabat","city":"Rabat"},{"name":"Pharmacie Ibn Khatab","address":"32, avenue Omar Ibn Khattab , 10090  RABAT","phone":"05 37 77 57 81","location":"https://www.telecontact.ma/plan-acces/pharmacie-ibn-khatab-/1623400/rabat","city":"Rabat"},{"name":"Pharmacie Ibn Nafis","address":"12, rue Jazirat Al Arab , 10040  RABAT","phone":"05 37 72 06 57","location":"https://www.telecontact.ma/plan-acces/pharmacie-ibn-nafis-/0323200/rabat","city":"Rabat"},{"name":"Pharmacie Fadesa","address":"Groupe Fadesa , club Fadesa imm. 55 n°1 RABAT","phone":"05 37 75 61 13","location":"https://www.telecontact.ma/plan-acces/pharmacie-fadesa-/3332419/rabat","city":"Rabat"},{"name":"Pharmacie Fakhara","address":"douar Doum, rue 53 n° 21 hay Abi Raqraq RABAT","phone":"05 37 65 87 47","location":"https://www.telecontact.ma/plan-acces/pharmacie-fakhara-/3291078/rabat","city":"Rabat"},{"name":"Pharmacie Fatima-Zahraa","address":"814, quartier Jabal Arraissi, bloc 5 B3, 10200  RABAT","phone":"05 37 75 89 73","location":"https://www.telecontact.ma/plan-acces/pharmacie-fatima-zahraa-/3035326/rabat","city":"Rabat"},{"name":"Pharmacie Fellat","address":"16, place de Russia (Russie) , 10040  RABAT","phone":"05 37 72 08 87","location":"https://www.telecontact.ma/plan-acces/pharmacie-fellat-/0322700/rabat","city":"Rabat"},{"name":"Pharmacie Fleming","address":"1, lotissement Sahel, Souissi RABAT","phone":"05 37 75 70 75","location":"https://www.telecontact.ma/plan-acces/pharmacie-fleming-/3291086/rabat","city":"Rabat"},{"name":"Pharmacie Diour jamaâ","address":"3, rue de Tahiti, mag. n°3, 10060  RABAT","phone":"05 37 26 16 68","location":"","city":"Rabat"},{"name":"Pharmacie Doum","address":"211, av. Goundafa (qu. Youssoufia ouest), hay Abou-Regreg, 10190  RABAT","phone":"05 37 63 04 17","location":"https://www.telecontact.ma/plan-acces/pharmacie-doum-/2156577/rabat","city":"Rabat"},{"name":"Pharmacie du 16 novembre","address":"16, rue Seize Novembre Agdal, 10080  RABAT","phone":"05 37 67 00 24","location":"https://www.telecontact.ma/plan-acces/pharmacie-du-16-novembre-/2168221/rabat","city":"Rabat"},{"name":"Pharmacie du Bou-Regreg","address":"quartier Youssoufia Ouest, bloc 60 n°120, sect. B, 10190  RABAT","phone":"05 37 65 35 88","location":"https://www.telecontact.ma/plan-acces/pharmacie-du-bou-regreg-/2156508/rabat","city":"Rabat"},{"name":"Pharmacie du Cèdre","address":"5, avenue Ouled Mrah, Youssoufia Ouest, 10190  RABAT","phone":"05 37 65 55 41","location":"","city":"Rabat"},{"name":"Pharmacie du Croissant","address":"200, avenue Sidi Mohamed Ben Abdallah , 10050  RABAT","phone":"05 37 69 04 23","location":"https://www.telecontact.ma/plan-acces/pharmacie-du-croissant-/0321700/rabat","city":"Rabat"},{"name":"Pharmacie du Golf","address":"bd Mohammed VI -ex Imam Malik, km 7,5, 10170  RABAT","phone":"05 37 75 52 57","location":"https://www.telecontact.ma/plan-acces/pharmacie-du-golf-/2148671/rabat","city":"Rabat"},{"name":"Pharmacie du Haut Souissi","address":"quartier Souissi, lotiss. Laamara, n°1 bis RABAT","phone":"05 37 65 19 63","location":"https://www.telecontact.ma/plan-acces/pharmacie-du-haut-souissi-/3251968/rabat","city":"Rabat"},{"name":"Pharmacie du Mail Central","address":"Hay Ryad, lot n°17, sect. 9, 10100  RABAT","phone":"05 37 71 67 82","location":"https://www.telecontact.ma/plan-acces/pharmacie-du-mail-central-/3074518/rabat","city":"Rabat"},{"name":"Pharmacie du Mausolée","address":"8, rue Al Mouahidine , 10020  RABAT","phone":"05 37 72 51 20","location":"","city":"Rabat"},{"name":"Pharmacie du Mechouar","address":"quartier Thata, Marche Thata, n°16/20, 10090  RABAT","phone":"05 37 76 05 69","location":"https://www.telecontact.ma/plan-acces/pharmacie-du-mechouar-/3007170/rabat","city":"Rabat"},{"name":"Pharmacie du Minaret","address":"252, avenue Hassan II , 10060  RABAT","phone":"05 37 72 64 95","location":"https://www.telecontact.ma/plan-acces/pharmacie-du-minaret-/0324700/rabat","city":"Rabat"},{"name":"Pharmacie du Parc","address":"57, bd Mohammed VI -ex John Kennedy , 10180  RABAT","phone":"05 37 75 14 97","location":"https://www.telecontact.ma/plan-acces/pharmacie-du-parc-/1794200/rabat","city":"Rabat"},{"name":"Pharmacie du Soleil","address":"16, rue Dar El Beïda , 10020  RABAT","phone":"05 37 72 46 63","location":"https://www.telecontact.ma/plan-acces/pharmacie-du-soleil-/0326700/rabat","city":"Rabat"},{"name":"Pharmacie du Théâtre","address":"11, rue Haj Abdeslam Kabbaj -ex Almarj , 10020  RABAT","phone":"05 37 70 27 94","location":"","city":"Rabat"},{"name":"Pharmacie El Mellah","address":"7, impasse Assouli, El mellah RABAT","phone":"05 37 20 18 02","location":"https://www.telecontact.ma/plan-acces/pharmacie-el-mellah-/3316244/rabat","city":"Rabat"},{"name":"Pharmacie El Mouna","address":"9, rue Ibn Taymia, av. Chebanat CYM, 10140  RABAT","phone":"05 37 29 06 73","location":"https://www.telecontact.ma/plan-acces/pharmacie-el-mouna-/2190434/rabat","city":"Rabat"},{"name":"Pharmacie ElAmine","address":"281, avenue Hassan II , 10060  RABAT","phone":"05 37 72 69 32","location":"https://www.telecontact.ma/plan-acces/pharmacie-elamine-/1481000/rabat","city":"Rabat"},{"name":"Pharmacie ElAtlas","address":"204, avenue Sidi Mohamed Ben Abdallah, sect. C cym., 10120  RABAT","phone":"05 37 69 23 59","location":"https://www.telecontact.ma/plan-acces/pharmacie-elatlas-/2149341/rabat","city":"Rabat"},{"name":"Pharmacie ElGuich","address":"34, hay Guich Loudaya, C. Com., 10160  RABAT","phone":"05 37 56 18 21","location":"https://www.telecontact.ma/plan-acces/pharmacie-elguich-/2194762/rabat","city":"Rabat"},{"name":"Pharmacie Dahab","address":"72 Bis, rue El Hadj Hassan, Akkari, 10050  RABAT","phone":"05 37 69 79 17","location":"https://www.telecontact.ma/plan-acces/pharmacie-dahab-/3074438/rabat","city":"Rabat"},{"name":"Pharmacie Dar Achabab","address":"984, bd des Forces Armées Royales Amal 5, AlMassira, 10150  RABAT","phone":"05 37 79 22 54","location":"https://www.telecontact.ma/plan-acces/pharmacie-dar-achabab-/2155727/rabat","city":"Rabat"},{"name":"Pharmacie Dar Essalam","address":"607, hay Nahda, grp.1, 10210  RABAT","phone":"05 37 75 41 11","location":"https://www.telecontact.ma/plan-acces/pharmacie-dar-essalam-/2158995/rabat","city":"Rabat"},{"name":"Pharmacie de Kebibat","address":"7, rue Omar Slaoui , 10050  RABAT","phone":"05 37 69 05 07","location":"https://www.telecontact.ma/plan-acces/pharmacie-de-kebibat-/0323900/rabat","city":"Rabat"},{"name":"Pharmacie de l'Agdal","address":"rue Ibn Hanbal résid. Ibn Khaldoun, 10080  RABAT","phone":"05 37 67 16 00","location":"","city":"Rabat"},{"name":"Pharmacie de l'Aviation","address":"115, bd Houmane Al Fétouaki , 10180  RABAT","phone":"05 37 63 12 24","location":"","city":"Rabat"},{"name":"Pharmacie de l'étoile","address":"4, rue Al Amir Abdelkader , 10080  RABAT","phone":"05 37 67 14 14","location":"","city":"Rabat"},{"name":"Pharmacie de l'hôpital","address":"18, place d' Italia (Italie) , 10040  RABAT","phone":"05 37 72 53 68","location":"","city":"Rabat"},{"name":"Pharmacie de l'Océan","address":"54, avenue Abdelkrim Al Khattabi , 10040  RABAT","phone":"05 37 20 21 76","location":"","city":"Rabat"},{"name":"Pharmacie de la capitale","address":"15, rue Moulay Abd Al Aziz , 10010  RABAT","phone":"05 37 70 31 23","location":"https://www.telecontact.ma/plan-acces/pharmacie-de-la-capitale-/0321200/rabat","city":"Rabat"},{"name":"Pharmacie de la côte","address":"avenue Kifah (c.y.m.), sect. AO n°15, 10120  RABAT","phone":"05 37 69 11 54","location":"","city":"Rabat"},{"name":"Pharmacie de la Marne","address":"42, rue Patrice Lumumba , 10010  RABAT","phone":"05 37 76 42 57","location":"https://www.telecontact.ma/plan-acces/pharmacie-de-la-marne-/0324500/rabat","city":"Rabat"},{"name":"Pharmacie de la médina","address":"6 Bis, rue Bab Chellah , 10030  RABAT","phone":"05 37 72 70 62","location":"","city":"Rabat"},{"name":"Pharmacie de la mosquée hay Ryad","address":"Hay Ryad, n°5 sect. 17 allée Safsaf résid. Amal, 10100  RABAT","phone":"05 37 71 50 85","location":"","city":"Rabat"},{"name":"Pharmacie de la Muraille","address":"14, avenue Ibn Toumert , 10060  RABAT","phone":"05 37 70 88 77","location":"https://www.telecontact.ma/plan-acces/pharmacie-de-la-muraille-/3154871/rabat","city":"Rabat"},{"name":"Pharmacie de la Résistance","address":"32, avenue Al Moukaouama - ex Résistance , 10040  RABAT","phone":"05 37 72 40 55","location":"","city":"Rabat"},{"name":"Pharmacie de la santé","address":"17, av. Goundafa (qu. Youssoufia ouest), grp. 3, 10190  RABAT","phone":"05 37 65 02 52","location":"","city":"Rabat"},{"name":"Pharmacie de la Tour Hassan","address":"1, pl. de l' Unité Africaine , 10020  RABAT","phone":"05 37 72 02 50","location":"https://www.telecontact.ma/plan-acces/pharmacie-de-la-tour-hassan-/0327200/rabat","city":"Rabat"},{"name":"Pharmacie de Madagascar","address":"67, avenue de Madagascar , 10060  RABAT","phone":"05 37 73 22 10","location":"https://www.telecontact.ma/plan-acces/pharmacie-de-madagascar-/0324300/rabat","city":"Rabat"},{"name":"Pharmacie de Rabat","address":"avenue du Mali, imm. AB de l'Erak, 10060  RABAT","phone":"05 37 70 74 68","location":"https://www.telecontact.ma/plan-acces/pharmacie-de-rabat-/2136157/rabat","city":"Rabat"},{"name":"Pharmacie Ibn Rochd","address":"2, Avenue Essalam (c.y.m.) , 10120  RABAT","phone":"05 37 69 01 19","location":"https://www.telecontact.ma/plan-acces/pharmacie-ibn-rochd-/0323300/rabat","city":"Rabat"},{"name":"Pharmacie Ibn Sina","address":"78, av Al Amir Fal Ould Oumeir, Agdal, 10080  RABAT","phone":"05 37 67 20 16","location":"https://www.telecontact.ma/plan-acces/pharmacie-ibn-sina-/0323400/rabat","city":"Rabat"},{"name":"Pharmacie Ibn Tofail","address":"Avenue Essalam (c.y.m.) , 10120  RABAT","phone":"05 37 69 56 85","location":"https://www.telecontact.ma/plan-acces/pharmacie-ibn-tofail-/1502100/rabat","city":"Rabat"},{"name":"Pharmacie Ibn Toumerte","address":"40, avenue Ibn Toumert , 10060  RABAT","phone":"05 37 70 20 95","location":"https://www.telecontact.ma/plan-acces/pharmacie-ibn-toumerte-/3033832/rabat","city":"Rabat"},{"name":"Pharmacie Ibn Yassine","address":"6, place Ibn Yassin , 10090  RABAT","phone":"05 37 77 27 43","location":"https://www.telecontact.ma/plan-acces/pharmacie-ibn-yassine-/0884200/rabat","city":"Rabat"},{"name":"Pharmacie Ibn Zohr","address":"avenue Kifah (c.y.m.), bloc C n°19, 10120  RABAT","phone":"05 37 69 55 23","location":"https://www.telecontact.ma/plan-acces/pharmacie-ibn-zohr-/0323600/rabat","city":"Rabat"},{"name":"Pharmacie Idéale","address":"594, bd El Manzah (c.y.m.) , 10150  RABAT","phone":"05 37 79 59 34","location":"","city":"Rabat"},{"name":"Pharmacie Iklil Ryad","address":"7, rue Al Kharoub sect.16, Ryad, 10100  RABAT","phone":"05 37 71 38 68","location":"https://www.telecontact.ma/plan-acces/pharmacie-iklil-ryad-/2194297/rabat","city":"Rabat"},{"name":"Pharmacie Iswane","address":"37, rue Jâafar As Sadik , 10080  RABAT","phone":"05 37 67 07 77","location":"https://www.telecontact.ma/plan-acces/pharmacie-iswane-/2151471/rabat","city":"Rabat"},{"name":"Pharmacie des Cartes","address":"64, avenue Al Oumam AlMouttahida -ex Nations Unies , 1008  RABAT","phone":"05 37 67 10 90","location":"https://www.telecontact.ma/plan-acces/pharmacie-des-cartes-/3204113/rabat","city":"Rabat"},{"name":"Pharmacie des Cités","address":"hay Guich Loudaya, lotiss. Warda, 10160  RABAT","phone":"05 37 56 03 35","location":"","city":"Rabat"},{"name":"Pharmacie des Cliniques","address":"9, rue d' Ouazzane, Hassan, 10020  RABAT","phone":"05 37 20 33 64","location":"https://www.telecontact.ma/plan-acces/pharmacie-des-cliniques-/3114379/rabat","city":"Rabat"},{"name":"Pharmacie des Ecoles","address":"Hay Ryad, rue Al Joutane Sect. 22 k-5, 10110  RABAT","phone":"05 37 56 50 87","location":"https://www.telecontact.ma/plan-acces/pharmacie-des-ecoles-/3118339/rabat","city":"Rabat"},{"name":"Pharmacie des Facultés","address":"52, avenue Omar Ibn Khattab , 10090  RABAT","phone":"05 37 77 34 40","location":"","city":"Rabat"},{"name":"Pharmacie des Nations Unies","address":"19 Bis, rue Jabal Al Ayachi, Agdal, 10080  RABAT","phone":"05 37 67 07 19","location":"https://www.telecontact.ma/plan-acces/pharmacie-des-nations-unies-/2144776/rabat","city":"Rabat"},{"name":"Pharmacie des Orangers","address":"189, avenue Hassan II , 10060  RABAT","phone":"05 37 72 30 53","location":"https://www.telecontact.ma/plan-acces/pharmacie-des-orangers-/0325300/rabat","city":"Rabat"},{"name":"Pharmacie des Oudaias","address":"17, place des Oudayah , 10030  RABAT","phone":"05 37 73 44 10","location":"https://www.telecontact.ma/plan-acces/pharmacie-des-oudaias-/1502000/rabat","city":"Rabat"},{"name":"Pharmacie des Résidences","address":"233, hay El Manzeh (c.y.m.) , 10150  RABAT","phone":"05 37 28 11 97","location":"","city":"Rabat"},{"name":"Pharmacie des Universités","address":"79, av Ibn Sina , 10080  RABAT","phone":"05 37 67 04 04","location":"","city":"Rabat"},{"name":"Pharmacie des Zaers","address":"bd Mohammed VI -ex Imam Malik , 10170  RABAT","phone":"05 37 75 21 87","location":"https://www.telecontact.ma/plan-acces/pharmacie-des-zaers-/0327600/rabat","city":"Rabat"},{"name":"Pharmacie AlBoustane","address":"69, bd Moustakbal, Amal 4 compl. (c.y.m.), 10140  RABAT","phone":"05 37 79 92 93","location":"https://www.telecontact.ma/plan-acces/pharmacie-alboustane-/2159500/rabat","city":"Rabat"},{"name":"Pharmacie Alem","address":"hay El Fath, imm. 220 n°40, C.y.m., 10150  RABAT","phone":"05 37 79 67 59","location":"https://www.telecontact.ma/plan-acces/pharmacie-alem-/2149338/rabat","city":"Rabat"},{"name":"Pharmacie Alfadila","address":"avenue Ennour, bloc K, n°9 c.y.m, 10120  RABAT","phone":"05 37 69 07 42","location":"https://www.telecontact.ma/plan-acces/pharmacie-alfadila-/1793700/rabat","city":"Rabat"},{"name":"Pharmacie AlFaraj","address":"21 Bis, rue Balafrej , 10050  RABAT","phone":"05 37 69 27 46","location":"https://www.telecontact.ma/plan-acces/pharmacie-alfaraj-/1617400/rabat","city":"Rabat"},{"name":"Pharmacie AlHamd","address":"avenue Al Massira (C.y.m), bloc \"G\", n°5, 10150  RABAT","phone":"05 37 29 46 37","location":"https://www.telecontact.ma/plan-acces/pharmacie-alhamd-/3007004/rabat","city":"Rabat"},{"name":"Pharmacie AlIntilak","address":"5, bd Mohamed Triki, résid. Attaisir, 10090  RABAT","phone":"05 37 29 53 77","location":"https://www.telecontact.ma/plan-acces/pharmacie-alintilak-/2206204/rabat","city":"Rabat"},{"name":"Pharmacie Alioua","address":"hay Errachade, rue 65 n°104 bis, 10210  RABAT","phone":"05 37 75 98 09","location":"https://www.telecontact.ma/plan-acces/pharmacie-alioua-/3035608/rabat","city":"Rabat"},{"name":"Pharmacie Aljazaâ","address":"75, avenue Mohammed V , 10030  RABAT","phone":"05 37 72 10 02","location":"","city":"Rabat"},{"name":"Pharmacie AlKhair","address":"49, avenue Sidi Mohamed Ben Abdallah, (c.y.m), 10120  RABAT","phone":"05 37 69 52 43","location":"https://www.telecontact.ma/plan-acces/pharmacie-alkhair-/2148184/rabat","city":"Rabat"},{"name":"Pharmacie Alkhawarizmi","address":"1180, bd El Manzah (c.y.m.), hay El Manzah, 10150  RABAT","phone":"05 37 79 11 79","location":"https://www.telecontact.ma/plan-acces/pharmacie-alkhawarizmi-/2160256/rabat","city":"Rabat"},{"name":"Pharmacie Alkifah","address":"avenue Kifah (c.y.m.), bloc \"DA\", n°26, 10150  RABAT","phone":"05 37 79 68 56","location":"https://www.telecontact.ma/plan-acces/pharmacie-alkifah-/0324000/rabat","city":"Rabat"},{"name":"Pharmacie Almaghreb Alarabi","address":"25, avenue Maghrib Al Arabi , 10060  RABAT","phone":"05 37 73 26 37","location":"https://www.telecontact.ma/plan-acces/pharmacie-almaghreb-alarabi-/2122809/rabat","city":"Rabat"},{"name":"Pharmacie AlMajd","address":"quartier Al Kouass bloc DS n°9, cym, 10130  RABAT","phone":"05 37 79 96 96","location":"https://www.telecontact.ma/plan-acces/pharmacie-almajd-/2122811/rabat","city":"Rabat"},{"name":"Pharmacie AlManal","address":"hay Nahda, rue Sadrata n°240, 10210  RABAT","phone":"05 37 65 55 54","location":"https://www.telecontact.ma/plan-acces/pharmacie-almanal-/2159001/rabat","city":"Rabat"},{"name":"Pharmacie AlMarwa","address":"av Al Arz (h. Ryad), sect. 8, bloc F n°4, 10100  RABAT","phone":"05 37 56 39 45","location":"https://www.telecontact.ma/plan-acces/pharmacie-almarwa-/3086181/rabat","city":"Rabat"},{"name":"Pharmacie AlMasjid","address":"9, avenue Sidi Mohamed Ben Abdallah, hay Lahbass, c.y.m., 10020  RABAT","phone":"05 37 29 58 09","location":"https://www.telecontact.ma/plan-acces/pharmacie-almasjid-/0320100/rabat","city":"Rabat"},{"name":"Pharmacie Almassira","address":"1081, avenue Al Massira (C.y.m), Amal 5, 10150  RABAT","phone":"05 37 79 50 61","location":"https://www.telecontact.ma/plan-acces/pharmacie-almassira-/1793500/rabat","city":"Rabat"},{"name":"Pharmacie AlMinbat","address":"18, bd Mehdi Benbarka -ex Béni Znassen, Souissi, 10180  RABAT","phone":"05 37 75 16 07","location":"https://www.telecontact.ma/plan-acces/pharmacie-alminbat-/3074722/rabat","city":"Rabat"},{"name":"Pharmacie AlMountalak","address":"23, lotissement Mountalak, hay AlFath, 10150  RABAT","phone":"05 37 29 44 80","location":"https://www.telecontact.ma/plan-acces/pharmacie-almountalak-/3057043/rabat","city":"Rabat"},{"name":"Pharmacie Alosra","address":"66, hay Nahda I, Complement, 10210  RABAT","phone":"05 37 75 95 59","location":"https://www.telecontact.ma/plan-acces/pharmacie-alosra-/2193945/rabat","city":"Rabat"},{"name":"Pharmacie Loubaris","address":"avenue Med. Belhassan El Ouazzani, Suissi, 10200  RABAT","phone":"05 37 75 47 13","location":"https://www.telecontact.ma/plan-acces/pharmacie-loubaris-/2155457/rabat","city":"Rabat"},{"name":"Pharmacie Louka Pharma","address":"23, avenue Mohammed V, Rte des Zaers RABAT","phone":"05 37 63 49 12","location":"https://www.telecontact.ma/plan-acces/pharmacie-louka-pharma-/3311978/rabat","city":"Rabat"},{"name":"Pharmacie Lumière","address":"1, lotissement Azib Dinia, bd Mohammed VI, km 12 RABAT","phone":"05 37 66 66 01","location":"","city":"Rabat"},{"name":"Pharmacie Mabella","address":"cité Mabella , 10180  RABAT","phone":"05 37 65 14 68","location":"https://www.telecontact.ma/plan-acces/pharmacie-mabella-/0324200/rabat","city":"Rabat"},{"name":"Pharmacie Marassa","address":"bd Misr ang. rue Cobross, 10040  RABAT","phone":"05 37 20 19 63","location":"https://www.telecontact.ma/plan-acces/pharmacie-marassa-/2160186/rabat","city":"Rabat"},{"name":"Pharmacie Marché de Gros","address":"hay Lahbass, n°67 rue 7 Bled Frej C.y.m., 10120  RABAT","phone":"05 37 23 11 77","location":"","city":"Rabat"},{"name":"Pharmacie Marjane","address":"rue d' Azilal, c.com. Marjane Bouregreg, 10000  RABAT","phone":"05 37 70 16 63","location":"https://www.telecontact.ma/plan-acces/pharmacie-marjane-/2164351/rabat","city":"Rabat"},{"name":"Pharmacie Marjane Ryad","address":"Hay Ryad, Marjane, 10100  RABAT","phone":"05 37 71 44 56","location":"https://www.telecontact.ma/plan-acces/pharmacie-marjane-ryad-/3037476/rabat","city":"Rabat"},{"name":"Pharmacie Mazhar","address":"127, avenue Al Majd, Amal 3 cym., 10150  RABAT","phone":"05 37 79 46 66","location":"https://www.telecontact.ma/plan-acces/pharmacie-mazhar-/1171700/rabat","city":"Rabat"},{"name":"Pharmacie Mecca","address":"avenue Ailanthus, hay Ryad sec. 23 résid. les Cênes RABAT","phone":"05 37 56 58 75","location":"https://www.telecontact.ma/plan-acces/pharmacie-mecca-/3246906/rabat","city":"Rabat"},{"name":"Pharmacie Mega Mall","address":"bd Mohammed VI -ex Imam Malik, km 4,2 c/c Mega Mall, 10170  RABAT","phone":"05 37 63 93 71","location":"https://www.telecontact.ma/plan-acces/pharmacie-mega-mall-/3136014/rabat","city":"Rabat"},{"name":"Pharmacie Meskellil","address":"Hay Ryad, résid. Meskellil imm. 3 Sect.23, 10100  RABAT","phone":"05 37 71 46 24","location":"https://www.telecontact.ma/plan-acces/pharmacie-meskellil-/3200086/rabat","city":"Rabat"},{"name":"Pharmacie Michlifen","address":"2, avenue de Michlifen , 10080  RABAT","phone":"05 37 67 26 87","location":"https://www.telecontact.ma/plan-acces/pharmacie-michlifen-/1794100/rabat","city":"Rabat"},{"name":"Pharmacie Mimosas","address":"hay El Fath, résid. Mimosas (C.g.i), 10150  RABAT","phone":"05 37 29 20 00","location":"https://www.telecontact.ma/plan-acces/pharmacie-mimosas-/3056291/rabat","city":"Rabat"},{"name":"Pharmacie Misk","address":"avenue Abderrahim Bouabid, hay Riad sect. 21 bloc B n°12, 10100  RABAT","phone":"05 37 71 25 20","location":"https://www.telecontact.ma/plan-acces/pharmacie-misk-/3094582/rabat","city":"Rabat"},{"name":"Pharmacie Moderne","address":"place Rabia Al Adaouiya, résid. Kais, 10090  RABAT","phone":"05 37 77 23 54","location":"https://www.telecontact.ma/plan-acces/pharmacie-moderne-/1502700/rabat","city":"Rabat"},{"name":"Pharmacie Mosquée Karrakchou","address":"bd Al Amir Sidi Mohamed, Souissi, 10100  RABAT","phone":"05 37 75 95 15","location":"","city":"Rabat"},{"name":"Pharmacie Mosquée O.l.m","address":"rue Hamza Ben Amr, Souissi II, 10180  RABAT","phone":"05 37 63 81 19","location":"","city":"Rabat"},{"name":"Pharmacie Moulay Ismail","address":"24, av. Moulay Ismaïl, 4 bis Hassan, 10020  RABAT","phone":"05 37 20 37 81","location":"https://www.telecontact.ma/plan-acces/pharmacie-moulay-ismail-/3183415/rabat","city":"Rabat"},{"name":"Pharmacie Moulay Youssef","address":"184, avenue Sidi Mohamed Ben Abdallah Akkari, 10050  RABAT","phone":"05 37 69 19 37","location":"https://www.telecontact.ma/plan-acces/pharmacie-moulay-youssef-/2122810/rabat","city":"Rabat"},{"name":"Pharmacie Secteur 15","address":"10, bd Mohamed Lyazidi ex Abi Raqraq, bloc F, hay Ryad RABAT","phone":"05 30 02 68 15","location":"https://www.telecontact.ma/plan-acces/pharmacie-secteur-15-/9019256/rabat","city":"Rabat"},{"name":"Pharmacie Sofia","address":"1205 Bis, avenue Al Massira (C.y.m), hay Almanzah, 10150  RABAT","phone":"05 37 28 29 28","location":"https://www.telecontact.ma/plan-acces/pharmacie-sofia-/2149899/rabat","city":"Rabat"},{"name":"Pharmacie Souika","address":"5, rue Souika, kiss. Frej n°172 RABAT","phone":"05 37 70 30 36","location":"https://www.telecontact.ma/plan-acces/pharmacie-souika-/3335305/rabat","city":"Rabat"},{"name":"Pharmacie Souissi","address":"rue Médyounah (Médiouna) , 10180  RABAT","phone":"05 37 75 39 39","location":"https://www.telecontact.ma/plan-acces/pharmacie-souissi-/0326800/rabat","city":"Rabat"},{"name":"Pharmacie Souk Tahti","address":"155, rue des Consuls, kiss El Jadida, 10030  RABAT","phone":"05 37 20 55 92","location":"https://www.telecontact.ma/plan-acces/pharmacie-souk-tahti-/3006779/rabat","city":"Rabat"},{"name":"Pharmacie Soundous","address":"hay Guich Loudaya, Hammam Amal n°3, 10160  RABAT","phone":"05 37 56 00 21","location":"https://www.telecontact.ma/plan-acces/pharmacie-soundous-/2194755/rabat","city":"Rabat"},{"name":"Pharmacie Takaddoum","address":"1, bd Al Haouz Bloc 14 Zaïtoune, 10200  RABAT","phone":"05 37 65 14 96","location":"https://www.telecontact.ma/plan-acces/pharmacie-takaddoum-/0327000/rabat","city":"Rabat"},{"name":"Pharmacie Talha","address":"bd Mohammed VI -ex Imam Malik, km 5.9, 4 rue Beni Meskine, 10170  RABAT","phone":"05 37 65 76 34","location":"https://www.telecontact.ma/plan-acces/pharmacie-talha-/3076360/rabat","city":"Rabat"},{"name":"Pharmacie Tamouh","address":"hay Nahda 3, grp Chourouk n°58, 10210  RABAT","phone":"05 37 65 96 66","location":"https://www.telecontact.ma/plan-acces/pharmacie-tamouh-/3199480/rabat","city":"Rabat"},{"name":"Pharmacie Tansift","address":"80, rue Tansift , 10080  RABAT","phone":"05 37 68 16 76","location":"https://www.telecontact.ma/plan-acces/pharmacie-tansift-/3055766/rabat","city":"Rabat"},{"name":"Pharmacie Tarik","address":"avenue Al Massira (C.y.m), Amal 4, n°16, 10150  RABAT","phone":"05 37 79 83 47","location":"https://www.telecontact.ma/plan-acces/pharmacie-tarik-/1502400/rabat","city":"Rabat"},{"name":"Pharmacie Terminus AlFath","address":"hay El Fath, imm. 30 Cym., 10150  RABAT","phone":"05 37 79 26 35","location":"https://www.telecontact.ma/plan-acces/pharmacie-terminus-alfath-/3131147/rabat","city":"Rabat"},{"name":"Pharmacie Warda","address":"7, avenue Bir Kacem, Souissi, 10100  RABAT","phone":"05 37 65 99 77","location":"https://www.telecontact.ma/plan-acces/pharmacie-warda-/3076398/rabat","city":"Rabat"},{"name":"Pharmacie Ya-sin","address":"hay Nahda II, n°1 et 2 mosquée Annahda, 10210  RABAT","phone":"05 37 75 40 08","location":"https://www.telecontact.ma/plan-acces/pharmacie-ya-sin-/2193891/rabat","city":"Rabat"},{"name":"Pharmacie Yacoub ElMansour","address":"6, avenue Al Majd, Massira V imm.2 mag.4, 10150  RABAT","phone":"05 37 29 48 41","location":"https://www.telecontact.ma/plan-acces/pharmacie-yacoub-elmansour-/2183833/rabat","city":"Rabat"},{"name":"Pharmacie Yamina","address":"bd Aïn Khalouya, km 5.3, Souissi RABAT","phone":"05 37 75 69 75","location":"https://www.telecontact.ma/plan-acces/pharmacie-yamina-/3245861/rabat","city":"Rabat"},{"name":"Pharmacie Yasmine","address":"111, avenue El Farah , 10200  RABAT","phone":"05 37 65 52 41","location":"https://www.telecontact.ma/plan-acces/pharmacie-yasmine-/0325400/rabat","city":"Rabat"},{"name":"Pharmacie Youssoufia","address":"quartier Youssoufia, place du Marché n°47 RABAT","phone":"05 37 65 10 27","location":"https://www.telecontact.ma/plan-acces/pharmacie-youssoufia-/0327500/rabat","city":"Rabat"},{"name":"Pharmacie Zahra","address":"12, av. Amir Moulay Abdallah , 10000  RABAT","phone":"05 37 70 81 03","location":"https://www.telecontact.ma/plan-acces/pharmacie-zahra-/0327700/rabat","city":"Rabat"},{"name":"Pharmacie Zahwa","address":"14, avenue Tadla (aviation) , 10180  RABAT","phone":"05 37 75 10 19","location":"https://www.telecontact.ma/plan-acces/pharmacie-zahwa-/0327800/rabat","city":"Rabat"},{"name":"Pharmacie Centre Chèques Postaux","address":"45, av. Moulay Ismaïl , 10020  RABAT","phone":"05 37 72 62 16","location":"","city":"Rabat"},{"name":"Pharmacie Centre de Transfusion Sanguine","address":"avenue Hassan II, résid. AlRibat n°9 C.y.m. RABAT","phone":"05 37 69 24 69","location":"https://www.telecontact.ma/plan-acces/pharmacie-centre-de-transfusion-sanguine-/3215650/rabat","city":"Rabat"},{"name":"Pharmacie Chbanat","address":"349 Bis, hay Ach-chbanat, C.y.m., 10140  RABAT","phone":"05 37 29 09 98","location":"https://www.telecontact.ma/plan-acces/pharmacie-chbanat-/2168073/rabat","city":"Rabat"},{"name":"Pharmacie Chellah","address":"2, place de Melilya , 10000  RABAT","phone":"05 37 72 47 23","location":"https://www.telecontact.ma/plan-acces/pharmacie-chellah-/0321500/rabat","city":"Rabat"},{"name":"Pharmacie Chem's","address":"19, rue Al Moujahid Al Ayachi, hay Phosphate, Akkari, 10050  RABAT","phone":"05 37 23 07 55","location":"","city":"Rabat"},{"name":"Pharmacie Chenier","address":"27, rue de Tunis, Tou Hassan, 10020  RABAT","phone":"05 37 20 15 39","location":"https://www.telecontact.ma/plan-acces/pharmacie-chenier-/2164845/rabat","city":"Rabat"},{"name":"Pharmacie Cherqi","address":"100 Bis, bd Laalou , 10030  RABAT","phone":"05 37 20 74 74","location":"https://www.telecontact.ma/plan-acces/pharmacie-cherqi-/3033981/rabat","city":"Rabat"},{"name":"Pharmacie Chifae","address":"1, avenue Al Fadila, q.i. C.y.m., 10130  RABAT","phone":"05 37 79 53 44","location":"https://www.telecontact.ma/plan-acces/pharmacie-chifae-/3136195/rabat","city":"Rabat"},{"name":"Pharmacie Choukro Allah","address":"9 Bis, quartier Al Kouass, bloc DG, 10130  RABAT","phone":"05 37 79 23 55","location":"https://www.telecontact.ma/plan-acces/pharmacie-choukro-allah-/3055995/rabat","city":"Rabat"},{"name":"Pharmacie Cité Amal","address":"57, avenue Al Massira (C.y.m), bloc D.O, ElKouass, 10130  RABAT","phone":"05 37 79 50 18","location":"","city":"Rabat"},{"name":"Pharmacie City Center Ryad","address":"Hay Ryad, Acima city Center, 10170  RABAT","phone":"05 37 56 32 77","location":"https://www.telecontact.ma/plan-acces/pharmacie-city-center-ryad-/3109415/rabat","city":"Rabat"},{"name":"Pharmacie Normale","address":"21, avenue Allal Ben Abdellah , 10000  RABAT","phone":"05 37 70 77 65","location":"https://www.telecontact.ma/plan-acces/pharmacie-normale-/0324900/rabat","city":"Rabat"},{"name":"Pharmacie Oqba","address":"62, avenue Oqba Bnou Nafiaa , 10090  RABAT","phone":"05 37 77 26 99","location":"https://www.telecontact.ma/plan-acces/pharmacie-oqba-/2131110/rabat","city":"Rabat"},{"name":"Pharmacie Pharma Square","address":"Hay Ryad, c. commercial Ryad, Rocade urbain RABAT","phone":"08 08 52 03 53","location":"https://www.telecontact.ma/plan-acces/pharmacie-pharma-square-/3344516/rabat","city":"Rabat"},{"name":"Pharmacie populaire","address":"121, avenue Med. Belhassan El Ouazzani bloc 4 Takaddoum, 10200  RABAT","phone":"05 37 75 77 63","location":"https://www.telecontact.ma/plan-acces/pharmacie-populaire-/0325700/rabat","city":"Rabat"},{"name":"Pharmacie Prestigia","address":"avenue Abderrahim Bouabid, Ryad Al andalouss, hay Ryad RABAT","phone":"05 37 57 15 84","location":"https://www.telecontact.ma/plan-acces/pharmacie-prestigia-/3247440/rabat","city":"Rabat"},{"name":"Pharmacie Rabat Ville","address":"16, avenue Moulay Youssef , 10000  RABAT","phone":"05 37 20 61 19","location":"https://www.telecontact.ma/plan-acces/pharmacie-rabat-ville-/0325000/rabat","city":"Rabat"},{"name":"Pharmacie Rabi","address":"hay Nahda I, N16 av. Ennahda, 10210  RABAT","phone":"05 37 65 66 92","location":"https://www.telecontact.ma/plan-acces/pharmacie-rabi-/2159010/rabat","city":"Rabat"},{"name":"Pharmacie Rachad","address":"quartier Takadoum, grp. Marjan, bloc 10, n°58 RABAT","phone":"05 37 75 33 96","location":"https://www.telecontact.ma/plan-acces/pharmacie-rachad-/0319700/rabat","city":"Rabat"},{"name":"Pharmacie Raja Fillah","address":"rue Arrahma, bloc TE n°14, c.y.m, 10120  RABAT","phone":"05 37 29 92 26","location":"https://www.telecontact.ma/plan-acces/pharmacie-raja-fillah-/2123262/rabat","city":"Rabat"},{"name":"Pharmacie Rania","address":"Hay Ryad, n° 9 Ilot 6 résid. Rahma sect. 14, 10100  RABAT","phone":"05 37 56 46 88","location":"https://www.telecontact.ma/plan-acces/pharmacie-rania-/3117888/rabat","city":"Rabat"},{"name":"Pharmacie Relais des Médecins","address":"Hay Ryad, résid. Ryad Al Andalous, Préstigia Al Ambraa 4 RABAT","phone":"05 37 57 01 06","location":"","city":"Rabat"},{"name":"Pharmacie Renaissance","address":"356, avenue Mohammed V , 10000  RABAT","phone":"05 37 72 24 22","location":"https://www.telecontact.ma/plan-acces/pharmacie-renaissance-/0320800/rabat","city":"Rabat"},{"name":"Pharmacie Résidence la Corniche Marjolain","address":"lotissement Mountalak, villa 62 Amal 6 C.y.m., 10150  RABAT","phone":"05 37 29 47 70","location":"","city":"Rabat"},{"name":"Pharmacie Rhaouti","address":"Hay Ryad, Hôpital Cheikh Zaid RABAT","phone":"05 37 77 23 24","location":"https://www.telecontact.ma/plan-acces/pharmacie-rhaouti-/3291082/rabat","city":"Rabat"},{"name":"Pharmacie Riad Assalam","address":"avenue Alaraar, hay Riad sect 13, bloc R, 10100  RABAT","phone":"05 37 56 35 82","location":"https://www.telecontact.ma/plan-acces/pharmacie-riad-assalam-/3074294/rabat","city":"Rabat"},{"name":"Pharmacie Rim","address":"496, hay Guich Loudaya , 10100  RABAT","phone":"05 37 56 18 13","location":"https://www.telecontact.ma/plan-acces/pharmacie-rim-/3078213/rabat","city":"Rabat"},{"name":"Pharmacie Ryad","address":"8, av. Annakhil, c. com. Ryad 1, sect. 21, 10100  RABAT","phone":"05 37 71 06 81","location":"https://www.telecontact.ma/plan-acces/pharmacie-ryad-/2194183/rabat","city":"Rabat"},{"name":"Pharmacie Ryad Al Otor","address":"Hay Ryad, sect. 5 n°149, 10100  RABAT","phone":"05 37 56 32 81","location":"https://www.telecontact.ma/plan-acces/pharmacie-ryad-al-otor-/3212891/rabat","city":"Rabat"},{"name":"Pharmacie Ryad Andalous","address":"86, avenue Kamal Zebdi (H.Ryad) -ex Filao, sect. 19 RABAT","phone":"05 37 56 47 78","location":"https://www.telecontact.ma/plan-acces/pharmacie-ryad-andalous-/3283699/rabat","city":"Rabat"},{"name":"Pharmacie Ryad Ennakhil","address":"10, av. Annakhil, imm.E mag. 9 hay Riad, 10100  RABAT","phone":"05 37 71 65 00","location":"https://www.telecontact.ma/plan-acces/pharmacie-ryad-ennakhil-/3133994/rabat","city":"Rabat"},{"name":"Pharmacie Jnane Ennahda","address":"quartier Takadoum, z.i. résid. Jnane Ennahda imm.8 n°6, 10000  RABAT","phone":"05 37 75 61 01","location":"https://www.telecontact.ma/plan-acces/pharmacie-jnane-ennahda-/3109421/rabat","city":"Rabat"},{"name":"Pharmacie Jnane Souissi","address":"quartier Bir Kacem, lotiss. Jnane Souissi RABAT","phone":"05 37 63 04 04","location":"https://www.telecontact.ma/plan-acces/pharmacie-jnane-souissi-/3297056/rabat","city":"Rabat"},{"name":"Pharmacie Karioun","address":"163, rue de Karioun, Akkari, 10050  RABAT","phone":"05 37 23 13 83","location":"https://www.telecontact.ma/plan-acces/pharmacie-karioun-/3074412/rabat","city":"Rabat"},{"name":"Pharmacie Kasry","address":"90, quartier Amal 5, cpt. Massira C.y.m., 10150  RABAT","phone":"05 37 79 96 90","location":"https://www.telecontact.ma/plan-acces/pharmacie-kasry-/2168070/rabat","city":"Rabat"},{"name":"Pharmacie Kawtar Riad","address":"Hay Ryad, rue Soltan AlJabal sect. 13 bloc H3, 10100  RABAT","phone":"05 37 56 36 38","location":"https://www.telecontact.ma/plan-acces/pharmacie-kawtar-riad-/3134001/rabat","city":"Rabat"},{"name":"Pharmacie Kounouz","address":"av Al Arz (h. Ryad), résid. Al Arz imm.D, 10100  RABAT","phone":"05 37 71 15 16","location":"https://www.telecontact.ma/plan-acces/pharmacie-kounouz-/2170885/rabat","city":"Rabat"},{"name":"Pharmacie Ksar Bhar","address":"quartier Akkari, marché Ksar ElBhar, bloc \"B\" n°6, 10000  RABAT","phone":"05 37 29 72 08","location":"https://www.telecontact.ma/plan-acces/pharmacie-ksar-bhar-/2207083/rabat","city":"Rabat"},{"name":"Pharmacie l'Avenir","address":"23, avenue Al Majd, imm.7 hay ElFath, Massira III, 10150  RABAT","phone":"05 37 79 88 71","location":"","city":"Rabat"},{"name":"Pharmacie l'enfant","address":"265, hay Nahda grp. I complémentaire, 10210  RABAT","phone":"05 37 65 41 28","location":"","city":"Rabat"},{"name":"Pharmacie l'Hôpital Militaire","address":"4, av Al Arz (h. Ryad), hay Ryad, 10110  RABAT","phone":"05 37 56 50 30","location":"","city":"Rabat"},{"name":"Pharmacie l'Oasis","address":"8, avenue Oqba Bnou Nafiaa, Agdal, 10090  RABAT","phone":"05 37 68 25 03","location":"","city":"Rabat"},{"name":"Pharmacie l'officine moderne","address":"19, avenue d' Alger , 10020  RABAT","phone":"05 37 72 63 23","location":"","city":"Rabat"},{"name":"Pharmacie l'Orchidée","address":"bd Mehdi Benbarka -ex Béni Znassen, Aswak Assalam bloc X sect. 11, 10100  RABAT","phone":"05 37 71 63 81","location":"","city":"Rabat"},{"name":"Pharmacie la Corniche","address":"4, rue d' Addis Abeba, Océan, 10040  RABAT","phone":"05 37 72 97 44","location":"https://www.telecontact.ma/plan-acces/pharmacie-la-corniche-/3077133/rabat","city":"Rabat"},{"name":"Pharmacie la Fidelité","address":"bd Mehdi Benbarka -ex Béni Znassen, Hay Riad, 10100  RABAT","phone":"05 37 71 08 15","location":"","city":"Rabat"},{"name":"Pharmacie la Pinède","address":"155, bd Mohammed VI -ex John Kennedy , 10180  RABAT","phone":"05 37 63 07 06","location":"","city":"Rabat"},{"name":"Pharmacie La Reussite","address":"hay ElFarah (Takadoum), rue 3 n°88, Takadoum, 10200  RABAT","phone":"05 37 75 81 09","location":"https://www.telecontact.ma/plan-acces/pharmacie-la-reussite-/3075931/rabat","city":"Rabat"},{"name":"Pharmacie La Rosee","address":"1036, hay Nahda II, grp. Al Majd, 10210  RABAT","phone":"05 37 63 92 66","location":"https://www.telecontact.ma/plan-acces/pharmacie-la-rosee-/3018302/rabat","city":"Rabat"},{"name":"Pharmacie La Vitalité","address":"Hay Ryad, av. Atthuya sect. 6 bloc G n°8 RABAT","phone":"05 37 71 16 84","location":"","city":"Rabat"},{"name":"Pharmacie le Claridge","address":"rue Ahmed Rifai , 10170  RABAT","phone":"05 37 65 40 55","location":"https://www.telecontact.ma/plan-acces/pharmacie-le-claridge-/3057630/rabat","city":"Rabat"},{"name":"Pharmacie ElHanae","address":"16, rue Omar Jdidi , 10050  RABAT","phone":"05 37 76 16 95","location":"https://www.telecontact.ma/plan-acces/pharmacie-elhanae-/2183062/rabat","city":"Rabat"},{"name":"Pharmacie Elighata","address":"hay El Fath, imm. 42, cité AlMontazah, 10150  RABAT","phone":"05 37 79 29 86","location":"https://www.telecontact.ma/plan-acces/pharmacie-elighata-/3036304/rabat","city":"Rabat"},{"name":"Pharmacie ElInbiat","address":"hay El Inbiate n°72, B3, 10200  RABAT","phone":"05 37 63 03 15","location":"https://www.telecontact.ma/plan-acces/pharmacie-elinbiat-/2191267/rabat","city":"Rabat"},{"name":"Pharmacie Elirfane","address":"avenue Allal El Fassi, cplxe C. madinat Alirfane n°16, 10100  RABAT","phone":"05 37 68 63 17","location":"https://www.telecontact.ma/plan-acces/pharmacie-elirfane-/2159702/rabat","city":"Rabat"},{"name":"Pharmacie ElJoulane","address":"54, hay Nahda extension, 10210  RABAT","phone":"05 37 75 67 56","location":"https://www.telecontact.ma/plan-acces/pharmacie-eljoulane-/2191784/rabat","city":"Rabat"},{"name":"Pharmacie Elkamra","address":"quartier Al Kamra, bloc L n°187, 10120  RABAT","phone":"05 37 29 51 41","location":"https://www.telecontact.ma/plan-acces/pharmacie-elkamra-/2207078/rabat","city":"Rabat"},{"name":"Pharmacie Elkouass","address":"732, avenue Al Massira (C.y.m), J5, 10140  RABAT","phone":"05 37 79 40 99","location":"https://www.telecontact.ma/plan-acces/pharmacie-elkouass-/0322300/rabat","city":"Rabat"},{"name":"Pharmacie ElMansour","address":"rue Izdihar, n°98 J5, cité Yacoub ElMansour, 10140  RABAT","phone":"05 37 79 78 98","location":"https://www.telecontact.ma/plan-acces/pharmacie-elmansour-/1793900/rabat","city":"Rabat"},{"name":"Pharmacie ElManzeh","address":"964, avenue Al Massira (C.y.m), hay ELManzeh, 10150  RABAT","phone":"05 37 28 11 22","location":"https://www.telecontact.ma/plan-acces/pharmacie-elmanzeh-/1794300/rabat","city":"Rabat"},{"name":"Pharmacie ElOumnia","address":"81, bd Mohammed VI -ex John Kennedy, rte des Zaërs, 10180  RABAT","phone":"05 37 65 73 25","location":"https://www.telecontact.ma/plan-acces/pharmacie-eloumnia-/3035594/rabat","city":"Rabat"},{"name":"Pharmacie Elwafaa","address":"50, rue Oulad Hriz, av. Al Haouz, 10180  RABAT","phone":"05 37 65 35 89","location":"https://www.telecontact.ma/plan-acces/pharmacie-elwafaa-/2155458/rabat","city":"Rabat"},{"name":"Pharmacie Elwahda","address":"69, quartier Takadoum, z.i., 10000  RABAT","phone":"05 37 75 49 91","location":"https://www.telecontact.ma/plan-acces/pharmacie-elwahda-/2156587/rabat","city":"Rabat"},{"name":"Pharmacie Ennasr","address":"172, rue Souika, Médina, 10030  RABAT","phone":"05 37 72 25 19","location":"https://www.telecontact.ma/plan-acces/pharmacie-ennasr-/0322600/rabat","city":"Rabat"},{"name":"Pharmacie Erraha","address":"hay Guich Loudaya rue Daaj, n°606, 10110  RABAT","phone":"05 37 56 13 93","location":"https://www.telecontact.ma/plan-acces/pharmacie-erraha-/3078215/rabat","city":"Rabat"},{"name":"Pharmacie Errahma","address":"quartier Youssoufia imm.63, hay Almaouadda, 10200  RABAT","phone":"05 37 65 29 30","location":"https://www.telecontact.ma/plan-acces/pharmacie-errahma-/2156436/rabat","city":"Rabat"},{"name":"Pharmacie Essalam","address":"Avenue Essalam (c.y.m.), G.2, 10120  RABAT","phone":"05 37 69 14 55","location":"https://www.telecontact.ma/plan-acces/pharmacie-essalam-/2123263/rabat","city":"Rabat"},{"name":"Pharmacie Saad","address":"1, bd de Kébibat Imm. des Habous, 10050  RABAT","phone":"05 37 72 34 95","location":"https://www.telecontact.ma/plan-acces/pharmacie-saad-/1502800/rabat","city":"Rabat"},{"name":"Pharmacie Safiya","address":"av. Annakhil, sect.8 hay Riad, 10100  RABAT","phone":"05 37 71 34 43","location":"https://www.telecontact.ma/plan-acces/pharmacie-safiya-/2194272/rabat","city":"Rabat"},{"name":"Pharmacie Sahbi","address":"hay Lahbass, rue 13 n°2, c.y.m, 10120  RABAT","phone":"05 37 69 84 88","location":"https://www.telecontact.ma/plan-acces/pharmacie-sahbi-/3074416/rabat","city":"Rabat"},{"name":"Pharmacie Salsabil","address":"Hay Ryad, sect. 3 (mosquée Karrakchou), 10110  RABAT","phone":"05 37 71 23 03","location":"https://www.telecontact.ma/plan-acces/pharmacie-salsabil-/2208574/rabat","city":"Rabat"},{"name":"Pharmacie Sanaoubar","address":"6, av. Essanaoubar, annexe mosquée Saïf sect.18, hay Ryad, 10000  RABAT","phone":"05 37 71 71 10","location":"https://www.telecontact.ma/plan-acces/pharmacie-sanaoubar-/3011226/rabat","city":"Rabat"},{"name":"Pharmacie Sayarh","address":"3, avenue Kifah (c.y.m.), Résid. Essabah, Imm. Hajar, 10120  RABAT","phone":"05 37 29 28 76","location":"https://www.telecontact.ma/plan-acces/pharmacie-sayarh-/3074265/rabat","city":"Rabat"}]