[{"name":"Pharmacie Rouamcha","address":"Rte sidi Abderrahmane  SAFI","phone":"06 74 10 54 17","location":"https://www.telecontact.ma/plan-acces/pharmacie-rouamcha-/3343833/safi","city":"Safi"},{"name":"Pharmacie Route Marrakech","address":"rte de Marrakech, lotiss. Al Kods n°3 SAFI","phone":"05 24 62 10 38","location":"https://www.telecontact.ma/plan-acces/pharmacie-route-marrakech-/3343824/safi","city":"Safi"},{"name":"Pharmacie Ryiad","address":"hay Al Matar  SAFI","phone":"05 24 65 40 23","location":"https://www.telecontact.ma/plan-acces/pharmacie-ryiad-/3343845/safi","city":"Safi"},{"name":"Pharmacie Safia","address":"bd Araar , lotiss. Safia Jnane SAFI","phone":"05 24 66 96 95","location":"https://www.telecontact.ma/plan-acces/pharmacie-safia-/3253517/safi","city":"Safi"},{"name":"Pharmacie Saif Eddine","address":"39 Bis, rue Ali , Djerifat SAFI","phone":"05 24 62 31 73","location":"https://www.telecontact.ma/plan-acces/pharmacie-saif-eddine-/3199656/safi","city":"Safi"},{"name":"Pharmacie Sakhraoui","address":"q. Lamia , lot Afaf n° 43 SAFI","phone":"05 24 62 14 81","location":"","city":"Safi"},{"name":"Pharmacie Sandali","address":"159, rue Al Qods , hay Saâda, Azib Derai SAFI","phone":"05 24 62 63 26","location":"","city":"Safi"},{"name":"Pharmacie Sania Zine El Abidine","address":"20, rue Badre , quartier Sania Zine ElAbidine SAFI","phone":"05 24 62 99 55","location":"","city":"Safi"},{"name":"Pharmacie Sara","address":"42, lotiss. AlGhfirat , Kawki SAFI","phone":"05 24 65 21 70","location":"","city":"Safi"},{"name":"Pharmacie Sebt","address":"rue Ibn Rochd , q. Hrila sebt Gzoula SAFI","phone":"05 24 64 03 95","location":"","city":"Safi"},{"name":"Pharmacie Sentir","address":"rue des Crêtes , jnane Achakouri SAFI","phone":"05 24 62 94 83","location":"","city":"Safi"},{"name":"Pharmacie Siari","address":"centre Laakarta , commune Ayer SAFI","phone":"05 24 62 55 77","location":"","city":"Safi"},{"name":"Pharmacie Sidi Abdelkerim","address":"112, rue du Souk , q. Sidi Abdelkerim SAFI","phone":"05 24 66 80 95","location":"","city":"Safi"},{"name":"Pharmacie Sidi Bouzid","address":"rte de Sidi Bouzid  SAFI","phone":"05 24 66 60 28","location":"","city":"Safi"},{"name":"Pharmacie Sidi Ouassel","address":"95, Rue du Caid-Zaouiat , Sidi Ouassel, 46000  SAFI","phone":"05 24 65 13 14","location":"","city":"Safi"},{"name":"Pharmacie Skalli","address":"hay Mohammadi, n° 2048 SAFI","phone":"05 24 62 32 48","location":"","city":"Safi"},{"name":"Pharmacie Socrate","address":"Dar Sidi Issa , Lot 1087 SAFI","phone":"05 24 63 03 01","location":"","city":"Safi"},{"name":"Pharmacie Taïb","address":"45, bd Khalil , Rte Daïjat, Jemaat Shaim SAFI","phone":"05 24 64 26 51","location":"","city":"Safi"},{"name":"Pharmacie Tazi","address":"2, Lot Fnait , Manazile Baladia Sidi Ouassel SAFI","phone":"05 24 65 02 21","location":"","city":"Safi"},{"name":"Pharmacie Temry","address":"Quartier Ejennane , rte. Mzoughen n°44 bis SAFI","phone":"05 24 66 60 55","location":"","city":"Safi"},{"name":"Pharmacie Attadamoun","address":"195, Lot. Mouna , rte. Aviation SAFI","phone":"05 24 46 23 32","location":"https://www.telecontact.ma/plan-acces/pharmacie-attadamoun-/3199688/safi","city":"Safi"},{"name":"Pharmacie Attae","address":"Sidi Abdelkerim 1 , lot. 173 SAFI","phone":"05 24 66 83 53","location":"https://www.telecontact.ma/plan-acces/pharmacie-attae-/3199686/safi","city":"Safi"},{"name":"Pharmacie Avicenne","address":"79, Rte Sidi Ouassel , 46000  SAFI","phone":"05 24 46 20 51","location":"https://www.telecontact.ma/plan-acces/pharmacie-avicenne-/0328400/safi","city":"Safi"},{"name":"Pharmacie Azzahraa","address":"29, rue Ibn Ayad Tounsi , quartier Hôpital SAFI","phone":"05 24 62 23 52","location":"https://www.telecontact.ma/plan-acces/pharmacie-azzahraa-/3124880/safi","city":"Safi"},{"name":"Pharmacie Barrage","address":"lotiss. Hicham  SAFI","phone":"05 24 62 34 37","location":"https://www.telecontact.ma/plan-acces/pharmacie-barrage-/3344869/safi","city":"Safi"},{"name":"Pharmacie BelAmessa","address":"13, rue AlAlaouiene , Zin Abdine SAFI","phone":"05 24 62 90 42","location":"https://www.telecontact.ma/plan-acces/pharmacie-belamessa-/3199689/safi","city":"Safi"},{"name":"Pharmacie Ben Khadda","address":"30, quartier Mly Hassan n°30 rte Sidi Abdelkrim , rte Sidi Abdelkrim SAFI","phone":"05 24 66 62 29","location":"https://www.telecontact.ma/plan-acces/pharmacie-ben-khadda-/3124537/safi","city":"Safi"},{"name":"Pharmacie Benmira","address":"59, rue Oualidia - Biada , 46000  SAFI","phone":"05 24 62 25 10","location":"https://www.telecontact.ma/plan-acces/pharmacie-benmira-/1619200/safi","city":"Safi"},{"name":"Pharmacie Berrais Biada","address":"14, rue Takabrout , Azib Zemouri SAFI","phone":"05 24 66 62 66","location":"https://www.telecontact.ma/plan-acces/pharmacie-berrais-biada-/3199690/safi","city":"Safi"},{"name":"Pharmacie Burj El Arab","address":"lotiss. Mayaa , bât. Ghaybi n° 195 sidi Abdelkrim SAFI","phone":"05 24 66 44 49","location":"https://www.telecontact.ma/plan-acces/pharmacie-burj-el-arab-/3343856/safi","city":"Safi"},{"name":"Pharmacie Centrale","address":"74, rue Lakhmiss q.i.  SAFI","phone":"05 24 46 44 98","location":"https://www.telecontact.ma/plan-acces/pharmacie-centrale-/3067503/safi","city":"Safi"},{"name":"Pharmacie Chakir","address":"Kaouki , rue 1 n°105, douar Rmel SAFI","phone":"05 24 65 02 06","location":"https://www.telecontact.ma/plan-acces/pharmacie-chakir-/3199692/safi","city":"Safi"},{"name":"Pharmacie Charadi","address":"259, av. Ibn Battouta, Azib Draï  SAFI","phone":"05 24 62 22 04","location":"https://www.telecontact.ma/plan-acces/pharmacie-charadi-/3067619/safi","city":"Safi"},{"name":"Pharmacie Chems","address":"269, bd Mly Slimane , Azib Derai SAFI","phone":"05 24 62 35 14","location":"https://www.telecontact.ma/plan-acces/pharmacie-chems-/3196670/safi","city":"Safi"},{"name":"Pharmacie Chenguit","address":"11, Lot. Rida , Sidi Abdelkerim SAFI","phone":"05 24 66 84 29","location":"https://www.telecontact.ma/plan-acces/pharmacie-chenguit-/3199693/safi","city":"Safi"},{"name":"Pharmacie Cherif Lioui","address":"16, rue Souk Sidi Abdelkrim  SAFI","phone":"05 24 66 86 28","location":"https://www.telecontact.ma/plan-acces/pharmacie-cherif-lioui-/3253578/safi","city":"Safi"},{"name":"Pharmacie Corse","address":"9, rue Omar Bnou Abdelaziz , Q. Corse SAFI","phone":"05 24 65 12 09","location":"https://www.telecontact.ma/plan-acces/pharmacie-corse-/3199700/safi","city":"Safi"},{"name":"Pharmacie de l'Hôpital","address":"102, bd Kennedy  SAFI","phone":"05 24 46 15 55","location":"","city":"Safi"},{"name":"Pharmacie de la Liberté","address":"22, av. de la liberté  SAFI","phone":"05 24 62 84 40","location":"","city":"Safi"},{"name":"Pharmacie de Safi","address":"hay Kaouki , grp 3 n°22 lot 108 SAFI","phone":"05 24 65 13 04","location":"https://www.telecontact.ma/plan-acces/pharmacie-de-safi-/3196543/safi","city":"Safi"},{"name":"Pharmacie Karim","address":"158, Chahid Aboulifa , Jnane Colomb II SAFI","phone":"05 24 66 73 05","location":"https://www.telecontact.ma/plan-acces/pharmacie-karim-/3147379/safi","city":"Safi"},{"name":"Pharmacie Khalil","address":"37, av des Far  SAFI","phone":"05 24 61 05 51","location":"https://www.telecontact.ma/plan-acces/pharmacie-khalil-/3199748/safi","city":"Safi"},{"name":"Pharmacie Khawarizmi","address":"246, rue Boukrae , lotiss. ElMassira rte Caid Sidi Aissa SAFI","phone":"05 24 62 14 50","location":"https://www.telecontact.ma/plan-acces/pharmacie-khawarizmi-/3199749/safi","city":"Safi"},{"name":"Pharmacie Kolea","address":"127, rue Brihi , q. ElKolea SAFI","phone":"05 24 65 04 37","location":"https://www.telecontact.ma/plan-acces/pharmacie-kolea-/3199754/safi","city":"Safi"},{"name":"Pharmacie l'Avenir","address":"115, av Marche Verte  SAFI","phone":"05 24 62 35 59","location":"","city":"Safi"},{"name":"Pharmacie la Marine","address":"83, bd Chakib Arssalane , oued ElBacha SAFI","phone":"05 24 63 06 08","location":"https://www.telecontact.ma/plan-acces/pharmacie-la-marine-/3199756/safi","city":"Safi"},{"name":"Pharmacie la Médina","address":"92, av Bir Anzarane , Sidi Boudhab SAFI","phone":"05 24 46 42 93","location":"","city":"Safi"},{"name":"Pharmacie la Santé","address":"25, bd. Mohammed Ben Abdellah  SAFI","phone":"05 24 46 27 74","location":"","city":"Safi"},{"name":"Pharmacie Laakarta","address":"Centre Laakarta  SAFI","phone":"05 24 61 00 18","location":"https://www.telecontact.ma/plan-acces/pharmacie-laakarta-/3199757/safi","city":"Safi"},{"name":"Pharmacie Laarissa","address":"Quartier Laarissa , rue 22 n°15 SAFI","phone":"05 24 65 03 67","location":"https://www.telecontact.ma/plan-acces/pharmacie-laarissa-/3199758/safi","city":"Safi"},{"name":"Pharmacie Labiar","address":"34, av Boujdour  SAFI","phone":"05 24 65 06 83","location":"https://www.telecontact.ma/plan-acces/pharmacie-labiar-/3195703/safi","city":"Safi"},{"name":"Pharmacie Lafraidi","address":"330, Lot. Sidi Abdelkerim  SAFI","phone":"05 24 66 80 73","location":"https://www.telecontact.ma/plan-acces/pharmacie-lafraidi-/3199760/safi","city":"Safi"},{"name":"Pharmacie Laghiat","address":"Tnine Laghiate  SAFI","phone":"05 24 63 52 03","location":"https://www.telecontact.ma/plan-acces/pharmacie-laghiat-/3271793/safi","city":"Safi"},{"name":"Pharmacie Lamine","address":"231, rue Manzil , sidi Ouassel SAFI","phone":"05 24 65 22 19","location":"https://www.telecontact.ma/plan-acces/pharmacie-lamine-/3196805/safi","city":"Safi"},{"name":"Pharmacie Lemkhoudem","address":"rue Wifak, q.Fkih Haskouri, Miftah El Kheir SAFI","phone":"05 24 66 86 63","location":"https://www.telecontact.ma/plan-acces/pharmacie-lemkhoudem-/9016066/safi","city":"Safi"},{"name":"Pharmacie Les Jasmins","address":"av. Mohammed V, coin de Paris  SAFI","phone":"05 24 46 27 31","location":"https://www.telecontact.ma/plan-acces/pharmacie-les-jasmins-/3067755/safi","city":"Safi"},{"name":"Pharmacie Lourini","address":"av. Haskouri , lot Sanaa II, n° 170 SAFI","phone":"05 24 66 85 44","location":"https://www.telecontact.ma/plan-acces/pharmacie-lourini-/3153610/safi","city":"Safi"},{"name":"Pharmacie Marjane","address":"route Tlet Bougadra , Marjane Safi SAFI","phone":"05 24 61 23 98","location":"https://www.telecontact.ma/plan-acces/pharmacie-marjane-/3271749/safi","city":"Safi"},{"name":"Pharmacie Mestari","address":"lotiss. Al Hana 2, rte Al Wahda, bloc 8 kariate Chems SAFI","phone":"05 24 62 54 62","location":"","city":"Safi"},{"name":"Pharmacie Miftah Arraha","address":"lot Miftah Arraha , q. Lamia SAFI","phone":"05 24 62 84 16","location":"","city":"Safi"},{"name":"Pharmacie Djerifat","address":"81, rue Sania Jerifat , 46000  SAFI","phone":"05 24 62 49 73","location":"https://www.telecontact.ma/plan-acces/pharmacie-djerifat-/1794700/safi","city":"Safi"},{"name":"Pharmacie du Dispensaire","address":"Tlèt Bouguedra  SAFI","phone":"05 24 64 41 09","location":"https://www.telecontact.ma/plan-acces/pharmacie-du-dispensaire-/3271552/safi","city":"Safi"},{"name":"Pharmacie du Plateau","address":"14, bd Mly Ismail , v.n. SAFI","phone":"05 24 62 72 81","location":"https://www.telecontact.ma/plan-acces/pharmacie-du-plateau-/3147372/safi","city":"Safi"},{"name":"Pharmacie du R'bat","address":"306, rte de Rabat , 46000  SAFI","phone":"05 24 46 25 34","location":"","city":"Safi"},{"name":"Pharmacie Ejjennane","address":"2, rue Doukkala , Ejjennene SAFI","phone":"05 24 66 73 18","location":"https://www.telecontact.ma/plan-acces/pharmacie-ejjennane-/3199701/safi","city":"Safi"},{"name":"Pharmacie El Hanaa","address":"Rte Kariat Chems , q. El Hanaa 2 SAFI","phone":"05 24 62 67 01","location":"https://www.telecontact.ma/plan-acces/pharmacie-el-hanaa-/3343831/safi","city":"Safi"},{"name":"Pharmacie Elbazi","address":"hay Matar 1 , lotiss. 1371 SAFI","phone":"05 24 65 20 17","location":"https://www.telecontact.ma/plan-acces/pharmacie-elbazi-/3196603/safi","city":"Safi"},{"name":"Pharmacie ElGhiat","address":"8, Tnine El Ghiate , rte. Principale SAFI","phone":"05 24 64 04 05","location":"https://www.telecontact.ma/plan-acces/pharmacie-elghiat-/3199702/safi","city":"Safi"},{"name":"Pharmacie ElHassania","address":"5, rue Kobba , Sidi Ouassel SAFI","phone":"05 24 65 01 89","location":"https://www.telecontact.ma/plan-acces/pharmacie-elhassania-/3199704/safi","city":"Safi"},{"name":"Pharmacie ElHouda","address":"2, rue Bordeaux , quartier l'hopital, 46000  SAFI","phone":"05 24 62 23 17","location":"https://www.telecontact.ma/plan-acces/pharmacie-elhouda-/1794900/safi","city":"Safi"},{"name":"Pharmacie ElWafa","address":"rue Abdelouahed , Djerifat SAFI","phone":"05 24 62 84 35","location":"https://www.telecontact.ma/plan-acces/pharmacie-elwafa-/3199706/safi","city":"Safi"},{"name":"Pharmacie Ezohour","address":"17, rue Tahla , Sidi Ouassel SAFI","phone":"05 24 65 20 75","location":"https://www.telecontact.ma/plan-acces/pharmacie-ezohour-/3199707/safi","city":"Safi"},{"name":"Pharmacie Ezzaouia","address":"10, rue Caïd Sidi Ouassel  SAFI","phone":"05 24 65 18 01","location":"https://www.telecontact.ma/plan-acces/pharmacie-ezzaouia-/3195695/safi","city":"Safi"},{"name":"Pharmacie Familiale","address":"quartier Anas rue 37 n°55 SAFI","phone":"05 24 62 21 21","location":"https://www.telecontact.ma/plan-acces/pharmacie-familiale-/3124886/safi","city":"Safi"},{"name":"Pharmacie Farah","address":"222, bd Abdessalam M'Jid , hay El Bouab SAFI","phone":"05 24 62 92 58","location":"https://www.telecontact.ma/plan-acces/pharmacie-farah-/3199717/safi","city":"Safi"},{"name":"Pharmacie Fatima","address":"375, rte Sidi Ouassel , Saniat Jemara SAFI","phone":"05 24 46 48 39","location":"https://www.telecontact.ma/plan-acces/pharmacie-fatima-/3255566/safi","city":"Safi"},{"name":"Pharmacie Miftah ElKheir","address":"lot. Najah II n°1 , rte Had Hrara SAFI","phone":"05 24 66 96 48","location":"","city":"Safi"},{"name":"Pharmacie Mimosa","address":"95, av. Ibn Batouta, Azib Darai , 46000  SAFI","phone":"05 24 62 47 14","location":"","city":"Safi"},{"name":"Pharmacie Mirabelle","address":"hay Anas , rue 38 n°9 SAFI","phone":"05 24 61 16 10","location":"","city":"Safi"},{"name":"Pharmacie Mouatassim","address":"Rte diour Si Abbas , douar deriouchat SAFI","phone":"06 00 33 75 86","location":"","city":"Safi"},{"name":"Pharmacie Moulay Youssef","address":"139, bd Moulay Youssef  SAFI","phone":"05 24 62 88 68","location":"","city":"Safi"},{"name":"Pharmacie Nabil","address":"9 Bis, av Marche Verte  SAFI","phone":"05 24 62 49 78","location":"","city":"Safi"},{"name":"Pharmacie Naïme","address":"131, rue Elhachimiyine , Azib Derai SAFI","phone":"05 24 62 58 66","location":"","city":"Safi"},{"name":"Pharmacie Nakhil","address":"lotiss Amouni Kaouki , bloc 8 n°3 SAFI","phone":"05 24 65 28 66","location":"","city":"Safi"},{"name":"Pharmacie Nidal","address":"lotiss. Chams  SAFI","phone":"05 24 62 53 24","location":"","city":"Safi"},{"name":"Pharmacie nouvelle","address":"13, Place de l'independance , 46000  SAFI","phone":"05 24 46 30 87","location":"","city":"Safi"},{"name":"Pharmacie Orchidées","address":"Quartier Ourida II , Lot. n°263/A Bloc 27 SAFI","phone":"05 24 62 19 68","location":"","city":"Safi"},{"name":"Pharmacie Ouazzani","address":"lotiss. Sidi Abdelkrim 1 , lot. n°980 rte Had Hrara SAFI","phone":"05 24 66 65 92","location":"","city":"Safi"},{"name":"Pharmacie Oumnia","address":"Lot. Oumnia , rue 1 n°3 Djerifat SAFI","phone":"05 24 62 28 27","location":"","city":"Safi"},{"name":"Pharmacie Ourida","address":"12, av. Chahid Abdelali ben Chekroun , Ourida Ext SAFI","phone":"05 24 62 47 10","location":"","city":"Safi"},{"name":"Pharmacie Pasteur","address":"7, rue ElKendi , v.n. SAFI","phone":"05 24 63 05 64","location":"","city":"Safi"},{"name":"Pharmacie Populaire","address":"quartier ElQors  SAFI","phone":"05 24 65 25 84","location":"","city":"Safi"},{"name":"Pharmacie Ras ElAin","address":"Ras ElAin , cplx. Bidani n°12 SAFI","phone":"05 24 46 83 99","location":"","city":"Safi"},{"name":"Pharmacie Rayhane","address":"18, rue Sakia , village Taibi SAFI","phone":"05 24 62 34 77","location":"","city":"Safi"},{"name":"Pharmacie Ridari","address":"lotiss. Jenane, av. Mzoughen, n° 508 SAFI","phone":"05 24 66 60 71","location":"","city":"Safi"}]