[{"name":"Pharmacie du Stade","address":"72, Lotissement Ben Hamza , Massy SEFROU","phone":"05 35 66 25 72","location":"https://www.telecontact.ma/plan-acces/pharmacie-du-stade-/3248583/sefrou","city":"Sefrou"},{"name":"Pharmacie Fadil","address":"648, rue Aghaliba  SEFROU","phone":"05 35 66 18 18","location":"https://www.telecontact.ma/plan-acces/pharmacie-fadil-/3200706/sefrou","city":"Sefrou"},{"name":"Pharmacie Habitat","address":"114, bd Hassan 1ér , Sette Massouda SEFROU","phone":"05 35 96 92 42","location":"https://www.telecontact.ma/plan-acces/pharmacie-habitat-/3200707/sefrou","city":"Sefrou"},{"name":"Pharmacie Habouna El Jadida","address":"312, av Ibnou Sina , Habouna SEFROU","phone":"05 35 66 18 94","location":"https://www.telecontact.ma/plan-acces/pharmacie-habouna-el-jadida-/3277710/sefrou","city":"Sefrou"},{"name":"Pharmacie Hay El Farah","address":"hay El Farah , station Ziz SEFROU","phone":"05 35 68 30 73","location":"https://www.telecontact.ma/plan-acces/pharmacie-hay-el-farah-/3313699/sefrou","city":"Sefrou"},{"name":"Pharmacie Hay Elouz","address":"q. Elouz , Ben Seffar n°44 SEFROU","phone":"05 35 66 13 94","location":"https://www.telecontact.ma/plan-acces/pharmacie-hay-elouz-/3200708/sefrou","city":"Sefrou"},{"name":"Pharmacie Hay Sidi Boumediane","address":"hay Sidi Boumediane , lot. Hind n°130 SEFROU","phone":"05 35 96 94 48","location":"https://www.telecontact.ma/plan-acces/pharmacie-hay-sidi-boumediane-/3248888/sefrou","city":"Sefrou"},{"name":"Pharmacie Hôpital","address":"25, bd Marche Verte  SEFROU","phone":"05 35 66 29 70","location":"","city":"Sefrou"},{"name":"Pharmacie Ibn Sina","address":"171, rue Amir Abdelkader  SEFROU","phone":"05 35 66 05 62","location":"https://www.telecontact.ma/plan-acces/pharmacie-ibn-sina-/3200697/sefrou","city":"Sefrou"},{"name":"Pharmacie Imane","address":"rte El Menzel , n°82/1, lotiss. El Hachmia, bloc 6 SEFROU","phone":"05 32 02 15 50","location":"https://www.telecontact.ma/plan-acces/pharmacie-imane-/3346061/sefrou","city":"Sefrou"},{"name":"Pharmacie Khalil","address":"1218, Zalagh Ben Sefar  SEFROU","phone":"05 35 66 07 37","location":"https://www.telecontact.ma/plan-acces/pharmacie-khalil-/3277644/sefrou","city":"Sefrou"},{"name":"Pharmacie la Famille","address":"lotissement Bir Anzarane , Ben Seffar n°19 SEFROU","phone":"05 35 66 22 64","location":"https://www.telecontact.ma/plan-acces/pharmacie-la-famille-/3248755/sefrou","city":"Sefrou"},{"name":"Pharmacie la Province","address":"bd Mohamed V  SEFROU","phone":"05 35 68 21 39","location":"https://www.telecontact.ma/plan-acces/pharmacie-la-province-/3248616/sefrou","city":"Sefrou"},{"name":"Pharmacie Laaouini","address":"102, Lotissement Lalla Moulati , rte. El Menzel SEFROU","phone":"05 35 68 38 87","location":"https://www.telecontact.ma/plan-acces/pharmacie-laaouini-/3248742/sefrou","city":"Sefrou"},{"name":"Pharmacie Lalamolati","address":"Rte El Menzel , 102 lot Lalla Moulati SEFROU","phone":"05 35 68 34 18","location":"","city":"Sefrou"},{"name":"Pharmacie les Cérises","address":"140, Ibnou Zaidoun , Habouna SEFROU","phone":"05 35 68 35 83","location":"","city":"Sefrou"},{"name":"Pharmacie Lmassjid","address":"lot Massay , n°118 SEFROU","phone":"06 61 35 51 53","location":"","city":"Sefrou"},{"name":"Pharmacie Mhirez","address":"lotiss. Essalam, n°32, Mhirez SEFROU","phone":"05 35 68 26 50","location":"","city":"Sefrou"},{"name":"Pharmacie Rachad","address":"rue Errachad  SEFROU","phone":"05 35 66 26 03","location":"","city":"Sefrou"},{"name":"Pharmacie Razi","address":"220, av Yaâcoub El Mansour  SEFROU","phone":"05 35 96 94 60","location":"","city":"Sefrou"},{"name":"Pharmacie Rfaif","address":"lotiss. Essabah , Rfaif SEFROU","phone":"05 35 96 98 09","location":"https://www.telecontact.ma/plan-acces/pharmacie-rfaif-/3277641/sefrou","city":"Sefrou"},{"name":"Pharmacie Rhizlane","address":"502, rue ElBohtori Massay , n°44 bis SEFROU","phone":"05 35 68 34 11","location":"","city":"Sefrou"},{"name":"Pharmacie Route de Boulmane","address":"72, lotiss. Moulay Ismail  SEFROU","phone":"06 11 26 28 05","location":"","city":"Sefrou"},{"name":"Pharmacie Route de Fès","address":"route de Fès  SEFROU","phone":"05 35 96 95 38","location":"","city":"Sefrou"},{"name":"Pharmacie Setti Massaouda","address":"134, bd Moulay Ismail  SEFROU","phone":"05 35 66 06 72","location":"","city":"Sefrou"},{"name":"Pharmacie Sidi Ahmed Tadli","address":"318, bd Abdelkrim Khattabi  SEFROU","phone":"05 35 66 03 48","location":"","city":"Sefrou"},{"name":"Pharmacie Sidi Lahcen Lyoussi","address":"281, derb El Miter , 31000  SEFROU","phone":"05 35 66 04 29","location":"","city":"Sefrou"},{"name":"Pharmacie Slaoui Al Jadida","address":"530, av Yacoub El Mansour  SEFROU","phone":"05 35 96 92 00","location":"","city":"Sefrou"},{"name":"Pharmacie Victoria","address":"387, av AlFalah , Ben Seffar SEFROU","phone":"05 35 96 93 55","location":"","city":"Sefrou"},{"name":"Pharmacie Zahrat Al Jabal","address":"1, Massay , q.i. SEFROU","phone":"05 35 96 97 84","location":"","city":"Sefrou"},{"name":"Pharmacie Zalagh","address":"31, lotiss. Amina , hay Saâda SEFROU","phone":"05 35 66 03 75","location":"","city":"Sefrou"},{"name":"Pharmacie Zghari","address":"12 x, bd Hassan II, lot Karim, hay Ennasr, 31000  SEFROU","phone":"06 59 79 79 70","location":"","city":"Sefrou"},{"name":"Pharmacie Zine El Abidine","address":"lotiss. Atlas , Ben Seffar SEFROU","phone":"05 35 96 96 32","location":"","city":"Sefrou"},{"name":"Pharmacie Ain Cheggag","address":"centre Ain Cheggag  SEFROU","phone":"05 35 66 51 18","location":"","city":"Sefrou"},{"name":"Pharmacie Al Amal","address":"Rfaif  SEFROU","phone":"05 35 66 02 65","location":"","city":"Sefrou"},{"name":"Pharmacie Assalam","address":"887, av. Mohamed Yakhlaf Ben Seffar  SEFROU","phone":"05 33 74 07 20","location":"","city":"Sefrou"},{"name":"Pharmacie Avicenne","address":"bd Amir Abdelkader  SEFROU","phone":"05 35 66 05 62","location":"","city":"Sefrou"},{"name":"Pharmacie Ben Seffar","address":"104, lotissement Hind , hay Ennahda lot. n°5 SEFROU","phone":"05 35 96 90 13","location":"","city":"Sefrou"}]