[{"name":"Pharmacie Pam","address":"37, Mly Slimane , Hay Pam, 26000  SETTAT","phone":"05 23 40 35 58","location":"https://www.telecontact.ma/plan-acces/pharmacie-pam-/3145369/settat","city":"Settat"},{"name":"Pharmacie Principale","address":"1, bd Hassan II , Souk Telat Loulad SETTAT","phone":"05 23 59 00 65","location":"https://www.telecontact.ma/plan-acces/pharmacie-principale-/3200747/settat","city":"Settat"},{"name":"Pharmacie Rabha","address":"41, bd Changuit , Smaâla, 26000  SETTAT","phone":"05 23 72 45 86","location":"https://www.telecontact.ma/plan-acces/pharmacie-rabha-/3097568/settat","city":"Settat"},{"name":"Pharmacie Rachidi","address":"168, bd de palestine , quartier Mimouna, 26000  SETTAT","phone":"05 23 40 06 81","location":"https://www.telecontact.ma/plan-acces/pharmacie-rachidi-/3017779/settat","city":"Settat"},{"name":"Pharmacie Radia","address":"lotiss. ben Kassem , n° 521 SETTAT","phone":"05 23 72 04 21","location":"","city":"Settat"},{"name":"Pharmacie Radouane","address":"65, rue abdelkarim el Khattabi , hay Mimouna, 26000  SETTAT","phone":"05 23 40 13 40","location":"","city":"Settat"},{"name":"Pharmacie Rayad","address":"91, bd Larbi ElOuadi , 26000  SETTAT","phone":"05 23 72 08 25","location":"","city":"Settat"},{"name":"Pharmacie Rayhana Farah","address":"1 Bis, rue Khansaa , hay Farah II SETTAT","phone":"05 23 72 64 99","location":"","city":"Settat"},{"name":"Pharmacie Razzak","address":"hay Essalam 3, Kaylez SETTAT","phone":"05 23 72 42 65","location":"","city":"Settat"},{"name":"Pharmacie Rim","address":"71, hay Essalam, Tranche 4 SETTAT","phone":"05 23 40 09 15","location":"","city":"Settat"},{"name":"Pharmacie Rohi","address":"751, bd Changhit , 26000  SETTAT","phone":"05 23 40 15 80","location":"","city":"Settat"},{"name":"Pharmacie Route Ben Ahmed","address":"6, lotiss. El Mouna , rte Ben Ahmed SETTAT","phone":"05 23 40 69 53","location":"","city":"Settat"},{"name":"Pharmacie Sabori","address":"hay Nahda, rue 3 n°2 SETTAT","phone":"05 23 40 28 91","location":"","city":"Settat"},{"name":"Pharmacie Saïd","address":"521, lot Belkacem , 26000  SETTAT","phone":"05 23 72 00 85","location":"","city":"Settat"},{"name":"Pharmacie Santé et Beauté","address":"32, lotiss. Moujamaa Al Kheir  SETTAT","phone":"05 23 72 28 16","location":"","city":"Settat"},{"name":"Pharmacie Sibiria","address":"528, bd Général Kettani  SETTAT","phone":"05 23 72 68 15","location":"","city":"Settat"},{"name":"Pharmacie Sidi Abdelkrim","address":"164, bd Ourika , bloc Pam, 26000  SETTAT","phone":"05 23 72 27 07","location":"","city":"Settat"},{"name":"Pharmacie Sidi ElAydi","address":"6, Centre de Sidi El Aydi , 26000  SETTAT","phone":"05 23 72 25 48","location":"","city":"Settat"},{"name":"Pharmacie Sidki","address":"233, bd ElArbi ElOuadi , 26000  SETTAT","phone":"05 23 72 46 47","location":"","city":"Settat"},{"name":"Pharmacie Smaâla","address":"148, bd. Mohamed Zerktouni , 26000  SETTAT","phone":"05 23 40 50 15","location":"","city":"Settat"},{"name":"Pharmacie Nazih","address":"16, bd. Mohamed Zerktouni , 26000  SETTAT","phone":"05 23 40 03 12","location":"https://www.telecontact.ma/plan-acces/pharmacie-nazih-/2187584/settat","city":"Settat"},{"name":"Pharmacie Ouad Eddahab","address":"265, rue Baalabak, El Kassam SETTAT","phone":"05 23 40 67 32","location":"https://www.telecontact.ma/plan-acces/pharmacie-ouad-eddahab-/3276100/settat","city":"Settat"},{"name":"Pharmacie Ouled Bouziri","address":"Locaux de la Mosqué , Sidi Mohamed Ben Rahal SETTAT","phone":"05 23 72 33 23","location":"https://www.telecontact.ma/plan-acces/pharmacie-ouled-bouziri-/2210530/settat","city":"Settat"},{"name":"Pharmacie Tanmiya","address":"23, lotiss. Amani  SETTAT","phone":"05 23 40 18 18","location":"https://www.telecontact.ma/plan-acces/pharmacie-tanmiya-/3283811/settat","city":"Settat"},{"name":"Pharmacie Tantaoui","address":"13, bd la Résistance , 26000  SETTAT","phone":"05 23 72 31 18","location":"https://www.telecontact.ma/plan-acces/pharmacie-tantaoui-/2186815/settat","city":"Settat"},{"name":"Pharmacie Tarik Ibn Ziad","address":"111, bd. Bir Anzarane , hay Sidi Abdelkrim, 26000  SETTAT","phone":"05 23 40 52 25","location":"https://www.telecontact.ma/plan-acces/pharmacie-tarik-ibn-ziad-/3149098/settat","city":"Settat"},{"name":"Pharmacie Tawfik","address":"16, bd Abderrahman Skirej , hay Sidi Abdelkrim, 26000  SETTAT","phone":"05 23 72 10 62","location":"https://www.telecontact.ma/plan-acces/pharmacie-tawfik-/2223126/settat","city":"Settat"},{"name":"Pharmacie Yasmine","address":"hay Essalam , Tranche I n°167, 26000  SETTAT","phone":"05 23 72 40 58","location":"https://www.telecontact.ma/plan-acces/pharmacie-yasmine-/3200726/settat","city":"Settat"},{"name":"Pharmacie Yemma","address":"226, rue Lalla Aicha  SETTAT","phone":"05 23 40 27 56","location":"https://www.telecontact.ma/plan-acces/pharmacie-yemma-/3312789/settat","city":"Settat"},{"name":"Pharmacie Essettati","address":"235, bd. la Princesse Lalla Aïcha , 26000  SETTAT","phone":"05 23 40 07 30","location":"https://www.telecontact.ma/plan-acces/pharmacie-essettati-/3145551/settat","city":"Settat"},{"name":"Pharmacie Général Kettani","address":"bd Général Kettani  SETTAT","phone":"05 23 40 42 92","location":"","city":"Settat"},{"name":"Pharmacie Haja Fatna","address":"38, rue Eden , bloc A, hay ElKassam, 26000  SETTAT","phone":"05 23 72 07 05","location":"https://www.telecontact.ma/plan-acces/pharmacie-haja-fatna-/3039544/settat","city":"Settat"},{"name":"Pharmacie Hanine","address":"51, rue des Martyrs , 26000  SETTAT","phone":"05 23 40 25 07","location":"https://www.telecontact.ma/plan-acces/pharmacie-hanine-/1788900/settat","city":"Settat"},{"name":"Pharmacie Hay Alouane","address":"hay Alouane , lot Atlas n°116 SETTAT","phone":"05 23 40 16 35","location":"https://www.telecontact.ma/plan-acces/pharmacie-hay-alouane-/3344705/settat","city":"Settat"},{"name":"Pharmacie Ibn Abbad","address":"200, av des F.a.r. , 26000  SETTAT","phone":"05 23 40 21 22","location":"https://www.telecontact.ma/plan-acces/pharmacie-ibn-abbad-/2102275/settat","city":"Settat"},{"name":"Pharmacie Ibn Sina","address":"157, bd Lalla Aïcha , 26000  SETTAT","phone":"05 23 40 41 51","location":"https://www.telecontact.ma/plan-acces/pharmacie-ibn-sina-/2223103/settat","city":"Settat"},{"name":"Pharmacie Kenzi","address":"467, bd Ennassim , Mojemae El Kheir SETTAT","phone":"05 23 72 61 96","location":"https://www.telecontact.ma/plan-acces/pharmacie-kenzi-/3276120/settat","city":"Settat"},{"name":"Pharmacie Khafallah","address":"Hay Essalam , n°357, 3° Tranche, 26000  SETTAT","phone":"05 23 72 35 28","location":"https://www.telecontact.ma/plan-acces/pharmacie-khafallah-/3211262/settat","city":"Settat"},{"name":"Pharmacie Kotaa Cheikh","address":"Kotaâ Cheikh , rue 4 n°20, 26000  SETTAT","phone":"05 23 72 29 24","location":"https://www.telecontact.ma/plan-acces/pharmacie-kotaa-cheikh-/3102099/settat","city":"Settat"},{"name":"Pharmacie l'Hôpital","address":"205, av. Abderrahmane Skiredj , 26000  SETTAT","phone":"05 23 40 36 16","location":"","city":"Settat"},{"name":"Pharmacie la Gare","address":"385, av des F.a.r. , 26000  SETTAT","phone":"05 23 40 26 00","location":"https://www.telecontact.ma/plan-acces/pharmacie-la-gare-/1788800/settat","city":"Settat"},{"name":"Pharmacie la Palestine","address":"86, bd Palestine , q. Mimousa, 26000  SETTAT","phone":"05 23 72 16 48","location":"https://www.telecontact.ma/plan-acces/pharmacie-la-palestine-/3145491/settat","city":"Settat"},{"name":"Pharmacie la Santé","address":"171, rue 3 Mars , hay ElKheir, 26000  SETTAT","phone":"05 23 72 23 70","location":"","city":"Settat"},{"name":"Pharmacie Legnanet","address":"2, rue ElAzme , Legnanet, 26000  SETTAT","phone":"05 23 40 12 83","location":"https://www.telecontact.ma/plan-acces/pharmacie-legnanet-/3018106/settat","city":"Settat"},{"name":"Pharmacie Loulad","address":"centre Tlate Loulad  SETTAT","phone":"05 23 59 00 05","location":"https://www.telecontact.ma/plan-acces/pharmacie-loulad-/3200741/settat","city":"Settat"},{"name":"Pharmacie Lyoussi","address":"107, rue Miftah Al Kheir, 1er Tranche SETTAT","phone":"05 23 72 19 42","location":"https://www.telecontact.ma/plan-acces/pharmacie-lyoussi-/3312791/settat","city":"Settat"},{"name":"Pharmacie Maarouf","address":"362, bd des f.a.r. , 26000  SETTAT","phone":"05 23 40 22 56","location":"https://www.telecontact.ma/plan-acces/pharmacie-maarouf-/2114529/settat","city":"Settat"},{"name":"Pharmacie Macro","address":"63, Rte des Abattoires , 26000  SETTAT","phone":"05 23 40 50 69","location":"https://www.telecontact.ma/plan-acces/pharmacie-macro-/3191826/settat","city":"Settat"},{"name":"Pharmacie Marusya","address":"1981, Mojamaa El Kheir  SETTAT","phone":"05 26 27 72 76","location":"","city":"Settat"},{"name":"Pharmacie Al Basmala","address":"lotiss. AlKhair, lot n° 1500, Mejemaa SETTAT","phone":"05 23 40 45 81","location":"https://www.telecontact.ma/plan-acces/pharmacie-al-basmala-/3312793/settat","city":"Settat"},{"name":"Pharmacie Al Fajr","address":"lotiss. AlKhair, lot 192 Moujamaa 1036 SETTAT","phone":"05 23 72 01 52","location":"https://www.telecontact.ma/plan-acces/pharmacie-al-fajr-/3312786/settat","city":"Settat"},{"name":"Pharmacie Al Ghofrane","address":"65, hay Ennahda  SETTAT","phone":"05 23 72 05 06","location":"https://www.telecontact.ma/plan-acces/pharmacie-al-ghofrane-/3283813/settat","city":"Settat"},{"name":"Pharmacie Al Manar","address":"34, lotiss. Al Manar  SETTAT","phone":"05 23 72 32 18","location":"https://www.telecontact.ma/plan-acces/pharmacie-al-manar-/3276107/settat","city":"Settat"},{"name":"Pharmacie AlAzhar","address":"171, rue Mohammed Smiha ang. Mly Yacoub Mimouna, 26000  SETTAT","phone":"05 23 40 61 51","location":"https://www.telecontact.ma/plan-acces/pharmacie-alazhar-/2196086/settat","city":"Settat"},{"name":"Pharmacie Albarid","address":"Place de la liberté , 26000  SETTAT","phone":"05 23 40 39 22","location":"https://www.telecontact.ma/plan-acces/pharmacie-albarid-/1221900/settat","city":"Settat"},{"name":"Pharmacie AlHamd","address":"centre Si M'hamed Ben Rahal  SETTAT","phone":"05 23 72 48 58","location":"","city":"Settat"},{"name":"Pharmacie AlHourria","address":"3, bd Mohammed V , lot. Ben Driss, 26000  SETTAT","phone":"05 23 72 05 82","location":"","city":"Settat"},{"name":"Pharmacie Allal Ben Abdellah","address":"29, bd Allal Ben Abdellah , 26000  SETTAT","phone":"05 23 40 46 35","location":"","city":"Settat"},{"name":"Pharmacie AlMassira","address":"49, bd Mohammed V , 26000  SETTAT","phone":"05 23 40 31 72","location":"","city":"Settat"},{"name":"Pharmacie Alqods","address":"46, bd Mohammed V , 26000  SETTAT","phone":"05 23 40 20 64","location":"","city":"Settat"},{"name":"Pharmacie Alwifak","address":"bd. Général Kettani , Kamal 2, Bloc C, n°1031, 26000  SETTAT","phone":"05 23 72 35 13","location":"","city":"Settat"},{"name":"Pharmacie AlWilaya","address":"4, bd Hassan II , 26000  SETTAT","phone":"05 23 40 17 59","location":"","city":"Settat"},{"name":"Pharmacie Annasr","address":"Kobaa Cheikh , rue 14 n°23, 26000  SETTAT","phone":"05 23 40 68 31","location":"","city":"Settat"},{"name":"Pharmacie Annour","address":"36, bd Mly Yacoub , hay Mimouna, 26000  SETTAT","phone":"05 23 72 44 44","location":"","city":"Settat"},{"name":"Pharmacie Arrabia","address":"lotiss. Taoufik, Gh 7, imm.8 SETTAT","phone":"05 23 72 10 88","location":"","city":"Settat"},{"name":"Pharmacie Arraha","address":"84, rue 9 Juillet , lot AlAmal, 26000  SETTAT","phone":"05 23 72 45 23","location":"","city":"Settat"},{"name":"Pharmacie Arrahman","address":"62, rue Ourika , q. Sidi Abdelkrim, 26000  SETTAT","phone":"05 23 40 03 30","location":"","city":"Settat"},{"name":"Pharmacie Assabil","address":"1425, rue Miftah Al Kheir, tranche 2 SETTAT","phone":"05 23 71 93 93","location":"","city":"Settat"},{"name":"Pharmacie Atmani","address":"hay Essalam , lot. n°155 Tranche 6 SETTAT","phone":"05 23 40 33 30","location":"","city":"Settat"}]