[{"name":"Pharmacie ElHay ElJadid","address":"av Zerktouni , hay ElJadid SIDI SLIMANE","phone":"05 37 50 06 50","location":"https://www.telecontact.ma/plan-acces/pharmacie-elhay-eljadid-/3200323/sidi-slimane","city":"Sidi Slimane"},{"name":"Pharmacie ElMirini","address":"6, av Hassan II  SIDI SLIMANE","phone":"05 37 50 49 25","location":"https://www.telecontact.ma/plan-acces/pharmacie-elmirini-/3200322/sidi-slimane","city":"Sidi Slimane"},{"name":"Pharmacie Enassr","address":"hay Essalam , bloc 2 n°32 SIDI SLIMANE","phone":"05 37 50 30 29","location":"https://www.telecontact.ma/plan-acces/pharmacie-enassr-/3200321/sidi-slimane","city":"Sidi Slimane"},{"name":"Pharmacie Essalam","address":"hay Essalam , bloc 10 n°63 SIDI SLIMANE","phone":"05 37 50 14 18","location":"https://www.telecontact.ma/plan-acces/pharmacie-essalam-/3200319/sidi-slimane","city":"Sidi Slimane"},{"name":"Pharmacie Ghoummaryene","address":"28, av. Mohammed V , q. Ghoummaryenne n°177 SIDI SLIMANE","phone":"05 37 50 52 15","location":"https://www.telecontact.ma/plan-acces/pharmacie-ghoummaryene-/3274023/sidi-slimane","city":"Sidi Slimane"},{"name":"Pharmacie Hôpital","address":"18, av Maghreb El Arabi  SIDI SLIMANE","phone":"05 37 50 00 40","location":"","city":"Sidi Slimane"},{"name":"Pharmacie Ibn Khaldoune","address":"hay Ibn Khaldoun  SIDI SLIMANE","phone":"05 37 50 19 68","location":"https://www.telecontact.ma/plan-acces/pharmacie-ibn-khaldoune-/3274024/sidi-slimane","city":"Sidi Slimane"},{"name":"Pharmacie Ibn Sina","address":"hay Essalam , bloc B n°6 SIDI SLIMANE","phone":"05 37 50 05 04","location":"https://www.telecontact.ma/plan-acces/pharmacie-ibn-sina-/3192278/sidi-slimane","city":"Sidi Slimane"},{"name":"Pharmacie Jalal","address":"hay Essalam , bloc G n°9 SIDI SLIMANE","phone":"05 37 50 04 42","location":"https://www.telecontact.ma/plan-acces/pharmacie-jalal-/3200314/sidi-slimane","city":"Sidi Slimane"},{"name":"Pharmacie Jbirat","address":"bd Hassan II , rte de Kénitra SIDI SLIMANE","phone":"05 37 50 55 23","location":"https://www.telecontact.ma/plan-acces/pharmacie-jbirat-/3271121/sidi-slimane","city":"Sidi Slimane"},{"name":"Pharmacie Karima","address":"141, q. administartif , lotiss. Marjane SIDI SLIMANE","phone":"06 01 48 04 03","location":"https://www.telecontact.ma/plan-acces/pharmacie-karima-/9016652/sidi-slimane","city":"Sidi Slimane"},{"name":"Pharmacie la Clinique","address":"Hay Essalam , bloc 5 n°10 SIDI SLIMANE","phone":"05 37 50 13 92","location":"https://www.telecontact.ma/plan-acces/pharmacie-la-clinique-/3270863/sidi-slimane","city":"Sidi Slimane"},{"name":"Pharmacie la Résistance","address":"2, av la Résistance  SIDI SLIMANE","phone":"05 37 50 35 58","location":"","city":"Sidi Slimane"},{"name":"Pharmacie Laglalta","address":"douar Lharati  SIDI SLIMANE","phone":"05 37 50 44 09","location":"https://www.telecontact.ma/plan-acces/pharmacie-laglalta-/3274026/sidi-slimane","city":"Sidi Slimane"},{"name":"Pharmacie le Jasmin","address":"hay Salam , bloc 26 n°24 SIDI SLIMANE","phone":"05 37 50 25 04","location":"https://www.telecontact.ma/plan-acces/pharmacie-le-jasmin-/3192302/sidi-slimane","city":"Sidi Slimane"},{"name":"Pharmacie les Orangers","address":"12, av Mohammed V , Ghoumareyene SIDI SLIMANE","phone":"05 37 50 19 65","location":"https://www.telecontact.ma/plan-acces/pharmacie-les-orangers-/3191818/sidi-slimane","city":"Sidi Slimane"},{"name":"Pharmacie les Urgences","address":"av de la Résistance  SIDI SLIMANE","phone":"05 37 50 36 90","location":"https://www.telecontact.ma/plan-acces/pharmacie-les-urgences-/3200317/sidi-slimane","city":"Sidi Slimane"},{"name":"Pharmacie Maen","address":"360, lotiss. Al Khair, lot 2 SIDI SLIMANE","phone":"06 29 30 40 76","location":"https://www.telecontact.ma/plan-acces/pharmacie-maen-/9016718/sidi-slimane","city":"Sidi Slimane"},{"name":"Pharmacie Mansouri","address":"321, av Mohammed V , q. Khouribga SIDI SLIMANE","phone":"05 37 50 20 12","location":"https://www.telecontact.ma/plan-acces/pharmacie-mansouri-/3200311/sidi-slimane","city":"Sidi Slimane"},{"name":"Pharmacie Menara","address":"36, Menara III  SIDI SLIMANE","phone":"05 37 50 33 23","location":"https://www.telecontact.ma/plan-acces/pharmacie-menara-/3274028/sidi-slimane","city":"Sidi Slimane"},{"name":"Pharmacie Bahhar","address":"hay Essalam , bloc 5 n°10 SIDI SLIMANE","phone":"05 37 50 22 16","location":"","city":"Sidi Slimane"},{"name":"Pharmacie Beni Hsen","address":"55, av Mohamed Zerktouni , Ouled ElGhazi rte de Dar Amri SIDI SLIMANE","phone":"05 37 50 21 76","location":"","city":"Sidi Slimane"},{"name":"Pharmacie Bir Anzarane","address":"63, bd. Bir Anzarane  SIDI SLIMANE","phone":"05 37 50 29 00","location":"","city":"Sidi Slimane"},{"name":"Pharmacie Bismillah","address":"3, lotiss. Agdal  SIDI SLIMANE","phone":"05 37 50 06 88","location":"","city":"Sidi Slimane"},{"name":"Pharmacie Chifaa","address":"hay Laymoune , bloc 27 n°7 SIDI SLIMANE","phone":"05 37 50 30 34","location":"","city":"Sidi Slimane"},{"name":"Pharmacie Debbarh","address":"lot Agdal , n° 3 SIDI SLIMANE","phone":"06 61 49 10 76","location":"","city":"Sidi Slimane"},{"name":"Pharmacie du Beht","address":"56, bd Mohammed V , 14200  SIDI SLIMANE","phone":"05 37 50 20 40","location":"","city":"Sidi Slimane"},{"name":"Pharmacie du Rharb","address":"28, bd Hassan II , 14200  SIDI SLIMANE","phone":"05 37 50 22 54","location":"","city":"Sidi Slimane"},{"name":"Pharmacie ElArrim","address":"hay Essalam , bloc 4 n°36 SIDI SLIMANE","phone":"05 37 50 02 21","location":"","city":"Sidi Slimane"},{"name":"Pharmacie Al Marjane","address":"bd Hassan II  SIDI SLIMANE","phone":"05 30 65 07 30","location":"https://www.telecontact.ma/plan-acces/pharmacie-al-marjane-/9016654/sidi-slimane","city":"Sidi Slimane"},{"name":"Pharmacie Al Masjid","address":"hay Salam , bloc 17, n°23 SIDI SLIMANE","phone":"05 37 50 25 13","location":"https://www.telecontact.ma/plan-acces/pharmacie-al-masjid-/3191750/sidi-slimane","city":"Sidi Slimane"},{"name":"Pharmacie Al Massira","address":"hay Essalam , bloc 5 n°10 SIDI SLIMANE","phone":"05 37 50 35 42","location":"https://www.telecontact.ma/plan-acces/pharmacie-al-massira-/3274014/sidi-slimane","city":"Sidi Slimane"},{"name":"Pharmacie AlJamai","address":"4, av Hassan II , hay Essalam bloc F SIDI SLIMANE","phone":"05 37 50 18 50","location":"","city":"Sidi Slimane"},{"name":"Pharmacie Amine","address":"12, Av. Mohammed V , rte Dar Belamri, 14200  SIDI SLIMANE","phone":"05 37 50 20 78","location":"","city":"Sidi Slimane"},{"name":"Pharmacie Arrahma","address":"hay Ouled El Ghazi , rue 10 n°244 SIDI SLIMANE","phone":"05 37 50 57 68","location":"","city":"Sidi Slimane"},{"name":"Pharmacie Assafaa","address":"Hay Essalam , bloc 40 n°8 SIDI SLIMANE","phone":"05 37 50 10 46","location":"","city":"Sidi Slimane"}]