[{"name":"Pharmacie Nassim Assabah","address":"lotiss. Annour 2 , grp 30 mag. C1 TAMESNA","phone":"05 37 01 31 09","location":"https://www.telecontact.ma/plan-acces/pharmacie-nassim-assabah-/3307023/tamesna","city":"Tamesna"},{"name":"Pharmacie Nassim Sobh","address":"lotiss. Ennour II, grp 30, mag.1 TAMESNA","phone":"05 37 01 31 09","location":"https://www.telecontact.ma/plan-acces/pharmacie-nassim-sobh-/9003455/tamesna","city":"Tamesna"},{"name":"Pharmacie Soussan","address":"bd Abdallah Ben Yacine, résid. Al Omran la Vigne, tranche 3, imm. 16 mag. C1 TAMESNA","phone":"05 37 61 90 55","location":"https://www.telecontact.ma/plan-acces/pharmacie-soussan-/3308071/tamesna","city":"Tamesna"},{"name":"Pharmacie Kessouba","address":"lotiss. Jnane Mansour II , tranche 4, imm. 21 TAMESNA","phone":"05 37 61 98 66","location":"https://www.telecontact.ma/plan-acces/pharmacie-kessouba-/3271506/tamesna","city":"Tamesna"},{"name":"Pharmacie Masjid Annour","address":"Tamesna , Grp 9, Résid. Annour 1 n°39 TAMESNA","phone":"05 37 61 97 78","location":"","city":"Tamesna"}]