[{"name":"Pharmacie Annassiha","address":"16, bd Koweit, hay Bouhout, Haoumat Haddad TANGER","phone":"05 39 95 45 05","location":"https://www.telecontact.ma/plan-acces/pharmacie-annassiha-/3117101/tanger","city":"Tanger"},{"name":"Pharmacie Annour","address":"15, lotiss. Dhar Jaidi, bd Mauritanie TANGER","phone":"05 39 95 11 05","location":"https://www.telecontact.ma/plan-acces/pharmacie-annour-/3047239/tanger","city":"Tanger"},{"name":"Pharmacie Anoual","address":"26, bd El Qods, rte AlAouama TANGER","phone":"05 39 95 01 48","location":"https://www.telecontact.ma/plan-acces/pharmacie-anoual-/3047236/tanger","city":"Tanger"},{"name":"Pharmacie Aoufi","address":"hay Benkirane, rue 138 TANGER","phone":"05 39 94 38 38","location":"https://www.telecontact.ma/plan-acces/pharmacie-aoufi-/3200223/tanger","city":"Tanger"},{"name":"Pharmacie Ariha","address":"31, bd Moulay Youssef  TANGER","phone":"05 39 34 01 33","location":"https://www.telecontact.ma/plan-acces/pharmacie-ariha-/3047924/tanger","city":"Tanger"},{"name":"Pharmacie Arrabie","address":"hay Azib Haj Kaddour, hay Al Kharba n°716 TANGER","phone":"05 39 31 84 48","location":"https://www.telecontact.ma/plan-acces/pharmacie-arrabie-/3200222/tanger","city":"Tanger"},{"name":"Pharmacie Arrazi","address":"ancienne rte de l'Aéroport, résid. Golden Beach TANGER","phone":"05 39 31 58 73","location":"https://www.telecontact.ma/plan-acces/pharmacie-arrazi-/3047232/tanger","city":"Tanger"},{"name":"Pharmacie Arreda","address":"lotiss. Méditerranée  TANGER","phone":"05 39 30 12 82","location":"https://www.telecontact.ma/plan-acces/pharmacie-arreda-/3330409/tanger","city":"Tanger"},{"name":"Pharmacie Asanawbar","address":"79, rue Essanaoubar, lot. Narjis, Branes II TANGER","phone":"05 34 63 88 04","location":"https://www.telecontact.ma/plan-acces/pharmacie-asanawbar-/3046454/tanger","city":"Tanger"},{"name":"Pharmacie Assafwa","address":"rte Rahrah, Abdalass TANGER","phone":"05 39 31 29 18","location":"https://www.telecontact.ma/plan-acces/pharmacie-assafwa-/3269568/tanger","city":"Tanger"},{"name":"Pharmacie Assalam","address":"26, rue Oued Ouargha, Quartier Jirari II TANGER","phone":"05 39 36 06 00","location":"https://www.telecontact.ma/plan-acces/pharmacie-assalam-/3049558/tanger","city":"Tanger"},{"name":"Pharmacie Aswak Assalam","address":"bd Moulay Rachid, c. com. Aswak Assalam TANGER","phone":"05 39 39 35 46","location":"https://www.telecontact.ma/plan-acces/pharmacie-aswak-assalam-/3230649/tanger","city":"Tanger"},{"name":"Pharmacie Ataallah","address":"rte Rahrah  TANGER","phone":"05 39 37 70 43","location":"https://www.telecontact.ma/plan-acces/pharmacie-ataallah-/3332295/tanger","city":"Tanger"},{"name":"Pharmacie Atlas","address":"16, bd Ibn Ardoune  TANGER","phone":"05 39 31 18 40","location":"https://www.telecontact.ma/plan-acces/pharmacie-atlas-/3047613/tanger","city":"Tanger"},{"name":"Pharmacie Attanmia","address":"rte de Tétouan  TANGER","phone":"06 61 98 95 98","location":"https://www.telecontact.ma/plan-acces/pharmacie-attanmia-/3332203/tanger","city":"Tanger"},{"name":"Pharmacie Avenue Koweit","address":"quartier Bouhout 2, 90060  TANGER","phone":"05 39 36 48 96","location":"https://www.telecontact.ma/plan-acces/pharmacie-avenue-koweit-/9004569/tanger","city":"Tanger"},{"name":"Pharmacie Azhar Chifae","address":"rte Aouama  TANGER","phone":"05 39 95 83 21","location":"https://www.telecontact.ma/plan-acces/pharmacie-azhar-chifae-/3344337/tanger","city":"Tanger"},{"name":"Pharmacie Bab ElBhar","address":"28, rue Bab El Assa, Kasbah TANGER","phone":"05 39 93 05 61","location":"https://www.telecontact.ma/plan-acces/pharmacie-bab-elbhar-/3047401/tanger","city":"Tanger"},{"name":"Pharmacie Badre","address":"49, bd El Hind, Beni Makada kdima TANGER","phone":"05 39 95 16 54","location":"https://www.telecontact.ma/plan-acces/pharmacie-badre-/3047414/tanger","city":"Tanger"},{"name":"Pharmacie Bahrayen","address":"hay El Mers, Achena TANGER","phone":"05 39 38 82 90","location":"https://www.telecontact.ma/plan-acces/pharmacie-bahrayen-/3332209/tanger","city":"Tanger"},{"name":"Pharmacie Camelia","address":"8, bd Moulay Rachid, Val Fleuri TANGER","phone":"05 39 37 31 37","location":"https://www.telecontact.ma/plan-acces/pharmacie-camelia-/3047443/tanger","city":"Tanger"},{"name":"Pharmacie Cap Spartel","address":"lotiss. Al Irfane, Gh 16 imm. 175 n°5, rte Achakar TANGER","phone":"05 39 39 50 62","location":"https://www.telecontact.ma/plan-acces/pharmacie-cap-spartel-/3275775/tanger","city":"Tanger"},{"name":"Pharmacie Casabarata","address":"58 A, bd Moulay Abdelhafid  TANGER","phone":"05 39 31 82 13","location":"https://www.telecontact.ma/plan-acces/pharmacie-casabarata-/3047255/tanger","city":"Tanger"},{"name":"Pharmacie Centrale","address":"48, bd Pasteur , 90000  TANGER","phone":"05 39 93 37 41","location":"https://www.telecontact.ma/plan-acces/pharmacie-centrale-/1501100/tanger","city":"Tanger"},{"name":"Pharmacie Cervantes","address":"49, rue Anoual  TANGER","phone":"05 39 37 13 41","location":"https://www.telecontact.ma/plan-acces/pharmacie-cervantes-/3047363/tanger","city":"Tanger"},{"name":"Pharmacie Chair","address":"rue Al Anouar, lotiss. 29 TANGER","phone":"05 39 30 26 52","location":"https://www.telecontact.ma/plan-acces/pharmacie-chair-/3344032/tanger","city":"Tanger"},{"name":"Pharmacie Chams Ahlen","address":"rue al fidae  TANGER","phone":"05 39 42 44 95","location":"https://www.telecontact.ma/plan-acces/pharmacie-chams-ahlen-/3330416/tanger","city":"Tanger"},{"name":"Pharmacie Charf","address":"59 Bis, bd Yacoub El Mansour  TANGER","phone":"05 39 32 16 75","location":"https://www.telecontact.ma/plan-acces/pharmacie-charf-/3046256/tanger","city":"Tanger"},{"name":"Pharmacie Chifae","address":"4 Bis, bd Moulay Rachid  TANGER","phone":"05 39 37 57 85","location":"https://www.telecontact.ma/plan-acces/pharmacie-chifae-/3047915/tanger","city":"Tanger"},{"name":"Pharmacie Chorafa","address":"ancienne rte de l'Aéroport, résid. Al Kheir TANGER","phone":"05 39 31 11 34","location":"https://www.telecontact.ma/plan-acces/pharmacie-chorafa-/3200218/tanger","city":"Tanger"},{"name":"Pharmacie Complexe Al Baraka","address":"lotiss. Dhar Al Kanfoud, mag.10, Doha AL Barakka TANGER","phone":"05 39 35 10 70","location":"https://www.telecontact.ma/plan-acces/pharmacie-complexe-al-baraka-/3332361/tanger","city":"Tanger"},{"name":"Pharmacie Complexe Hassani","address":"rte de Rabat, km 7, cplxe Al Hassani TANGER","phone":"05 39 31 61 16","location":"https://www.telecontact.ma/plan-acces/pharmacie-complexe-hassani-/3046658/tanger","city":"Tanger"},{"name":"Pharmacie Complexe Irfane II","address":"lotiss. Al Irfane, Gh 4 imm. 43 rdc. n°136 TANGER","phone":"05 39 39 58 57","location":"https://www.telecontact.ma/plan-acces/pharmacie-complexe-irfane-ii-/3266490/tanger","city":"Tanger"},{"name":"Pharmacie Dar D'bagh","address":"34, rue Dar Dbagh  TANGER","phone":"05 39 94 92 92","location":"","city":"Tanger"},{"name":"Pharmacie Dar Tounsi","address":"146, lotiss. Nahda, Drissia TANGER","phone":"05 39 35 29 48","location":"https://www.telecontact.ma/plan-acces/pharmacie-dar-tounsi-/3117084/tanger","city":"Tanger"},{"name":"Pharmacie de l'Université","address":"50, rte Boukhalef  TANGER","phone":"05 39 39 34 25","location":"","city":"Tanger"},{"name":"Pharmacie de la Gare","address":"Pl. de la Gare  TANGER","phone":"05 39 30 19 32","location":"https://www.telecontact.ma/plan-acces/pharmacie-de-la-gare-/3344046/tanger","city":"Tanger"},{"name":"Pharmacie de la plage","address":"7, bd Youssef Ibn Tachfine , 90000  TANGER","phone":"05 39 94 09 74","location":"https://www.telecontact.ma/plan-acces/pharmacie-de-la-plage-/3047258/tanger","city":"Tanger"},{"name":"Pharmacie de la Santé","address":"bd Tarik Bnou Ziad, lot. Fatima Zohra Drissia TANGER","phone":"05 39 95 03 81","location":"","city":"Tanger"},{"name":"Pharmacie de Paris","address":"8, Pl. France, imm. Toledano, 90000  TANGER","phone":"05 39 93 64 24","location":"https://www.telecontact.ma/plan-acces/pharmacie-de-paris-/0332000/tanger","city":"Tanger"},{"name":"Pharmacie ElKindy","address":"136, bd Haroun Arrachid, q. Belgica TANGER","phone":"05 39 94 94 42","location":"https://www.telecontact.ma/plan-acces/pharmacie-elkindy-/3047219/tanger","city":"Tanger"},{"name":"Pharmacie Elyousr","address":"32, bd Mohammed V , 90000  TANGER","phone":"05 39 32 23 17","location":"https://www.telecontact.ma/plan-acces/pharmacie-elyousr-/0332500/tanger","city":"Tanger"},{"name":"Pharmacie Erradi","address":"bd des F.a.r., résid. Amine, n°3 TANGER","phone":"05 39 31 77 44","location":"https://www.telecontact.ma/plan-acces/pharmacie-erradi-/3047249/tanger","city":"Tanger"},{"name":"Pharmacie Europharm","address":"hay bir Ghazi , q. Al qods n° 520 Al aouama TANGER","phone":"06 90 98 81 71","location":"https://www.telecontact.ma/plan-acces/pharmacie-europharm-/3332217/tanger","city":"Tanger"},{"name":"Pharmacie Fadili","address":"hay Berouaka, rue 10, n°18 Bendibane TANGER","phone":"05 39 31 44 66","location":"https://www.telecontact.ma/plan-acces/pharmacie-fadili-/3046962/tanger","city":"Tanger"},{"name":"Pharmacie Fahs","address":"hay Beni Makada, rue 36 n°10 q. Jirari II TANGER","phone":"05 39 95 00 63","location":"https://www.telecontact.ma/plan-acces/pharmacie-fahs-/3047233/tanger","city":"Tanger"},{"name":"Pharmacie Fares","address":"34 A, bd Abdeslam Ben Bouhout  TANGER","phone":"05 39 95 64 69","location":"https://www.telecontact.ma/plan-acces/pharmacie-fares-/3047317/tanger","city":"Tanger"},{"name":"Pharmacie Fayna","address":"20 B, bd Forêt Eucalyptus, Branes TANGER","phone":"05 39 31 18 59","location":"https://www.telecontact.ma/plan-acces/pharmacie-fayna-/3119500/tanger","city":"Tanger"},{"name":"Pharmacie Fleming","address":"hay Hassani, Marjane TANGER","phone":"05 39 38 08 92","location":"https://www.telecontact.ma/plan-acces/pharmacie-fleming-/3332201/tanger","city":"Tanger"},{"name":"Pharmacie Ghailane","address":"41, rue Malaisie, hay Ouarda 2, Bendibane TANGER","phone":"05 39 31 59 59","location":"https://www.telecontact.ma/plan-acces/pharmacie-ghailane-/3105376/tanger","city":"Tanger"},{"name":"Pharmacie Gibraltar","address":"7, rte Malabata, Sania Eljadida TANGER","phone":"05 39 32 59 31","location":"https://www.telecontact.ma/plan-acces/pharmacie-gibraltar-/3047413/tanger","city":"Tanger"},{"name":"Pharmacie Granada","address":"18, rue Tahran  TANGER","phone":"05 39 94 07 72","location":"https://www.telecontact.ma/plan-acces/pharmacie-granada-/3047567/tanger","city":"Tanger"},{"name":"Pharmacie Grand Maghreb","address":"57, rte Aouama, lotiss. Andalous TANGER","phone":"05 39 35 22 46","location":"https://www.telecontact.ma/plan-acces/pharmacie-grand-maghreb-/9016941/tanger","city":"Tanger"},{"name":"Pharmacie Gueznaia","address":"hay Gzenaya, Souk Sebt n°34 TANGER","phone":"05 39 39 30 46","location":"https://www.telecontact.ma/plan-acces/pharmacie-gueznaia-/3117062/tanger","city":"Tanger"},{"name":"Pharmacie Hadia","address":"103, lotiss. Rahrah  TANGER","phone":"05 39 31 30 79","location":"https://www.telecontact.ma/plan-acces/pharmacie-hadia-/3230231/tanger","city":"Tanger"},{"name":"Pharmacie Hamza","address":"33, rue Yemen, hay Saâda Beni Makada TANGER","phone":"05 39 36 25 74","location":"https://www.telecontact.ma/plan-acces/pharmacie-hamza-/3047648/tanger","city":"Tanger"},{"name":"Pharmacie Hay Al Inara","address":"rue Aviation  TANGER","phone":"05 39 38 34 19","location":"https://www.telecontact.ma/plan-acces/pharmacie-hay-al-inara-/3332205/tanger","city":"Tanger"},{"name":"Pharmacie Hay Al Manar","address":"bd Moulay Rachid  TANGER","phone":"05 39 31 54 12","location":"https://www.telecontact.ma/plan-acces/pharmacie-hay-al-manar-/3332211/tanger","city":"Tanger"},{"name":"Pharmacie Hay AlBoughaz","address":"hay Al Boughaz, rue 3 n° 9 TANGER","phone":"05 39 95 83 22","location":"https://www.telecontact.ma/plan-acces/pharmacie-hay-alboughaz-/3162789/tanger","city":"Tanger"},{"name":"Pharmacie Hay Benkirane","address":"hay Benkirane, rue Principale n°93 TANGER","phone":"05 39 95 97 57","location":"https://www.telecontact.ma/plan-acces/pharmacie-hay-benkirane-/3047429/tanger","city":"Tanger"},{"name":"Pharmacie Mehdia Golf","address":"10, bd Al Moujahidine, lotiss. Golf 4 TANGER","phone":"05 39 37 73 43","location":"https://www.telecontact.ma/plan-acces/pharmacie-mehdia-golf-/3389725/tanger","city":"Tanger"},{"name":"Pharmacie Mesnana","address":"hay Mesnana  TANGER","phone":"05 39 31 34 30","location":"https://www.telecontact.ma/plan-acces/pharmacie-mesnana-/3332296/tanger","city":"Tanger"},{"name":"Pharmacie Metioui","address":"153, bd Mohammed V , 90000  TANGER","phone":"05 39 94 42 88","location":"https://www.telecontact.ma/plan-acces/pharmacie-metioui-/2102558/tanger","city":"Tanger"},{"name":"Pharmacie Mikou","address":"bd Aicha Moussafir  TANGER","phone":"05 39 95 44 78","location":"","city":"Tanger"},{"name":"Pharmacie Mister Khouch","address":"36, bd Anfa, hay Mister Khouch TANGER","phone":"05 39 93 72 82","location":"","city":"Tanger"},{"name":"Pharmacie Mly Ismaïl","address":"bd Moulay Ismail, résid. Zahara TANGER","phone":"05 39 95 40 78","location":"","city":"Tanger"},{"name":"Pharmacie Mly Youssef","address":"50 A, bd Moulay Youssef, imm. AlFath TANGER","phone":"05 39 94 55 97","location":"","city":"Tanger"},{"name":"Pharmacie Moncef","address":"bd des F.a.r., résid. ElYamani n°139 TANGER","phone":"05 39 38 11 40","location":"","city":"Tanger"},{"name":"Pharmacie Mosquée ElFath","address":"rte des Abattoirs, hay Benkirane II TANGER","phone":"05 39 95 90 26","location":"","city":"Tanger"},{"name":"Pharmacie Mouadafine","address":"hay Al Boughaz, rue 70A, n°1, A Bis Wahda Watania TANGER","phone":"05 39 35 01 38","location":"","city":"Tanger"},{"name":"Pharmacie Mountassir","address":"z.i. Al Majd, bloc 11 n° 2 TANGER","phone":"05 39 95 23 11","location":"","city":"Tanger"},{"name":"Pharmacie Moustaghfir","address":"rte de l' Aéroport, Mesnana TANGER","phone":"05 39 31 07 74","location":"","city":"Tanger"},{"name":"Pharmacie My Ali Cherif","address":"78, bd Moulay Ali Cherif, Beni Makada TANGER","phone":"05 39 95 67 74","location":"","city":"Tanger"},{"name":"Pharmacie Najah","address":"hay Mghogha Kébira, Rte de Tétouan TANGER","phone":"06 16 74 16 65","location":"","city":"Tanger"},{"name":"Pharmacie Najid","address":"rte de Rabat, Boukhalef Gzenaya TANGER","phone":"05 39 39 41 99","location":"","city":"Tanger"},{"name":"Pharmacie Narjiss","address":"55, bd Genevriers, Branes II TANGER","phone":"05 39 31 57 69","location":"","city":"Tanger"},{"name":"Pharmacie Noran","address":"Oued Chatt , résid. Duode TANGER","phone":"05 39 30 28 74","location":"","city":"Tanger"},{"name":"Pharmacie Nour Moujamaa Hassani","address":"Rocade 9 sud  TANGER","phone":"05 39 38 85 04","location":"","city":"Tanger"},{"name":"Pharmacie Noureddine","address":"hay El Mers, Dhar Al Kanfoud TANGER","phone":"05 39 31 58 75","location":"","city":"Tanger"},{"name":"Pharmacie Nouvelle","address":"hay ElHassania , rue 4 n°2 Bendibane TANGER","phone":"05 39 31 31 96","location":"","city":"Tanger"},{"name":"Pharmacie de Tanger","address":"rte de Tétouan cplxe Amal 2 TANGER","phone":"05 39 95 48 08","location":"https://www.telecontact.ma/plan-acces/pharmacie-de-tanger-/3046975/tanger","city":"Tanger"},{"name":"Pharmacie des Arenes","address":"12, rte Rgaye  TANGER","phone":"05 39 95 51 55","location":"https://www.telecontact.ma/plan-acces/pharmacie-des-arenes-/3047927/tanger","city":"Tanger"},{"name":"Pharmacie Dhar El Mers","address":"66, lotiss. Belle Vue, Tanja El Balia TANGER","phone":"05 39 30 12 69","location":"https://www.telecontact.ma/plan-acces/pharmacie-dhar-el-mers-/3275758/tanger","city":"Tanger"},{"name":"Pharmacie Dina","address":"bd Imam Mouslim, imm. A n°1 Dradeb TANGER","phone":"05 39 37 01 29","location":"https://www.telecontact.ma/plan-acces/pharmacie-dina-/3046652/tanger","city":"Tanger"},{"name":"Pharmacie Doha","address":"lotiss. Doha, rte de Tetouan TANGER","phone":"05 39 35 03 32","location":"https://www.telecontact.ma/plan-acces/pharmacie-doha-/3275738/tanger","city":"Tanger"},{"name":"Pharmacie Doha Louama","address":"lotiss. Anjal  TANGER","phone":"05 37 95 11 70","location":"https://www.telecontact.ma/plan-acces/pharmacie-doha-louama-/3313166/tanger","city":"Tanger"},{"name":"Pharmacie Drissia","address":"42, bd Tarik Bnou Ziad, Drissia TANGER","phone":"05 39 95 64 15","location":"https://www.telecontact.ma/plan-acces/pharmacie-drissia-/3047906/tanger","city":"Tanger"},{"name":"Pharmacie du Golf","address":"quartier Boubana, lotiss. Flandria n°1, 90040  TANGER","phone":"05 39 37 60 97","location":"https://www.telecontact.ma/plan-acces/pharmacie-du-golf-/3230279/tanger","city":"Tanger"},{"name":"Pharmacie du Grand Stade","address":"Rte de R , cplexe résidentiel Akram, bloc 3, 90000  TANGER","phone":"06 61 43 02 80","location":"https://www.telecontact.ma/plan-acces/pharmacie-du-grand-stade-/3313200/tanger","city":"Tanger"},{"name":"Pharmacie du Lycée","address":"15, bd Allal Ben Abdallah , 90000  TANGER","phone":"05 39 94 11 78","location":"","city":"Tanger"},{"name":"Pharmacie Du nord","address":"rte de Rabat, lot. Sanae II rue 5 n°3 Bendibane TANGER","phone":"05 39 31 05 80","location":"https://www.telecontact.ma/plan-acces/pharmacie-du-nord-/3047399/tanger","city":"Tanger"},{"name":"Pharmacie Raihani","address":"14, rue El Kortobi, Marshan TANGER","phone":"05 39 93 08 40","location":"https://www.telecontact.ma/plan-acces/pharmacie-raihani-/3047350/tanger","city":"Tanger"},{"name":"Pharmacie Randa","address":"55, lotiss. Riad Ahlen  TANGER","phone":"05 39 31 18 55","location":"https://www.telecontact.ma/plan-acces/pharmacie-randa-/3275753/tanger","city":"Tanger"},{"name":"Pharmacie Riad","address":"hay Mesnana, cplxe. Habitats Fellali, rte. Rahrah TANGER","phone":"05 39 31 60 51","location":"https://www.telecontact.ma/plan-acces/pharmacie-riad-/3200213/tanger","city":"Tanger"},{"name":"Pharmacie Riad Achifaa","address":"hay Sidi Driss  TANGER","phone":"05 39 38 54 91","location":"https://www.telecontact.ma/plan-acces/pharmacie-riad-achifaa-/3332298/tanger","city":"Tanger"},{"name":"Pharmacie Riad Ahlen","address":"224, lotiss. Riad Ahlen, ret de Rabat TANGER","phone":"05 39 31 61 20","location":"https://www.telecontact.ma/plan-acces/pharmacie-riad-ahlen-/3230490/tanger","city":"Tanger"},{"name":"Pharmacie Riad Medic","address":"bd des Forces Armées Royales  TANGER","phone":"05 39 38 57 00","location":"https://www.telecontact.ma/plan-acces/pharmacie-riad-medic-/3319934/tanger","city":"Tanger"},{"name":"Pharmacie Route de Rabat","address":"rte de Rabat, lotiss. Irfane Doha 03, GH 26, imm. 244 TANGER","phone":"05 39 39 51 68","location":"https://www.telecontact.ma/plan-acces/pharmacie-route-de-rabat-/3248932/tanger","city":"Tanger"},{"name":"Pharmacie Route ElAouma","address":"bd El Qods, lotiss. 200 rte ElAouama 703 TANGER","phone":"05 39 36 15 59","location":"https://www.telecontact.ma/plan-acces/pharmacie-route-elaouma-/3119504/tanger","city":"Tanger"},{"name":"Pharmacie Saâda","address":"3, rte de Tétouan, place des Arènes TANGER","phone":"05 39 36 36 00","location":"","city":"Tanger"},{"name":"Pharmacie Sabila Jmaa","address":"1, rue Malte, Sabila Jmaa, Marshan TANGER","phone":"05 39 37 52 82","location":"https://www.telecontact.ma/plan-acces/pharmacie-sabila-jmaa-/3047204/tanger","city":"Tanger"},{"name":"Pharmacie Safaa","address":"rue El Assouak, hay Zayten TANGER","phone":"05 39 31 00 27","location":"https://www.telecontact.ma/plan-acces/pharmacie-safaa-/3332368/tanger","city":"Tanger"},{"name":"Pharmacie Salaheddine","address":"rue Fkih Ben Mekki, lotiss. Rhofa 2 lot. 40 A TANGER","phone":"05 39 31 56 88","location":"https://www.telecontact.ma/plan-acces/pharmacie-salaheddine-/3144606/tanger","city":"Tanger"},{"name":"Pharmacie Salama","address":"Mers Achennad  TANGER","phone":"05 39 38 94 98","location":"https://www.telecontact.ma/plan-acces/pharmacie-salama-/3313423/tanger","city":"Tanger"},{"name":"Pharmacie Salima","address":"19 x, rte Aouama Est, 90080  TANGER","phone":"05 39 35 58 13","location":"https://www.telecontact.ma/plan-acces/pharmacie-salima-/9011185/tanger","city":"Tanger"},{"name":"Pharmacie San Francisco","address":"3, pl. de Navare, q. Souk ElBakar TANGER","phone":"05 39 93 13 56","location":"https://www.telecontact.ma/plan-acces/pharmacie-san-francisco-/3047922/tanger","city":"Tanger"},{"name":"Pharmacie Sania","address":"bd Aicha Moussafir, rue 3 n°2 bis Sania Beni Makada TANGER","phone":"05 39 36 13 30","location":"https://www.telecontact.ma/plan-acces/pharmacie-sania-/3047220/tanger","city":"Tanger"},{"name":"Pharmacie Sat Filage","address":"2, lotiss. Al Amana  TANGER","phone":"05 39 31 54 60","location":"https://www.telecontact.ma/plan-acces/pharmacie-sat-filage-/3230284/tanger","city":"Tanger"},{"name":"Pharmacie Sekka Aouama","address":"q. des Sekka  TANGER","phone":"06 20 28 35 90","location":"https://www.telecontact.ma/plan-acces/pharmacie-sekka-aouama-/3332323/tanger","city":"Tanger"},{"name":"Pharmacie Sidi Boukhari","address":"bd Sidi Boukhari  TANGER","phone":"05 39 33 35 03","location":"https://www.telecontact.ma/plan-acces/pharmacie-sidi-boukhari-/3047438/tanger","city":"Tanger"},{"name":"Pharmacie Sidi Driss","address":"hay Bensaid, rte Tercière 8003, Behraine TANGER","phone":"05 39 31 42 88","location":"https://www.telecontact.ma/plan-acces/pharmacie-sidi-driss-/3117073/tanger","city":"Tanger"},{"name":"Pharmacie Al Bayrouni","address":"62, lotiss. Alosra  TANGER","phone":"05 39 38 12 28","location":"https://www.telecontact.ma/plan-acces/pharmacie-al-bayrouni-/3200233/tanger","city":"Tanger"},{"name":"Pharmacie Al Boustane","address":"rte Boubana, Remilat TANGER","phone":"05 39 37 67 68","location":"https://www.telecontact.ma/plan-acces/pharmacie-al-boustane-/3313196/tanger","city":"Tanger"},{"name":"Pharmacie Al Faraj","address":"rte Boukhalef, cplexe Al Irfane I TANGER","phone":"05 39 39 28 44","location":"https://www.telecontact.ma/plan-acces/pharmacie-al-faraj-/3332230/tanger","city":"Tanger"},{"name":"Pharmacie Al Firdaous","address":"lotiss. Oumnia, extention Bendibane rue 29 n°3a TANGER","phone":"05 39 31 74 88","location":"https://www.telecontact.ma/plan-acces/pharmacie-al-firdaous-/3330418/tanger","city":"Tanger"},{"name":"Pharmacie Al Ihssane","address":"73, rue Boutrika, q. Mesnana, 90000  TANGER","phone":"05 39 31 19 36","location":"https://www.telecontact.ma/plan-acces/pharmacie-al-ihssane-/3218822/tanger","city":"Tanger"},{"name":"Pharmacie Al Karam","address":"rte de Tétouan, Azib Abkiou, Mghogha TANGER","phone":"05 39 95 83 06","location":"https://www.telecontact.ma/plan-acces/pharmacie-al-karam-/3332372/tanger","city":"Tanger"},{"name":"Pharmacie Al Kawacim","address":"route Masnana , cplxe Al Kawacim n°7 Masnana TANGER","phone":"05 39 38 11 32","location":"https://www.telecontact.ma/plan-acces/pharmacie-al-kawacim-/3300392/tanger","city":"Tanger"},{"name":"Pharmacie Al Kawtar","address":"lotiss. Karima  TANGER","phone":"05 39 38 08 83","location":"https://www.telecontact.ma/plan-acces/pharmacie-al-kawtar-/3330420/tanger","city":"Tanger"},{"name":"Pharmacie Al Madkhal Al Karim","address":"rue des Abattoires  TANGER","phone":"05 39 94 07 88","location":"https://www.telecontact.ma/plan-acces/pharmacie-al-madkhal-al-karim-/3332324/tanger","city":"Tanger"},{"name":"Pharmacie Al Moujahidine","address":"54, bd Al Moujahidine  TANGER","phone":"05 39 94 83 36","location":"https://www.telecontact.ma/plan-acces/pharmacie-al-moujahidine-/3140839/tanger","city":"Tanger"},{"name":"Pharmacie Al Moustakbal","address":"rte de Rabat, n°3 TANGER","phone":"05 39 31 31 42","location":"https://www.telecontact.ma/plan-acces/pharmacie-al-moustakbal-/3332216/tanger","city":"Tanger"},{"name":"Pharmacie Al Yakine","address":"rte de Tétouan, lotiss amal TANGER","phone":"05 39 35 20 62","location":"https://www.telecontact.ma/plan-acces/pharmacie-al-yakine-/3330419/tanger","city":"Tanger"},{"name":"Pharmacie Al-Ghazali","address":"73, bd Haroun Arrachid, Colonia TANGER","phone":"05 39 93 96 05","location":"https://www.telecontact.ma/plan-acces/pharmacie-al-ghazali-/3047359/tanger","city":"Tanger"},{"name":"Pharmacie Alamal","address":"20, bd Moulay Abdelaziz, imm. Dar AlAmal TANGER","phone":"05 39 31 85 49","location":"https://www.telecontact.ma/plan-acces/pharmacie-alamal-/3047367/tanger","city":"Tanger"},{"name":"Pharmacie AlAmana","address":"rte de Rabat, cplxe Al Irfane, Jamai TANGER","phone":"05 39 39 44 01","location":"https://www.telecontact.ma/plan-acces/pharmacie-alamana-/3269306/tanger","city":"Tanger"},{"name":"Pharmacie AlAndalous","address":"118, bd Mohammed V, résid. AlAndalous TANGER","phone":"05 39 94 69 10","location":"https://www.telecontact.ma/plan-acces/pharmacie-alandalous-/2207879/tanger","city":"Tanger"},{"name":"Pharmacie AlAouda","address":"bd Tunisie, Hay AlAouda Beni Makada TANGER","phone":"05 39 36 05 00","location":"https://www.telecontact.ma/plan-acces/pharmacie-alaouda-/3047339/tanger","city":"Tanger"},{"name":"Pharmacie AlAssil","address":"rte de Tétouan, lotiss. AlAssil TANGER","phone":"05 39 35 01 20","location":"https://www.telecontact.ma/plan-acces/pharmacie-alassil-/3268268/tanger","city":"Tanger"},{"name":"Pharmacie Alazhar","address":"hay Bendibane, rue 2 n°10, hay Alaoui TANGER","phone":"05 39 31 08 74","location":"https://www.telecontact.ma/plan-acces/pharmacie-alazhar-/3047372/tanger","city":"Tanger"},{"name":"Pharmacie AlBalsam","address":"hay Azib Haj Kaddour, bloc A résid. Mabrouka TANGER","phone":"05 39 31 76 77","location":"https://www.telecontact.ma/plan-acces/pharmacie-albalsam-/3144630/tanger","city":"Tanger"},{"name":"Pharmacie Bait AlMakdiss","address":"hay Sidi Driss, rte Principale TANGER","phone":"05 39 31 40 11","location":"https://www.telecontact.ma/plan-acces/pharmacie-bait-almakdiss-/3117091/tanger","city":"Tanger"},{"name":"Pharmacie Balssam","address":"Hawmat Soumal , lotis. Souani TANGER","phone":"06 59 52 39 78","location":"","city":"Tanger"},{"name":"Pharmacie Banafsaj","address":"rue Banafsaj, Dradeb TANGER","phone":"05 39 33 00 72","location":"","city":"Tanger"},{"name":"Pharmacie Bayti","address":"35, Complexe Bayti  TANGER","phone":"05 39 31 11 64","location":"","city":"Tanger"},{"name":"Pharmacie bd Mohamed VI","address":"26, bd Mohammed VI, cplexe les Jardins Andalous TANGER","phone":"05 39 94 21 81","location":"","city":"Tanger"},{"name":"Pharmacie Bd. Mly Rachid","address":"13, bd Moulay Rachid, Val Fleuri TANGER","phone":"05 39 31 32 77","location":"","city":"Tanger"},{"name":"Pharmacie Bel Air","address":"quartier Bel Air, rue 17 n°32 B TANGER","phone":"05 39 94 87 34","location":"","city":"Tanger"},{"name":"Pharmacie Belkacem","address":"lotiss. Jirari 2, bd B, lot 1110, Beni Makada TANGER","phone":"05 39 95 83 71","location":"","city":"Tanger"},{"name":"Pharmacie Ben Abbou","address":"hay Mesnana, lot. Safir n°27 TANGER","phone":"05 39 38 83 90","location":"","city":"Tanger"},{"name":"Pharmacie du Quartier","address":"56, rte Rgaye, quartier Draoua TANGER","phone":"05 39 36 15 18","location":"https://www.telecontact.ma/plan-acces/pharmacie-du-quartier-/3047427/tanger","city":"Tanger"},{"name":"Pharmacie du Soleil","address":"111, bd Prince Héritier , 90000  TANGER","phone":"05 39 94 53 05","location":"https://www.telecontact.ma/plan-acces/pharmacie-du-soleil-/1169600/tanger","city":"Tanger"},{"name":"Pharmacie El Alia","address":"37, rue Ibn Kadi , place des Arenes TANGER","phone":"05 39 94 79 62","location":"","city":"Tanger"},{"name":"Pharmacie El Ghandouri","address":"5, rte Malabata  TANGER","phone":"05 39 30 13 88","location":"","city":"Tanger"},{"name":"Pharmacie El Harrarine","address":"rte de Rabat, Ahrrarine TANGER","phone":"05 39 38 48 58","location":"","city":"Tanger"},{"name":"Pharmacie El Mers","address":"hay El Mers 1  TANGER","phone":"05 39 31 52 02","location":"","city":"Tanger"},{"name":"Pharmacie El Mesnaoui","address":"rte Sidi Driss, Marse Achennad TANGER","phone":"05 39 30 72 30","location":"","city":"Tanger"},{"name":"Pharmacie El Moufid","address":"rue Ahlan , Rte de Rabat Zemmouri 2, 90030  TANGER","phone":"05 39 30 73 41","location":"","city":"Tanger"},{"name":"Pharmacie El Yamouni","address":"hay Tanja El Balia, rue 3 n° 8 hay Chatt TANGER","phone":"06 64 02 60 41","location":"","city":"Tanger"},{"name":"Pharmacie ElAmile","address":"73, bd Moussa Ibn Noussair , 90000  TANGER","phone":"05 39 93 11 23","location":"","city":"Tanger"},{"name":"Pharmacie ElAouama","address":"bd Arabie Saoudite, rue 27, n°31, Al Aouama TANGER","phone":"05 39 95 98 08","location":"","city":"Tanger"},{"name":"Pharmacie ElAttabi","address":"bd Koweit, Rgayae 4, Aouema TANGER","phone":"05 39 95 73 63","location":"","city":"Tanger"},{"name":"Pharmacie ElBekouri","address":"hay El Mers 2  TANGER","phone":"06 71 69 55 89","location":"","city":"Tanger"},{"name":"Pharmacie ElHadri","address":"hay El Mers 2, Bahraouien TANGER","phone":"05 39 38 55 55","location":"","city":"Tanger"},{"name":"Pharmacie ElHikma","address":"25, rue Omar Al Mokhtar  TANGER","phone":"05 39 36 05 93","location":"","city":"Tanger"},{"name":"Pharmacie Elhouda","address":"28 Bis, rue Ali Iraki, Souani TANGER","phone":"05 39 33 62 66","location":"","city":"Tanger"},{"name":"Pharmacie California","address":"rue Banafsaj  TANGER","phone":"05 39 93 63 91","location":"https://www.telecontact.ma/plan-acces/pharmacie-california-/3117056/tanger","city":"Tanger"},{"name":"Pharmacie Afilal","address":"30, bd Allal El Fassi, Belle vue, Drissia II TANGER","phone":"05 39 95 60 87","location":"https://www.telecontact.ma/plan-acces/pharmacie-afilal-/3047354/tanger","city":"Tanger"},{"name":"Pharmacie Ahlen","address":"bd des F.a.r., résid. Habiba bloc A1 loc. n°7 TANGER","phone":"05 39 31 13 00","location":"https://www.telecontact.ma/plan-acces/pharmacie-ahlen-/3144639/tanger","city":"Tanger"},{"name":"Pharmacie Aiche","address":"hay Tanja El Balia, entrée Ouad Chate et Addoha TANGER","phone":"05 39 30 15 48","location":"https://www.telecontact.ma/plan-acces/pharmacie-aiche-/3269300/tanger","city":"Tanger"},{"name":"Pharmacie Aïda","address":"7, rue Berkane  TANGER","phone":"05 39 34 33 03","location":"","city":"Tanger"},{"name":"Pharmacie Ain Dalia","address":"Aouama gharbia , hay Al Qods TANGER","phone":"05 39 35 06 08","location":"","city":"Tanger"},{"name":"Pharmacie Ain Echifae","address":"lotiss al Azizia , résid Aya 4 n°1 TANGER","phone":"05 39 38 41 45","location":"","city":"Tanger"},{"name":"Pharmacie Aïn Hayyani","address":"7, rue Imam Kastalani, q. Ain Hayani TANGER","phone":"05 39 93 43 74","location":"","city":"Tanger"},{"name":"Pharmacie Ain Jdida","address":"797, rte de Tétouan, Mghogha Kébira TANGER","phone":"05 39 95 69 26","location":"","city":"Tanger"},{"name":"Pharmacie Ajial","address":"Grp Agial , imm.4 n°2 TANGER","phone":"05 39 42 41 85","location":"","city":"Tanger"},{"name":"Pharmacie Akalai","address":"rte Tanja El Balia, q. oued Sania, Lotiss Sania TANGER","phone":"06 63 14 51 78","location":"","city":"Tanger"},{"name":"Pharmacie Al Abawaine","address":"bd Cheikh Bilarbi Alaoui , rte Kariane TANGER","phone":"01 62 05 39 97","location":"","city":"Tanger"},{"name":"Pharmacie Al Aouama Al Charkia","address":"rue El Qods, hay Loudaya Zaouia TANGER","phone":"05 39 95 56 33","location":"","city":"Tanger"},{"name":"Pharmacie Al Aouama Al Gharbia","address":"bd El Qods,rte Al Aouama TANGER","phone":"05 39 95 62 36","location":"","city":"Tanger"},{"name":"Pharmacie AlHanae","address":"bd El Qods, hay AlHane 1, rte Aouama lot.120 TANGER","phone":"05 39 35 10 39","location":"https://www.telecontact.ma/plan-acces/pharmacie-alhanae-/3047346/tanger","city":"Tanger"},{"name":"Pharmacie Alhilal","address":"bd des F.a.r., lot Ennasr, Ben Dibane TANGER","phone":"05 39 31 36 29","location":"https://www.telecontact.ma/plan-acces/pharmacie-alhilal-/3047393/tanger","city":"Tanger"},{"name":"Pharmacie Alhouria","address":"rte Aouama, lotiss. Lalla Meriem n°149, hay Essalam II TANGER","phone":"05 39 35 02 28","location":"https://www.telecontact.ma/plan-acces/pharmacie-alhouria-/3047227/tanger","city":"Tanger"},{"name":"Pharmacie Alidaa","address":"rue Jad Al Maoula, lotiss. Ard Bouhsain n°92 TANGER","phone":"05 39 95 71 51","location":"https://www.telecontact.ma/plan-acces/pharmacie-alidaa-/3047228/tanger","city":"Tanger"},{"name":"Pharmacie Alidrissi","address":"hay El Mokadem, rue 152 n°18 Bir Chifae TANGER","phone":"05 39 31 84 58","location":"https://www.telecontact.ma/plan-acces/pharmacie-alidrissi-/3047402/tanger","city":"Tanger"},{"name":"Pharmacie AlImam Malik","address":"bd Abou Kacem Cherif Sebti, lot. Safif, Casabarata TANGER","phone":"05 39 34 22 34","location":"https://www.telecontact.ma/plan-acces/pharmacie-alimam-malik-/3049329/tanger","city":"Tanger"},{"name":"Pharmacie AlIrfane","address":"lotiss. Al Irfane, Doha Boukhalef TANGER","phone":"05 39 39 48 29","location":"https://www.telecontact.ma/plan-acces/pharmacie-alirfane-/3269307/tanger","city":"Tanger"},{"name":"Pharmacie Alissrae","address":"54, hay Benkirane, rte de Tétouan TANGER","phone":"05 39 95 93 55","location":"https://www.telecontact.ma/plan-acces/pharmacie-alissrae-/3200229/tanger","city":"Tanger"},{"name":"Pharmacie AlJamae","address":"bd Arabie Saoudite, bir Chifa TANGER","phone":"05 39 31 64 76","location":"https://www.telecontact.ma/plan-acces/pharmacie-aljamae-/3047225/tanger","city":"Tanger"},{"name":"Pharmacie AlKantara","address":"84, rue Rahal Ben Ahmed, Al Kantara Bendibane TANGER","phone":"05 39 95 94 86","location":"https://www.telecontact.ma/plan-acces/pharmacie-alkantara-/3047279/tanger","city":"Tanger"},{"name":"Pharmacie AlKhair","address":"quartier Bouier, rue 7 n°33, Bendibane TANGER","phone":"05 39 31 06 56","location":"https://www.telecontact.ma/plan-acces/pharmacie-alkhair-/3047392/tanger","city":"Tanger"},{"name":"Pharmacie Alkodss","address":"51 B, rue Mansour Ibn Abi Amer, Drissia I TANGER","phone":"05 39 95 33 12","location":"https://www.telecontact.ma/plan-acces/pharmacie-alkodss-/3047408/tanger","city":"Tanger"},{"name":"Pharmacie AlMadina","address":"hay Al Moujahidine, dessert quartier Golf, cplxe Belbachir TANGER","phone":"05 39 38 05 50","location":"https://www.telecontact.ma/plan-acces/pharmacie-almadina-/3266498/tanger","city":"Tanger"},{"name":"Pharmacie AlMajd","address":"307, z.i. Al Majd  TANGER","phone":"05 39 95 16 84","location":"https://www.telecontact.ma/plan-acces/pharmacie-almajd-/3117252/tanger","city":"Tanger"},{"name":"Pharmacie AlMarsa","address":"21, rue Ibn Zohr q. Espagnôl TANGER","phone":"05 39 93 35 59","location":"https://www.telecontact.ma/plan-acces/pharmacie-almarsa-/3164126/tanger","city":"Tanger"},{"name":"Pharmacie Almasjid","address":"bd des F.a.r., résid. Alkhalij, Azib Haj Kadour TANGER","phone":"05 39 31 03 79","location":"https://www.telecontact.ma/plan-acces/pharmacie-almasjid-/3047353/tanger","city":"Tanger"},{"name":"Pharmacie AlMassira","address":"hay Mesnana, Khandak Roman TANGER","phone":"05 39 31 45 15","location":"https://www.telecontact.ma/plan-acces/pharmacie-almassira-/3200226/tanger","city":"Tanger"},{"name":"Pharmacie AlMouna","address":"hay Ibn Khaldoun, rue E n°60 Bir Chifae TANGER","phone":"05 39 31 33 46","location":"https://www.telecontact.ma/plan-acces/pharmacie-almouna-/3144642/tanger","city":"Tanger"},{"name":"Pharmacie AlOuroud Malika","address":"hay Aouama, lotiss.AlOuroud Malika TANGER","phone":"06 06 03 56 69","location":"https://www.telecontact.ma/plan-acces/pharmacie-alouroud-malika-/3266499/tanger","city":"Tanger"},{"name":"Pharmacie AlRaha","address":"115, bd Tarik Bnou Ziad, hay Souriennes TANGER","phone":"05 39 36 33 86","location":"https://www.telecontact.ma/plan-acces/pharmacie-alraha-/3047014/tanger","city":"Tanger"},{"name":"Pharmacie Albaraka","address":"2, Pl. Koweit, imm. Iberia TANGER","phone":"05 39 33 60 68","location":"https://www.telecontact.ma/plan-acces/pharmacie-albaraka-/3047420/tanger","city":"Tanger"},{"name":"Pharmacie AlBoughaz","address":"78, bd Mexique , 90000  TANGER","phone":"05 39 93 80 17","location":"https://www.telecontact.ma/plan-acces/pharmacie-alboughaz-/0330600/tanger","city":"Tanger"},{"name":"Pharmacie AlFajr","address":"3900, lotiss. Inara, q. Mesnana TANGER","phone":"05 39 31 43 50","location":"https://www.telecontact.ma/plan-acces/pharmacie-alfajr-/3200231/tanger","city":"Tanger"},{"name":"Pharmacie Ben Dahmane","address":"hay Haj Mokhtar, lot. 9547, Bendibane TANGER","phone":"05 39 31 81 52","location":"","city":"Tanger"},{"name":"Pharmacie Benallal","address":"127, bd Fatima Zahra, Drissia TANGER","phone":"05 39 36 32 40","location":"","city":"Tanger"},{"name":"Pharmacie Benayad","address":"hay Tanja El Balia, Mrah Tanja Balia TANGER","phone":"05 39 34 26 35","location":"","city":"Tanger"},{"name":"Pharmacie hay Bouhout","address":"23, rue Abdelkhalek Torres, hay Bouhout TANGER","phone":"05 39 95 00 87","location":"https://www.telecontact.ma/plan-acces/pharmacie-hay-bouhout-/3046482/tanger","city":"Tanger"},{"name":"Pharmacie Hay Gambouria","address":"rue Principale  TANGER","phone":"05 39 95 90 39","location":"https://www.telecontact.ma/plan-acces/pharmacie-hay-gambouria-/3332207/tanger","city":"Tanger"},{"name":"Pharmacie Hay Mrabet 2","address":"hay Aouama, lot 86 q. Mrabet TANGER","phone":"05 39 35 69 67","location":"https://www.telecontact.ma/plan-acces/pharmacie-hay-mrabet-2-/3334588/tanger","city":"Tanger"},{"name":"Pharmacie Hay N'Zaha","address":"28, rue Ibn Sanjoune, Nzaha TANGER","phone":"05 39 32 18 41","location":"","city":"Tanger"},{"name":"Pharmacie Hay Ouarda","address":"bd Moulay Ali Cherif, résid. AlOuahda 1, Beni Makada TANGER","phone":"05 39 31 67 24","location":"https://www.telecontact.ma/plan-acces/pharmacie-hay-ouarda-/3046649/tanger","city":"Tanger"},{"name":"Pharmacie Hjar Sfar","address":"Hjar Sfar , Aouama Charkiya TANGER","phone":"06 65 00 27 05","location":"https://www.telecontact.ma/plan-acces/pharmacie-hjar-sfar-/3344040/tanger","city":"Tanger"},{"name":"Pharmacie Homrani","address":"bd Mohammed VI, cplxe Iris Plage bloc A1 n°45 TANGER","phone":"05 39 30 10 51","location":"https://www.telecontact.ma/plan-acces/pharmacie-homrani-/3275759/tanger","city":"Tanger"},{"name":"Pharmacie Ibn Al Arabi","address":"rue Nigeria, résid. Zemmouri 3 TANGER","phone":"05 39 31 58 43","location":"https://www.telecontact.ma/plan-acces/pharmacie-ibn-al-arabi-/3275763/tanger","city":"Tanger"},{"name":"Pharmacie Ibn Annafis","address":"29, rue Moulay Tahar Ben Abdelkrim, q. des Fonctionnaires TANGER","phone":"05 39 95 81 25","location":"https://www.telecontact.ma/plan-acces/pharmacie-ibn-annafis-/3047336/tanger","city":"Tanger"},{"name":"Pharmacie Jihane","address":"hay Mghogha Kébira, Tabchicha n°32 TANGER","phone":"05 39 95 01 98","location":"https://www.telecontact.ma/plan-acces/pharmacie-jihane-/3291228/tanger","city":"Tanger"},{"name":"Pharmacie Jirari","address":"77, bd Aicha Moussafir, Jirari III TANGER","phone":"05 39 95 44 23","location":"https://www.telecontact.ma/plan-acces/pharmacie-jirari-/3047330/tanger","city":"Tanger"},{"name":"Pharmacie Jnan Marjane","address":"hay Azib Haj Kaddour, lotiss. Jinane 2, lot 31 n°2 TANGER","phone":"05 39 38 11 56","location":"https://www.telecontact.ma/plan-acces/pharmacie-jnan-marjane-/3275740/tanger","city":"Tanger"},{"name":"Pharmacie Josafat","address":"53, bd Hassan 1er  TANGER","phone":"05 39 33 34 49","location":"https://www.telecontact.ma/plan-acces/pharmacie-josafat-/3047046/tanger","city":"Tanger"},{"name":"Pharmacie Kasbah","address":"67, rue Kasbah  TANGER","phone":"05 39 93 51 20","location":"https://www.telecontact.ma/plan-acces/pharmacie-kasbah-/3047679/tanger","city":"Tanger"},{"name":"Pharmacie Khalil","address":"bd Mohammed VI, résid. Zemmouri I, bloc A2 TANGER","phone":"05 39 31 40 12","location":"https://www.telecontact.ma/plan-acces/pharmacie-khalil-/3047244/tanger","city":"Tanger"},{"name":"Pharmacie Khandaq El Ward","address":"Khandaq El Ward  TANGER","phone":"05 50 12 47 90","location":"","city":"Tanger"},{"name":"Pharmacie la Perle du Boughaz","address":"rte Aouama, Ghambouria 2 Ain Dalia TANGER","phone":"05 39 95 13 35","location":"","city":"Tanger"},{"name":"Pharmacie la Source","address":"559, z.i. Al Majd, Aouama TANGER","phone":"05 39 95 82 47","location":"","city":"Tanger"},{"name":"Pharmacie la Vie","address":"hay Gambouria , n° 554 TANGER","phone":"06 15 57 55 44","location":"","city":"Tanger"},{"name":"Pharmacie La Wilaya","address":"24, bd Massira El Khadra  TANGER","phone":"05 39 32 33 88","location":"","city":"Tanger"},{"name":"Pharmacie Laaouini Ziaten","address":"hay Ziaten, n°3701 TANGER","phone":"06 38 85 30 43","location":"","city":"Tanger"},{"name":"Pharmacie Laazifat","address":"77, bd Fatima Zahra, quartier Bouhout Beni Makada Laazifat TANGER","phone":"05 39 95 67 58","location":"","city":"Tanger"},{"name":"Pharmacie Laaziza","address":"bd Abi Jarir Atabari ang. rue Mly Hicham bloc A n°8 TANGER","phone":"05 39 94 63 25","location":"","city":"Tanger"},{"name":"Pharmacie Lalla Chafia","address":"rue Gutenberg ang. rue Faraj TANGER","phone":"05 39 94 92 28","location":"","city":"Tanger"},{"name":"Pharmacie Lamtafi","address":"6, rue Abou Hanifa Noaman, Lamtafi Marshan TANGER","phone":"05 39 93 43 18","location":"","city":"Tanger"},{"name":"Pharmacie Leila","address":"hay Marjane, Mghougha Kbira TANGER","phone":"05 39 35 05 75","location":"","city":"Tanger"},{"name":"Pharmacie les Palmiers","address":"7, rue Antaki  TANGER","phone":"05 39 32 57 63","location":"","city":"Tanger"},{"name":"Pharmacie les Parents","address":"hay Mesnana, Lot 8 résid. AlBassatine, hay Elourda TANGER","phone":"05 39 31 16 62","location":"","city":"Tanger"},{"name":"Pharmacie M'Ghogha","address":"rte de Tétouan, Mghogha Kébira TANGER","phone":"05 39 36 30 94","location":"","city":"Tanger"},{"name":"Pharmacie Imam Chadili","address":"hay Mesnana, q. Warda rte. de l'Aéroport TANGER","phone":"05 39 38 04 16","location":"https://www.telecontact.ma/plan-acces/pharmacie-imam-chadili-/3125292/tanger","city":"Tanger"},{"name":"Pharmacie Imam Chatebi","address":"1, rue Ajdir, Essalam bloc C TANGER","phone":"05 39 94 93 06","location":"https://www.telecontact.ma/plan-acces/pharmacie-imam-chatebi-/3117068/tanger","city":"Tanger"},{"name":"Pharmacie Imam Mouslim","address":"87, bd Imam Mouslim, Aïn Hayani Dradeb TANGER","phone":"05 39 94 71 85","location":"https://www.telecontact.ma/plan-acces/pharmacie-imam-mouslim-/3047329/tanger","city":"Tanger"}]