[{"name":"Pharmacie de l'Hôpital","address":"15, rue Amssoune , hay Ibn Baja TAZA","phone":"05 35 67 33 63","location":"","city":"Taza"},{"name":"Pharmacie de la Gare","address":"hay El Adarissa , Taza bas TAZA","phone":"05 35 67 29 91","location":"https://www.telecontact.ma/plan-acces/pharmacie-de-la-gare-/3064887/taza","city":"Taza"},{"name":"Pharmacie de la victoire","address":"place Zerktouni  TAZA","phone":"05 35 67 34 59","location":"https://www.telecontact.ma/plan-acces/pharmacie-de-la-victoire-/3065269/taza","city":"Taza"},{"name":"Pharmacie Douar Ayad","address":"hay Ennahda , bloc B n°17 TAZA","phone":"05 35 67 45 95","location":"","city":"Taza"},{"name":"Pharmacie El Fath","address":"3, av. 11 Janvier hay Tennis , 35000  TAZA","phone":"05 35 67 23 64","location":"","city":"Taza"},{"name":"Pharmacie El Koucha","address":"hay El Koucha , Takaddoum I, bloc 4 n°1 TAZA","phone":"05 35 27 01 78","location":"","city":"Taza"},{"name":"Pharmacie ElAlaouiyine","address":"hay ElAlaouiyine , n°45 TAZA","phone":"05 35 28 29 73","location":"","city":"Taza"},{"name":"Pharmacie ElAmal","address":"quartier Aviation , bloc 3 n°75, 35000  TAZA","phone":"05 35 67 48 04","location":"","city":"Taza"},{"name":"Pharmacie Errazi","address":"163, bd Tarik Ben Ziad , Massira TAZA","phone":"05 35 21 13 30","location":"","city":"Taza"},{"name":"Pharmacie Essaâda","address":"hay Essaâda , n°7-8-9, 35000  TAZA","phone":"05 35 28 39 72","location":"","city":"Taza"},{"name":"Pharmacie Friouato","address":"hay ElMassoudia , villa n°3 mosquée Badr TAZA","phone":"05 35 28 57 66","location":"","city":"Taza"},{"name":"Pharmacie Had Msillah","address":"av Marche Verte , Had Msillah TAZA","phone":"05 35 28 35 35","location":"","city":"Taza"},{"name":"Pharmacie Hay ElHassani-Hajra","address":"hay ElHassani Jiyarine , bloc E n°232, 35000  TAZA","phone":"05 35 28 22 22","location":"","city":"Taza"},{"name":"Pharmacie Hind","address":"14, av. Mly Abdellah , Bit Ghoulam TAZA","phone":"05 35 28 51 33","location":"","city":"Taza"},{"name":"Pharmacie Ibn Haitem","address":"171, bd. Hassan II, Bin Jradi  TAZA","phone":"05 35 67 20 65","location":"","city":"Taza"},{"name":"Pharmacie Ibn Rochd","address":"85, rue Sultan Abou Elhassan , 35000  TAZA","phone":"05 35 67 21 33","location":"","city":"Taza"},{"name":"Pharmacie Ibn Sina","address":"quartier Al Qods 1 , bloc 5 n°66 TAZA","phone":"05 35 21 22 32","location":"","city":"Taza"},{"name":"Pharmacie Ibn Zohr","address":"lotiss. AlQods III , bloc 2 n°18, 35000  TAZA","phone":"05 35 21 01 16","location":"","city":"Taza"},{"name":"Pharmacie Ibnou Baja","address":"25, Av. Hassan II , imm. Couscous TAZA","phone":"05 35 67 30 75","location":"","city":"Taza"},{"name":"Pharmacie Ibnou Yassamine","address":"hay Mly Youssef , lotiss. Lamrani TAZA","phone":"05 35 28 51 10","location":"","city":"Taza"},{"name":"Pharmacie Victoria","address":"Cité Ourida C n°87  TAZA","phone":"05 35 28 11 46","location":"https://www.telecontact.ma/plan-acces/pharmacie-victoria-/3108614/taza","city":"Taza"},{"name":"La Grande  Pharmacie","address":"ElMassira II , bloc 9 n°66, 35000  TAZA","phone":"05 35 21 15 40","location":"https://www.telecontact.ma/plan-acces/la-grande-pharmacie-/3127942/taza","city":"Taza"},{"name":"Pharmacie Achchaq","address":"60, av Bir Anzarane , rte de Fés TAZA","phone":"05 35 28 05 96","location":"https://www.telecontact.ma/plan-acces/pharmacie-achchaq-/3066470/taza","city":"Taza"},{"name":"Pharmacie Aharrach","address":"Place Mly ElHassan, Taza haut , 35000  TAZA","phone":"05 35 27 00 08","location":"https://www.telecontact.ma/plan-acces/pharmacie-aharrach-/1617300/taza","city":"Taza"},{"name":"Pharmacie Al Baladia","address":"24, lotiss. Annahda II , Oued Amlil TAZA","phone":"05 35 27 56 59","location":"","city":"Taza"},{"name":"Pharmacie Al Gaada","address":"rue Sebta  TAZA","phone":"05 35 28 48 48","location":"","city":"Taza"},{"name":"Pharmacie Al Massbah","address":"24, Hay Jiarine B  TAZA","phone":"05 35 28 33 84","location":"","city":"Taza"},{"name":"Pharmacie Al Wahda","address":"av. Mohammed VI ang. rue de Marrakech TAZA","phone":"05 35 67 17 23","location":"","city":"Taza"},{"name":"Pharmacie AlBahra","address":"2, hay Essalam , rte. de Fès TAZA","phone":"05 35 67 31 37","location":"","city":"Taza"},{"name":"Pharmacie Almasjid","address":"105, av. Bir Anzarane , rte de Fès TAZA","phone":"05 35 28 43 94","location":"","city":"Taza"},{"name":"Pharmacie AlMassira","address":"cité AlMassira 1 , bloc 3 n°93, 35000  TAZA","phone":"05 35 21 10 53","location":"","city":"Taza"},{"name":"Pharmacie AlMourabitine","address":"50, rue Bin Kifane  TAZA","phone":"05 35 67 40 61","location":"","city":"Taza"},{"name":"Pharmacie AlQods I","address":"hay ElQods I, bloc 2 n°29 , 35000  TAZA","phone":"05 35 21 12 86","location":"","city":"Taza"},{"name":"Pharmacie An-Nahda","address":"Cité An-Nahda, bloc \"A\" n°5  TAZA","phone":"05 35 67 32 56","location":"","city":"Taza"},{"name":"Pharmacie Anouar La Sophal","address":"26, hay Anouar , 35000  TAZA","phone":"05 35 28 51 90","location":"","city":"Taza"},{"name":"Pharmacie Aqartit","address":"route d'Aknoul , lot. Chifa n°77, 35000  TAZA","phone":"05 35 21 15 89","location":"","city":"Taza"},{"name":"Pharmacie Attaoufik","address":"hay Al Qods , bloc n°6 n°67 TAZA","phone":"05 35 67 48 28","location":"","city":"Taza"},{"name":"Pharmacie Bab Rih","address":"50, rue Riad Aznak , 35000  TAZA","phone":"05 35 27 01 88","location":"","city":"Taza"},{"name":"Pharmacie Bab Zitouna","address":"bd. My Ismaïl , 35000  TAZA","phone":"05 35 27 02 68","location":"","city":"Taza"},{"name":"Pharmacie Bani Marine","address":"El Qods II , N1 bloc II Taza El Jadida TAZA","phone":"05 35 21 29 49","location":"","city":"Taza"}]