[{"name":"Pharmacie Skikina","address":"av. Hassan II , résid. Skikina n°2, 12050  TEMARA","phone":"05 37 74 16 37","location":"https://www.telecontact.ma/plan-acces/pharmacie-skikina-/2172327/temara","city":"Temara"},{"name":"Pharmacie Socrate","address":"1, lot. Ittissalat AlMaghreb  TEMARA","phone":"05 37 74 05 59","location":"https://www.telecontact.ma/plan-acces/pharmacie-socrate-/3200590/temara","city":"Temara"},{"name":"Pharmacie Sonia","address":"route Sidi Yahya Zaers , Km 3, 12010  TEMARA","phone":"05 37 74 17 71","location":"https://www.telecontact.ma/plan-acces/pharmacie-sonia-/3200588/temara","city":"Temara"},{"name":"Pharmacie Soumaya","address":"lot. Ennassim 4 , Ennahda 2, 12020  TEMARA","phone":"05 37 60 80 08","location":"https://www.telecontact.ma/plan-acces/pharmacie-soumaya-/3200589/temara","city":"Temara"},{"name":"Pharmacie Tamesna","address":"9, lotiss. Hiba I, n°5 TEMARA","phone":"05 37 61 99 01","location":"https://www.telecontact.ma/plan-acces/pharmacie-tamesna-/3343878/temara","city":"Temara"},{"name":"Pharmacie Tarik Ibn Ziad","address":"av. Tarik ibn Ziad , Satr Allah (I) TEMARA","phone":"05 37 64 20 40","location":"https://www.telecontact.ma/plan-acces/pharmacie-tarik-ibn-ziad-/3225634/temara","city":"Temara"},{"name":"Pharmacie Témara","address":"av. Mly Rchid , 12000  TEMARA","phone":"05 37 74 13 34","location":"","city":"Temara"},{"name":"Pharmacie Vieux Marocains","address":"7, av. Mohammed VI , hay Alandalous, 12040  TEMARA","phone":"05 37 64 12 18","location":"https://www.telecontact.ma/plan-acces/pharmacie-vieux-marocains-/3200592/temara","city":"Temara"},{"name":"Pharmacie Zahrat Al Amal","address":"20, lotiss. Zahrat Al Amal , magasin n°2 TEMARA","phone":"05 37 64 24 23","location":"https://www.telecontact.ma/plan-acces/pharmacie-zahrat-al-amal-/3297040/temara","city":"Temara"},{"name":"Pharmacie Zamzam","address":"15, hay AlWifak , 12040  TEMARA","phone":"05 37 64 27 44","location":"https://www.telecontact.ma/plan-acces/pharmacie-zamzam-/3200593/temara","city":"Temara"},{"name":"La Grande  Pharmacie de Témara","address":"rue Tarik Bnou Ziad  TEMARA","phone":"06 61 23 54 69","location":"","city":"Temara"},{"name":"Pharmacie 11 Janvier","address":"9, lotiss. El Ghazali , 12010  TEMARA","phone":"05 37 64 09 19","location":"https://www.telecontact.ma/plan-acces/pharmacie-11-janvier-/3061911/temara","city":"Temara"},{"name":"Pharmacie 2000","address":"245, av. Mly Ali Cherif, Massira I , 12020  TEMARA","phone":"05 37 60 23 12","location":"https://www.telecontact.ma/plan-acces/pharmacie-2000-/2157284/temara","city":"Temara"},{"name":"Pharmacie Abi Horaira","address":"15, av. du Caire , lotiss. Abi Horaira Fath ElKheir, 12010  TEMARA","phone":"05 37 64 14 58","location":"https://www.telecontact.ma/plan-acces/pharmacie-abi-horaira-/2190399/temara","city":"Temara"},{"name":"Pharmacie Abouab Alwifak","address":"lot. Alwifak , sect. 3212 Erac, 12040  TEMARA","phone":"05 37 64 30 80","location":"https://www.telecontact.ma/plan-acces/pharmacie-abouab-alwifak-/3200781/temara","city":"Temara"},{"name":"Pharmacie Acima Harhoura","address":"bd Moulay Abdallah, résid. Saad II mag.12 TEMARA","phone":"05 37 64 68 98","location":"","city":"Temara"},{"name":"Pharmacie Al Balsem","address":"lotiss. Ibn Khaldoun I ang. rue Oued Souss-Oued Amlil, Harhoura, 12050  TEMARA","phone":"05 37 74 47 87","location":"","city":"Temara"},{"name":"Pharmacie Al Bouchra","address":"lotiss. Annasr, lot n°86 TEMARA","phone":"05 37 74 08 43","location":"","city":"Temara"},{"name":"Pharmacie Al Fajr","address":"622, av. Moulay Ali Cherif , Massira I, 12020  TEMARA","phone":"05 37 60 15 92","location":"","city":"Temara"},{"name":"Pharmacie Al Hiba","address":"Massira I , Sect. 5, Lotiss. 24 HA, lot.26, 12020  TEMARA","phone":"05 37 60 99 70","location":"","city":"Temara"},{"name":"Pharmacie Fidaa","address":"lot. Riad II , imm. 13 mag. n°23 Wifaq, 12040  TEMARA","phone":"05 37 61 01 63","location":"https://www.telecontact.ma/plan-acces/pharmacie-fidaa-/3200549/temara","city":"Temara"},{"name":"Pharmacie Fouarat","address":"104, av. Fouarat , Lotiss. Namssia, imm. A, 12010  TEMARA","phone":"05 37 61 16 01","location":"https://www.telecontact.ma/plan-acces/pharmacie-fouarat-/3081511/temara","city":"Temara"},{"name":"Pharmacie Ghita","address":"av. Tarik Ibn Ziad , projet Alkora parcelle I n° C 28, 12010  TEMARA","phone":"05 37 61 65 68","location":"https://www.telecontact.ma/plan-acces/pharmacie-ghita-/3200552/temara","city":"Temara"},{"name":"Pharmacie Ghouroub","address":"Résidence Rif 2 , imm. 2 C TEMARA","phone":"05 37 61 37 36","location":"https://www.telecontact.ma/plan-acces/pharmacie-ghouroub-/3297025/temara","city":"Temara"},{"name":"Pharmacie Granada","address":"Oulad Mtaa , sect. 3, lot. n°109 TEMARA","phone":"05 37 60 13 53","location":"https://www.telecontact.ma/plan-acces/pharmacie-granada-/3266910/temara","city":"Temara"},{"name":"Pharmacie Haj Kamal","address":"203, lotiss. Khalouta , Secteur D'har II, Wifaq TEMARA","phone":"05 37 64 32 24","location":"https://www.telecontact.ma/plan-acces/pharmacie-haj-kamal-/3291214/temara","city":"Temara"},{"name":"Pharmacie Hatim","address":"92, Lotiss tour hassan  TEMARA","phone":"05 37 74 02 20","location":"https://www.telecontact.ma/plan-acces/pharmacie-hatim-/3315170/temara","city":"Temara"},{"name":"Pharmacie hay AlAzrak","address":"39, Reghay II , Temara centre, 12000  TEMARA","phone":"05 37 61 03 85","location":"https://www.telecontact.ma/plan-acces/pharmacie-hay-alazrak-/3019526/temara","city":"Temara"},{"name":"Pharmacie Hind","address":"241, rue Othman Ibn Madhoun  TEMARA","phone":"05 37 62 22 91","location":"https://www.telecontact.ma/plan-acces/pharmacie-hind-/3297048/temara","city":"Temara"},{"name":"Pharmacie Houdaya","address":"54, lotiss. Hartiai , 12010  TEMARA","phone":"05 37 64 35 36","location":"https://www.telecontact.ma/plan-acces/pharmacie-houdaya-/3106245/temara","city":"Temara"},{"name":"Pharmacie Ibn Khaldoun","address":"109, hay ElFirdaous , 12020  TEMARA","phone":"05 37 60 51 43","location":"https://www.telecontact.ma/plan-acces/pharmacie-ibn-khaldoun-/3200553/temara","city":"Temara"},{"name":"Pharmacie Ibn Nafiss","address":"268, av. Mly Ali Cherif , Douar Oulad Naser, 12020  TEMARA","phone":"05 37 60 94 39","location":"https://www.telecontact.ma/plan-acces/pharmacie-ibn-nafiss-/3040284/temara","city":"Temara"},{"name":"Pharmacie Ibn Sina","address":"1, bd. Mohammed V , 12010  TEMARA","phone":"05 37 74 06 91","location":"https://www.telecontact.ma/plan-acces/pharmacie-ibn-sina-/2126886/temara","city":"Temara"},{"name":"Pharmacie Ibnou Ziad","address":"av Tarik Ibnou Ziad , lot. Skikima n°5, 12010  TEMARA","phone":"05 37 61 10 89","location":"https://www.telecontact.ma/plan-acces/pharmacie-ibnou-ziad-/3081092/temara","city":"Temara"},{"name":"Pharmacie Ilias","address":"7, lotiss. Chkail M'barek , 12010  TEMARA","phone":"05 37 61 12 60","location":"https://www.telecontact.ma/plan-acces/pharmacie-ilias-/3040182/temara","city":"Temara"},{"name":"Pharmacie Internationale","address":"31, lotiss. Wifaq II  TEMARA","phone":"05 37 64 59 72","location":"https://www.telecontact.ma/plan-acces/pharmacie-internationale-/3291205/temara","city":"Temara"},{"name":"Pharmacie Islah","address":"25, ElHachmiya , Rte. Principal km. 13, 12050  TEMARA","phone":"05 37 64 30 36","location":"https://www.telecontact.ma/plan-acces/pharmacie-islah-/3200554/temara","city":"Temara"},{"name":"Pharmacie Jardins des Oudayas","address":"lotiss. Ouled Mtaâ , sect. 2, n°141, 12000  TEMARA","phone":"05 37 61 45 50","location":"https://www.telecontact.ma/plan-acces/pharmacie-jardins-des-oudayas-/3192396/temara","city":"Temara"},{"name":"Pharmacie Jorio","address":"lot. ElWifak , Erac II imm. B n°1319, mag. n°2, 12040  TEMARA","phone":"05 37 61 65 89","location":"https://www.telecontact.ma/plan-acces/pharmacie-jorio-/3200555/temara","city":"Temara"},{"name":"Pharmacie Kawtar Kheir","address":"Lot. ElKheir , Sect. n°3 n°257 TEMARA","phone":"05 37 62 82 34","location":"https://www.telecontact.ma/plan-acces/pharmacie-kawtar-kheir-/3200558/temara","city":"Temara"},{"name":"Pharmacie Bahia","address":"170, av. My Driss 1er, hay Massira I , 12020  TEMARA","phone":"05 37 60 52 10","location":"https://www.telecontact.ma/plan-acces/pharmacie-bahia-/1790800/temara","city":"Temara"},{"name":"Pharmacie Bakali","address":"av Allal Ben Abdellah , n°8 hay Nahda II, 12020  TEMARA","phone":"05 37 60 91 17","location":"https://www.telecontact.ma/plan-acces/pharmacie-bakali-/3019458/temara","city":"Temara"},{"name":"Pharmacie Bencheikh","address":"116, sect. 5, lot. 50 Ha , Massira 2, 12030  TEMARA","phone":"05 37 60 69 99","location":"https://www.telecontact.ma/plan-acces/pharmacie-bencheikh-/2224992/temara","city":"Temara"},{"name":"Pharmacie Beni Hachem","address":"172, rue Jibal Oulim , hay Al Atlas Massira 1 TEMARA","phone":"05 37 60 72 80","location":"https://www.telecontact.ma/plan-acces/pharmacie-beni-hachem-/2210336/temara","city":"Temara"},{"name":"Pharmacie Bensaid","address":"Fouarat , résid Rif III mag.8 TEMARA","phone":"05 37 64 18 70","location":"https://www.telecontact.ma/plan-acces/pharmacie-bensaid-/3311999/temara","city":"Temara"},{"name":"Pharmacie Bismi Allah","address":"27, lotiss. Al Wahda , hay Fath El Kheir, av. Abdelkrim Elkhattabi, 12010  TEMARA","phone":"05 37 64 18 88","location":"https://www.telecontact.ma/plan-acces/pharmacie-bismi-allah-/2224998/temara","city":"Temara"},{"name":"Pharmacie Bouarouss","address":"187, rue laayoune , Elmassira I, 12020  TEMARA","phone":"05 37 60 20 82","location":"https://www.telecontact.ma/plan-acces/pharmacie-bouarouss-/3019469/temara","city":"Temara"},{"name":"Pharmacie Camelia","address":"rue Lybie , lotiss. Alaoui, n° 76, 12000  TEMARA","phone":"05 37 64 07 69","location":"https://www.telecontact.ma/plan-acces/pharmacie-camelia-/3103197/temara","city":"Temara"},{"name":"Pharmacie Centrale Annasr","address":"80, hay Annasr  TEMARA","phone":"05 37 62 27 10","location":"https://www.telecontact.ma/plan-acces/pharmacie-centrale-annasr-/3291212/temara","city":"Temara"},{"name":"Pharmacie Chatea","address":"39, lot Beethoven , résid. Chatea, Harhoura, 12050  TEMARA","phone":"05 37 74 49 75","location":"https://www.telecontact.ma/plan-acces/pharmacie-chatea-/3019455/temara","city":"Temara"},{"name":"Pharmacie Cherkawa","address":"av Allal Ben Abdellah , rue 4 n° 133 hay Andalous, 12040  TEMARA","phone":"05 37 74 09 73","location":"https://www.telecontact.ma/plan-acces/pharmacie-cherkawa-/3142981/temara","city":"Temara"},{"name":"Pharmacie Dakar","address":"68, hay Annasr, Al Mostaqbal TEMARA","phone":"05 37 64 38 55","location":"https://www.telecontact.ma/plan-acces/pharmacie-dakar-/3315515/temara","city":"Temara"},{"name":"Pharmacie de la famille","address":"16, av. Tarik Ibn Ziyad , Massira II, 12030  TEMARA","phone":"05 37 60 06 90","location":"https://www.telecontact.ma/plan-acces/pharmacie-de-la-famille-/2161182/temara","city":"Temara"},{"name":"Pharmacie de La Victoire","address":"av. Ibn Khaldoun , imm. A 46, Massira II, 12030  TEMARA","phone":"05 37 60 25 26","location":"https://www.telecontact.ma/plan-acces/pharmacie-de-la-victoire-/3103322/temara","city":"Temara"},{"name":"Pharmacie de Palma","address":"1, av. Moulay Abdellah , résid. Chems, 12040  TEMARA","phone":"05 37 74 70 06","location":"https://www.telecontact.ma/plan-acces/pharmacie-de-palma-/3192867/temara","city":"Temara"},{"name":"Pharmacie des Jardins","address":"route des Zaer , km.20 TEMARA","phone":"05 37 01 10 40","location":"https://www.telecontact.ma/plan-acces/pharmacie-des-jardins-/3253378/temara","city":"Temara"},{"name":"Pharmacie du Centre","address":"av. Hassan II - Temara centre , 12000  TEMARA","phone":"05 37 74 12 11","location":"https://www.telecontact.ma/plan-acces/pharmacie-du-centre-/0321400/temara","city":"Temara"},{"name":"Pharmacie du Conseil","address":"33, rue de Rabat , lot Masrour, 12000  TEMARA","phone":"05 37 74 11 63","location":"https://www.telecontact.ma/plan-acces/pharmacie-du-conseil-/1624200/temara","city":"Temara"},{"name":"Pharmacie du Jasmin","address":"3290, rue Melilia , hay ElMaghreb AlArabi, Massira II, 12030  TEMARA","phone":"05 37 60 55 55","location":"https://www.telecontact.ma/plan-acces/pharmacie-du-jasmin-/2194631/temara","city":"Temara"},{"name":"Pharmacie du marché","address":"1, bd. Mohammed V , Hay Nahda, 12010  TEMARA","phone":"05 37 60 62 21","location":"","city":"Temara"},{"name":"Pharmacie AlGhait","address":"Hay Maghreb ElArabi , 72, sect. 4, 12030  TEMARA","phone":"05 37 60 70 32","location":"https://www.telecontact.ma/plan-acces/pharmacie-alghait-/2210339/temara","city":"Temara"},{"name":"Pharmacie Ali","address":"hay Massira III, Ouled Bennacer n°199 TEMARA","phone":"05 37 60 00 32","location":"https://www.telecontact.ma/plan-acces/pharmacie-ali-/3291202/temara","city":"Temara"},{"name":"Pharmacie AlIhssan","address":"1992, rue Al Imam Al Chattebi , hay ElMassira I, 12020  TEMARA","phone":"05 37 60 85 99","location":"https://www.telecontact.ma/plan-acces/pharmacie-alihssan-/3025866/temara","city":"Temara"},{"name":"Pharmacie AlKasba","address":"Skikina , lot. Alkasba n°69, 12010  TEMARA","phone":"05 37 64 40 46","location":"https://www.telecontact.ma/plan-acces/pharmacie-alkasba-/3200521/temara","city":"Temara"},{"name":"Pharmacie AlKawthar","address":"lotiss. 50 hectare , 314, sect. 2, Massira II, 12030  TEMARA","phone":"05 37 60 53 45","location":"https://www.telecontact.ma/plan-acces/pharmacie-alkawthar-/3040633/temara","city":"Temara"},{"name":"Pharmacie AlMaarifa  Adrar","address":"240, bd. Mohammed V , hay Masrour, 12000  TEMARA","phone":"05 37 64 12 37","location":"https://www.telecontact.ma/plan-acces/pharmacie-almaarifa-adrar-/1790700/temara","city":"Temara"},{"name":"Pharmacie AlMaghreb AlArabi","address":"1684, av. AlAdarissa , hay AlMaghreb AlArabi, Massira II, 12030  TEMARA","phone":"05 37 60 07 65","location":"https://www.telecontact.ma/plan-acces/pharmacie-almaghreb-alarabi-/2160751/temara","city":"Temara"},{"name":"Pharmacie AlMoubaraka","address":"hay ElWifak , résid. Azzahra n°3, 12040  TEMARA","phone":"05 37 64 02 18","location":"https://www.telecontact.ma/plan-acces/pharmacie-almoubaraka-/3200523/temara","city":"Temara"},{"name":"Pharmacie AlMouhafada","address":"1105, Massira I , 12020  TEMARA","phone":"05 37 60 45 90","location":"https://www.telecontact.ma/plan-acces/pharmacie-almouhafada-/2224970/temara","city":"Temara"},{"name":"Pharmacie AlWifak","address":"13, lot. Salahddine , 12040  TEMARA","phone":"05 37 74 74 62","location":"https://www.telecontact.ma/plan-acces/pharmacie-alwifak-/3200524/temara","city":"Temara"},{"name":"Pharmacie AlWoroud","address":"lot. Erac , sect 3 n°3482 hay Wifaq TEMARA","phone":"05 37 64 51 85","location":"https://www.telecontact.ma/plan-acces/pharmacie-alworoud-/3200526/temara","city":"Temara"},{"name":"Pharmacie AlYousr","address":"lotiss. 24 H , sect. 5, lot n°100 Massira I, 12020  TEMARA","phone":"05 37 60 00 06","location":"https://www.telecontact.ma/plan-acces/pharmacie-alyousr-/2224966/temara","city":"Temara"},{"name":"Pharmacie Amina","address":"45, Mansour II , 12050  TEMARA","phone":"05 37 61 09 39","location":"https://www.telecontact.ma/plan-acces/pharmacie-amina-/2225001/temara","city":"Temara"},{"name":"Pharmacie Andaloussi","address":"62, bd Mohammed V , 12010  TEMARA","phone":"05 37 64 27 12","location":"https://www.telecontact.ma/plan-acces/pharmacie-andaloussi-/2172854/temara","city":"Temara"},{"name":"Pharmacie Annaou Rasse","address":"226, lot AlHachmia II , 12010  TEMARA","phone":"05 37 64 29 75","location":"https://www.telecontact.ma/plan-acces/pharmacie-annaou-rasse-/3200529/temara","city":"Temara"},{"name":"Pharmacie Annassiha","address":"Ouled Mtaa , lot B Riad n° 603, secteur 1 TEMARA","phone":"05 37 56 08 66","location":"https://www.telecontact.ma/plan-acces/pharmacie-annassiha-/3181990/temara","city":"Temara"},{"name":"Pharmacie Anniema","address":"15, rue Tarik Bnou Ziad, résid. Imane bloc D imm.E TEMARA","phone":"05 37 61 36 93","location":"https://www.telecontact.ma/plan-acces/pharmacie-anniema-/3333213/temara","city":"Temara"},{"name":"Pharmacie Aredouane","address":"13, rue Dat Riquaà , essalam II hay Al Inbiât TEMARA","phone":"05 37 64 47 59","location":"https://www.telecontact.ma/plan-acces/pharmacie-aredouane-/3222651/temara","city":"Temara"},{"name":"Pharmacie Assalam","address":"417, Massira II , sect. 1, 12030  TEMARA","phone":"05 37 60 67 40","location":"https://www.telecontact.ma/plan-acces/pharmacie-assalam-/3081542/temara","city":"Temara"},{"name":"Pharmacie Aswak Assalam","address":"448, av Hassan II , mag. n°18, 12050  TEMARA","phone":"05 37 74 73 55","location":"https://www.telecontact.ma/plan-acces/pharmacie-aswak-assalam-/3200530/temara","city":"Temara"},{"name":"Pharmacie Le Rivage","address":"avenue moulay Abdellah , bloc 37 n°272 TEMARA","phone":"05 37 62 66 45","location":"https://www.telecontact.ma/plan-acces/pharmacie-le-rivage-/3258343/temara","city":"Temara"},{"name":"Pharmacie Leïla","address":"168, hay Firdaous , Massira I TEMARA","phone":"05 37 60 86 06","location":"","city":"Temara"},{"name":"Pharmacie Les Roches Blanches","address":"av. Mly Abdellah , Harhoura plage, 12050  TEMARA","phone":"05 37 74 47 07","location":"https://www.telecontact.ma/plan-acces/pharmacie-les-roches-blanches-/3103311/temara","city":"Temara"},{"name":"Pharmacie les Urgences","address":"Av. Tarik Ibn Ziad , lot. melouia II, 12010  TEMARA","phone":"05 37 74 02 72","location":"https://www.telecontact.ma/plan-acces/pharmacie-les-urgences-/3143032/temara","city":"Temara"},{"name":"Pharmacie MachaAllah","address":"5, av. My Ali Cherif , lotiss. 24 H.a., hay Massira 1, 12020  TEMARA","phone":"05 37 60 75 06","location":"https://www.telecontact.ma/plan-acces/pharmacie-machaallah-/2210348/temara","city":"Temara"},{"name":"Pharmacie Machroue Ennasr","address":"lotiss. Ennasr , Gh 133, 134 TEMARA","phone":"05 37 64 39 90","location":"https://www.telecontact.ma/plan-acces/pharmacie-machroue-ennasr-/3292206/temara","city":"Temara"},{"name":"Pharmacie Malak","address":"bd Al Khansae , Carrefour Market, Al Wifaq TEMARA","phone":"05 37 61 74 89","location":"https://www.telecontact.ma/plan-acces/pharmacie-malak-/3291210/temara","city":"Temara"},{"name":"Pharmacie Marimane","address":"5439, lot. ElWifak  TEMARA","phone":"05 37 64 55 35","location":"https://www.telecontact.ma/plan-acces/pharmacie-marimane-/3200577/temara","city":"Temara"},{"name":"Pharmacie Masrour","address":"224, Hay Masrour II , 12010  TEMARA","phone":"05 37 74 19 90","location":"https://www.telecontact.ma/plan-acces/pharmacie-masrour-/3103317/temara","city":"Temara"},{"name":"Pharmacie Mers ElKheir","address":"rte. de Sidi Yahya , km.6 TEMARA","phone":"05 37 64 09 70","location":"https://www.telecontact.ma/plan-acces/pharmacie-mers-elkheir-/3200579/temara","city":"Temara"},{"name":"Pharmacie Miramar","address":"257 Bis, av. prince Mly Abdellah , 12040  TEMARA","phone":"05 37 74 72 23","location":"https://www.telecontact.ma/plan-acces/pharmacie-miramar-/3040177/temara","city":"Temara"},{"name":"Pharmacie Mly Ali Chrif","address":"468, av Moulay Ali Cherif , Massira I, 12020  TEMARA","phone":"05 37 60 05 25","location":"https://www.telecontact.ma/plan-acces/pharmacie-mly-ali-chrif-/3062688/temara","city":"Temara"},{"name":"Pharmacie Mornau","address":"lotiss. Sidi Larbi , n° 236 Ain Aouda TEMARA","phone":"06 61 15 58 09","location":"https://www.telecontact.ma/plan-acces/pharmacie-mornau-/3314980/temara","city":"Temara"},{"name":"Pharmacie Mosquée Zahra","address":"21, av. Hassan I , 12010  TEMARA","phone":"05 37 64 47 75","location":"","city":"Temara"},{"name":"Pharmacie Moulat","address":"88, bd Hassan 1 quartier Abbadi Breka , 12010  TEMARA","phone":"05 37 64 33 94","location":"https://www.telecontact.ma/plan-acces/pharmacie-moulat-/2187202/temara","city":"Temara"},{"name":"Pharmacie Moulay Idriss","address":"lot 103 sect.1 , Massira I, 12020  TEMARA","phone":"05 37 60 22 70","location":"https://www.telecontact.ma/plan-acces/pharmacie-moulay-idriss-/2181622/temara","city":"Temara"},{"name":"Pharmacie Moulay Slimane","address":"806, hay Nahda 2 , 12020  TEMARA","phone":"05 37 60 39 13","location":"https://www.telecontact.ma/plan-acces/pharmacie-moulay-slimane-/2194765/temara","city":"Temara"},{"name":"Pharmacie Mouram","address":"bd Tarik Bnou Ziad, résid. Jennane Témara, ilot 2, imm. 6, mag. 48 TEMARA","phone":"05 37 40 86 18","location":"https://www.telecontact.ma/plan-acces/pharmacie-mouram-/3319123/temara","city":"Temara"},{"name":"Pharmacie Naimi","address":"844, av Al Adarissa , hay El Maghrib Arabi, Massira II, 12030  TEMARA","phone":"05 37 60 53 60","location":"https://www.telecontact.ma/plan-acces/pharmacie-naimi-/2195481/temara","city":"Temara"},{"name":"Pharmacie Nassim Albahr","address":"Roches Blanches 2 , lot 2 n°47 TEMARA","phone":"05 37 77 46 99","location":"https://www.telecontact.ma/plan-acces/pharmacie-nassim-albahr-/3200581/temara","city":"Temara"},{"name":"Pharmacie Sidi Yahya des Zaers","address":"498, lot. Khalid , Sidi Yahya des Zaers TEMARA","phone":"05 37 61 90 58","location":"https://www.telecontact.ma/plan-acces/pharmacie-sidi-yahya-des-zaers-/3200586/temara","city":"Temara"},{"name":"Pharmacie Sijilmassa","address":"296, lotiss. Khiam 3  TEMARA","phone":"05 37 64 10 04","location":"https://www.telecontact.ma/plan-acces/pharmacie-sijilmassa-/3200587/temara","city":"Temara"},{"name":"Pharmacie Essalama","address":"2, bd. Mohammed V , hay Lazrak, 12000  TEMARA","phone":"05 37 74 76 62","location":"https://www.telecontact.ma/plan-acces/pharmacie-essalama-/2161314/temara","city":"Temara"},{"name":"Pharmacie Fadl Allah","address":"7, lotiss. Fadli III , 12010  TEMARA","phone":"05 37 61 12 52","location":"https://www.telecontact.ma/plan-acces/pharmacie-fadl-allah-/3105791/temara","city":"Temara"},{"name":"Pharmacie Fath El Kheir","address":"av. Abdelkrim Khattabi ang. Hassan 1er, résid. Ennacer, mag 13, 12010  TEMARA","phone":"05 37 64 12 67","location":"https://www.telecontact.ma/plan-acces/pharmacie-fath-el-kheir-/2225008/temara","city":"Temara"},{"name":"Pharmacie Fathallah","address":"54, bd Al Abtal , imm. Ster Allah II, 12010  TEMARA","phone":"05 37 74 04 94","location":"https://www.telecontact.ma/plan-acces/pharmacie-fathallah-/3200547/temara","city":"Temara"},{"name":"Pharmacie Fatine","address":"863, Av. Moulay Ali Chrif , hay Almaghreb Arabie, Massira II, 12090  TEMARA","phone":"05 37 60 27 05","location":"https://www.telecontact.ma/plan-acces/pharmacie-fatine-/2138427/temara","city":"Temara"},{"name":"Pharmacie Noufa","address":"2041, lot. Wifak 1 , 120540  TEMARA","phone":"05 37 64 04 24","location":"https://www.telecontact.ma/plan-acces/pharmacie-noufa-/3200582/temara","city":"Temara"},{"name":"Pharmacie Nouvelle","address":"197, rue Ben Hanifa , hay Al Inbiat, 12010  TEMARA","phone":"05 37 61 03 01","location":"https://www.telecontact.ma/plan-acces/pharmacie-nouvelle-/2224962/temara","city":"Temara"},{"name":"Pharmacie Oum Aicha","address":"lotiss. Khaizourane , imm. R n°3 TEMARA","phone":"05 37 61 18 84","location":"https://www.telecontact.ma/plan-acces/pharmacie-oum-aicha-/3315162/temara","city":"Temara"},{"name":"Pharmacie Oum Hani","address":"54, lotiss. Oum Hani , q. Wifaq TEMARA","phone":"05 37 64 64 65","location":"https://www.telecontact.ma/plan-acces/pharmacie-oum-hani-/3291208/temara","city":"Temara"},{"name":"Pharmacie Oum Keltoum","address":"122, av. du Caire , lotiss. Comatrav, 12010  TEMARA","phone":"05 37 74 14 85","location":"https://www.telecontact.ma/plan-acces/pharmacie-oum-keltoum-/2172427/temara","city":"Temara"},{"name":"Pharmacie Prestige","address":"hay Wifaq , Nemsia 2 lot.1 TEMARA","phone":"05 37 74 72 37","location":"https://www.telecontact.ma/plan-acces/pharmacie-prestige-/3200583/temara","city":"Temara"},{"name":"Pharmacie Riad Fès","address":"10, bd Tarik Bnou Ziad, résid. Riad Fès imm.12 TEMARA","phone":"05 37 60 60 38","location":"","city":"Temara"},{"name":"Pharmacie Rochdi","address":"hay Massira II, hay Maamoura n°5 TEMARA","phone":"05 37 40 20 33","location":"https://www.telecontact.ma/plan-acces/pharmacie-rochdi-/3312005/temara","city":"Temara"},{"name":"Pharmacie Roudani","address":"34, Lot Attanmia , 12010  TEMARA","phone":"05 37 61 04 69","location":"https://www.telecontact.ma/plan-acces/pharmacie-roudani-/3105689/temara","city":"Temara"},{"name":"Pharmacie Ryad ElWifak","address":"lot. ElWifak , mag. n°4 n°1374, 12040  TEMARA","phone":"05 37 61 13 66","location":"https://www.telecontact.ma/plan-acces/pharmacie-ryad-elwifak-/3200584/temara","city":"Temara"},{"name":"Pharmacie Sami","address":"lotiss. Annakhil, n°22, Wifak TEMARA","phone":"05 37 62 71 84","location":"https://www.telecontact.ma/plan-acces/pharmacie-sami-/3333052/temara","city":"Temara"},{"name":"Pharmacie Santé ElWifak","address":"1197, lot. ElWifak 1 , 12040  TEMARA","phone":"05 37 64 55 54","location":"","city":"Temara"},{"name":"Pharmacie Sidi Lahssen","address":"7, av Hassan II , Ain Atiq, km 17, 12050  TEMARA","phone":"05 37 61 09 11","location":"https://www.telecontact.ma/plan-acces/pharmacie-sidi-lahssen-/3103296/temara","city":"Temara"}]