[{"name":"Pharmacie Tawzzayte","address":"complexe commerciale cité Minière , n°5 TINGHIR","phone":"05 24 83 32 94","location":"","city":"Tinghir"},{"name":"Pharmacie Tinghir","address":"Plce de la fontaine , Tinghir Centre TINGHIR","phone":"05 24 83 43 83","location":"","city":"Tinghir"},{"name":"Pharmacie Todgha","address":"1, bd Mohammed V , 45800  TINGHIR","phone":"05 24 83 41 66","location":"","city":"Tinghir"},{"name":"Pharmacie Al Wafaa","address":"4, bd Moulay Abdallah  TINGHIR","phone":"05 24 83 23 31","location":"","city":"Tinghir"},{"name":"Pharmacie Alyosr Tihite","address":"5, bd Annakhil  TINGHIR","phone":"05 24 83 56 05","location":"","city":"Tinghir"},{"name":"Pharmacie Assiha","address":"350, bd Bir Anzarane  TINGHIR","phone":"05 24 83 57 21","location":"","city":"Tinghir"},{"name":"Pharmacie du Maroc Tichka","address":"377, lot. Bougafer , 045000  TINGHIR","phone":"05 24 83 22 91","location":"","city":"Tinghir"},{"name":"Pharmacie du Souk","address":"Place de la Résistance , souk Tehti n°393, 4800  TINGHIR","phone":"05 24 83 38 13","location":"","city":"Tinghir"},{"name":"Pharmacie ElFilaha","address":"hay Aït Barra , El Filaha, 45000  TINGHIR","phone":"05 24 83 23 75","location":"","city":"Tinghir"},{"name":"Pharmacie Grand Atlas","address":"506, bd Mohammed V  TINGHIR","phone":"06 88 42 58 04","location":"","city":"Tinghir"},{"name":"Pharmacie Ighir","address":"351, av. Mohammed V  TINGHIR","phone":"05 24 83 32 32","location":"","city":"Tinghir"},{"name":"Pharmacie les Gorges","address":"22, place prince Héritier , Sidi Mohamed, 45000  TINGHIR","phone":"05 24 83 35 82","location":"","city":"Tinghir"},{"name":"Pharmacie Nafis","address":"850, bd Mohammed V  TINGHIR","phone":"05 24 83 51 81","location":"","city":"Tinghir"},{"name":"Pharmacie Provinciale","address":"1, bd Bir Anzarane  TINGHIR","phone":"05 24 83 41 22","location":"","city":"Tinghir"},{"name":"Pharmacie Saghro","address":"bd Mohammed V  TINGHIR","phone":"05 24 83 41 20","location":"","city":"Tinghir"}]