[{"name":"Pharmacie du souk","address":"6, Rte de Tafraoute , q.i., 85000  TIZNIT","phone":"05 28 86 02 00","location":"https://www.telecontact.ma/plan-acces/pharmacie-du-souk-/3040094/tiznit","city":"Tiznit"},{"name":"Pharmacie du Sud","address":"Amicales des Fonctionnaires , bloc B n° 2 TIZNIT","phone":"05 28 60 14 00","location":"https://www.telecontact.ma/plan-acces/pharmacie-du-sud-/3163106/tiznit","city":"Tiznit"},{"name":"Pharmacie ElMarjane","address":"bd Sidi Abderrahmane , kiss. Marjane TIZNIT","phone":"05 28 60 00 63","location":"https://www.telecontact.ma/plan-acces/pharmacie-elmarjane-/3040194/tiznit","city":"Tiznit"},{"name":"Pharmacie Enakhil","address":"lot. Enakhil , n°6 TIZNIT","phone":"05 28 60 15 07","location":"https://www.telecontact.ma/plan-acces/pharmacie-enakhil-/3200640/tiznit","city":"Tiznit"},{"name":"Pharmacie Erac","address":"hay Erac , bloc I, n°5 TIZNIT","phone":"05 28 60 03 46","location":"https://www.telecontact.ma/plan-acces/pharmacie-erac-/3251791/tiznit","city":"Tiznit"},{"name":"Pharmacie Europe","address":"42, Amicales des Foctionnaires Bloc C TIZNIT","phone":"05 28 86 35 45","location":"https://www.telecontact.ma/plan-acces/pharmacie-europe-/3128851/tiznit","city":"Tiznit"},{"name":"Pharmacie Fouk El Wad","address":"152, bd Sidi Abderrahmane  TIZNIT","phone":"05 28 60 10 61","location":"https://www.telecontact.ma/plan-acces/pharmacie-fouk-el-wad-/3200636/tiznit","city":"Tiznit"},{"name":"Pharmacie Hay Nakhil","address":"45, lotiss. Annakhil , 85000  TIZNIT","phone":"05 28 86 19 49","location":"https://www.telecontact.ma/plan-acces/pharmacie-hay-nakhil-/9009419/tiznit","city":"Tiznit"},{"name":"Pharmacie Ibn Sina","address":"lot. Haabani , rte. de Guelmim n°32/6 TIZNIT","phone":"05 28 86 02 85","location":"https://www.telecontact.ma/plan-acces/pharmacie-ibn-sina-/3200641/tiznit","city":"Tiznit"},{"name":"Pharmacie Ida Ousmlal","address":"centre Jamaat Ida Ousmlal , Tizouran TIZNIT","phone":"05 28 60 08 03","location":"https://www.telecontact.ma/plan-acces/pharmacie-ida-ousmlal-/3200642/tiznit","city":"Tiznit"},{"name":"Pharmacie Idzekri","address":"10, rue Tagout Idzekri , 85000  TIZNIT","phone":"05 28 60 17 17","location":"","city":"Tiznit"},{"name":"Pharmacie Ikram","address":"8, av Hassan II , imm. Ennasr rte. d'Aglou TIZNIT","phone":"05 28 60 21 85","location":"","city":"Tiznit"},{"name":"Pharmacie Ilias","address":"38, hay Id Iaich , route Ifni TIZNIT","phone":"05 28 60 28 13","location":"","city":"Tiznit"},{"name":"Pharmacie la Plaine du Souss","address":"65, Pl. Mechouar , 85000  TIZNIT","phone":"05 28 86 17 41","location":"","city":"Tiznit"},{"name":"Pharmacie La Santé","address":"67, bloc B , hay ElMassira TIZNIT","phone":"05 28 60 25 26","location":"","city":"Tiznit"},{"name":"Pharmacie Lakhssass","address":"216, bd Hassan II , Lakhssass TIZNIT","phone":"05 28 67 03 51","location":"","city":"Tiznit"},{"name":"Pharmacie Mokhtar Soussi","address":"10, rue de l'hôpital Tiznit , 85000  TIZNIT","phone":"05 28 86 35 65","location":"","city":"Tiznit"},{"name":"Pharmacie Narjou Chifa","address":"av. Sidi Abderrahmane, lot Maa Alaynine  TIZNIT","phone":"06 63 57 89 37","location":"","city":"Tiznit"},{"name":"Pharmacie Nassiri","address":"1, bd. Med V, ElYoussoufia, Afrag , 85000  TIZNIT","phone":"05 28 60 07 21","location":"","city":"Tiznit"},{"name":"Pharmacie Nouvelle","address":"70, av. Sidi Abderrahmane , 85000  TIZNIT","phone":"05 28 86 27 42","location":"","city":"Tiznit"},{"name":"La Grande  Pharmacie","address":"38, bd. Mohamed V , ville nouvelle, 85000  TIZNIT","phone":"05 28 86 25 83","location":"https://www.telecontact.ma/plan-acces/la-grande-pharmacie-/2213027/tiznit","city":"Tiznit"},{"name":"La  Pharmacie Centrale de Tiznit","address":"186, Bloc B Amicales Fonctionnaires  TIZNIT","phone":"05 28 86 17 31","location":"https://www.telecontact.ma/plan-acces/la-pharmacie-centrale-de-tiznit-/3095183/tiznit","city":"Tiznit"},{"name":"Pharmacie Abouzaid","address":"av Abdellatif Sbihi , rte. d'Aglou TIZNIT","phone":"05 28 86 45 90","location":"https://www.telecontact.ma/plan-acces/pharmacie-abouzaid-/3200629/tiznit","city":"Tiznit"},{"name":"Pharmacie Afrag","address":"9, rue Mohamed Ben Taifor , Afrag TIZNIT","phone":"05 28 60 07 88","location":"https://www.telecontact.ma/plan-acces/pharmacie-afrag-/3200630/tiznit","city":"Tiznit"},{"name":"Pharmacie Al Bahia","address":"28, av. Hassan II , complexe Al Bahia TIZNIT","phone":"05 28 60 00 70","location":"https://www.telecontact.ma/plan-acces/pharmacie-al-bahia-/3095104/tiznit","city":"Tiznit"},{"name":"Pharmacie AlAmal","address":"71, av Mly. ElHassan Ben Youssef , Afrag TIZNIT","phone":"05 28 86 17 29","location":"https://www.telecontact.ma/plan-acces/pharmacie-alamal-/3200632/tiznit","city":"Tiznit"},{"name":"Pharmacie AlKairaouane","address":"98, bd Kairaouane, Afrag TIZNIT","phone":"05 28 86 59 84","location":"https://www.telecontact.ma/plan-acces/pharmacie-alkairaouane-/3200634/tiznit","city":"Tiznit"},{"name":"Pharmacie AlMassira","address":"hay AlMassira , bloc E n°12 TIZNIT","phone":"05 28 60 02 28","location":"https://www.telecontact.ma/plan-acces/pharmacie-almassira-/3162047/tiznit","city":"Tiznit"},{"name":"Pharmacie Assafar N'issafarne","address":"6, Avenue Hassan II , lot. Alhouria, 85000  TIZNIT","phone":"05 28 86 24 34","location":"","city":"Tiznit"},{"name":"Pharmacie Atlas","address":"Erac , bloc J n°60 TIZNIT","phone":"05 28 60 15 34","location":"https://www.telecontact.ma/plan-acces/pharmacie-atlas-/3200633/tiznit","city":"Tiznit"},{"name":"Pharmacie Azioual","address":"36, lotiss. Ikram  TIZNIT","phone":"05 28 60 20 37","location":"https://www.telecontact.ma/plan-acces/pharmacie-azioual-/3313505/tiznit","city":"Tiznit"},{"name":"Pharmacie Bel Haj","address":"21, souk Si Blaid  TIZNIT","phone":"05 28 60 17 82","location":"https://www.telecontact.ma/plan-acces/pharmacie-bel-haj-/3095070/tiznit","city":"Tiznit"},{"name":"Pharmacie Ben Omar","address":"30, lotiss. Tasskoult , av Mly Hassan Ben Youssef, Afrag TIZNIT","phone":"05 28 60 08 14","location":"https://www.telecontact.ma/plan-acces/pharmacie-ben-omar-/3251794/tiznit","city":"Tiznit"},{"name":"Pharmacie Charif Idrissi","address":"180, rue Mohamed Aouzal  TIZNIT","phone":"05 28 60 25 25","location":"https://www.telecontact.ma/plan-acces/pharmacie-charif-idrissi-/3200638/tiznit","city":"Tiznit"},{"name":"Pharmacie de l'Hôpital","address":"750, av. Abdelatif Sbihi  TIZNIT","phone":"05 28 86 32 85","location":"","city":"Tiznit"},{"name":"Pharmacie de la Gare","address":"62, rue Laâyoune II, lotiss. Hama  TIZNIT","phone":"05 28 86 42 67","location":"https://www.telecontact.ma/plan-acces/pharmacie-de-la-gare-/3158651/tiznit","city":"Tiznit"},{"name":"Pharmacie de Tiznit","address":"126, rue Hamam , 85000  TIZNIT","phone":"05 28 86 23 02","location":"https://www.telecontact.ma/plan-acces/pharmacie-de-tiznit-/1497300/tiznit","city":"Tiznit"},{"name":"Pharmacie Des Amicales","address":"Amicale des fonctionnaires, Bloc C n°142  TIZNIT","phone":"05 28 86 15 50","location":"https://www.telecontact.ma/plan-acces/pharmacie-des-amicales-/2213007/tiznit","city":"Tiznit"},{"name":"Pharmacie du peuple","address":"6, av. Allal Ben Abdellah , bloc D.A.F., 85000  TIZNIT","phone":"05 28 60 17 55","location":"https://www.telecontact.ma/plan-acces/pharmacie-du-peuple-/3041364/tiznit","city":"Tiznit"}]