[{"name":"Pharmacie Agendis","address":"34, lotiss. Agendis  YOUSSOUFIA","phone":"05 24 64 64 91","location":"https://www.telecontact.ma/plan-acces/pharmacie-agendis-/3251115/youssoufia","city":"Youssoufia"},{"name":"Pharmacie Ahmar","address":"24, Rue Oued Eddahab , 46300  YOUSSOUFIA","phone":"05 24 64 91 12","location":"https://www.telecontact.ma/plan-acces/pharmacie-ahmar-/0334200/youssoufia","city":"Youssoufia"},{"name":"Pharmacie AlQods","address":"hay ElWahda 3 , n°23 YOUSSOUFIA","phone":"05 24 64 75 46","location":"https://www.telecontact.ma/plan-acces/pharmacie-alqods-/3200652/youssoufia","city":"Youssoufia"},{"name":"Pharmacie Annour","address":"hay Laghdir , n°314 YOUSSOUFIA","phone":"05 24 64 93 12","location":"https://www.telecontact.ma/plan-acces/pharmacie-annour-/3251121/youssoufia","city":"Youssoufia"},{"name":"Pharmacie Baghdad","address":"22, cité Laghdir  YOUSSOUFIA","phone":"05 24 64 94 74","location":"https://www.telecontact.ma/plan-acces/pharmacie-baghdad-/3251118/youssoufia","city":"Youssoufia"},{"name":"Pharmacie Chefchaouni","address":"1, rue Baghdad , q. Atakaddoum YOUSSOUFIA","phone":"05 24 64 95 08","location":"https://www.telecontact.ma/plan-acces/pharmacie-chefchaouni-/3271465/youssoufia","city":"Youssoufia"},{"name":"Pharmacie Dakhla","address":"180, bd du Nil , q. Dakhla YOUSSOUFIA","phone":"05 24 64 82 06","location":"https://www.telecontact.ma/plan-acces/pharmacie-dakhla-/3200651/youssoufia","city":"Youssoufia"},{"name":"Pharmacie du Souk","address":"cité Erac , q. com. n°31 YOUSSOUFIA","phone":"05 24 64 50 60","location":"https://www.telecontact.ma/plan-acces/pharmacie-du-souk-/3200655/youssoufia","city":"Youssoufia"},{"name":"Pharmacie Eddoukali","address":"15, rue Mouatamid Ben Abbad  YOUSSOUFIA","phone":"05 24 64 59 22","location":"https://www.telecontact.ma/plan-acces/pharmacie-eddoukali-/3200649/youssoufia","city":"Youssoufia"},{"name":"Pharmacie El Khiria","address":"25, rue Meknés , cité Hassani YOUSSOUFIA","phone":"05 24 64 82 16","location":"https://www.telecontact.ma/plan-acces/pharmacie-el-khiria-/3251146/youssoufia","city":"Youssoufia"},{"name":"Pharmacie Errahma","address":"66, rue Hamid ElKhatib  YOUSSOUFIA","phone":"05 24 64 52 77","location":"https://www.telecontact.ma/plan-acces/pharmacie-errahma-/3200653/youssoufia","city":"Youssoufia"},{"name":"Pharmacie Essada","address":"6, av AlAhram  YOUSSOUFIA","phone":"05 24 64 67 07","location":"https://www.telecontact.ma/plan-acces/pharmacie-essada-/3200654/youssoufia","city":"Youssoufia"},{"name":"Pharmacie Inas","address":"11, bd Damas , q. Salam Youssoufia YOUSSOUFIA","phone":"05 24 64 55 24","location":"https://www.telecontact.ma/plan-acces/pharmacie-inas-/3297991/youssoufia","city":"Youssoufia"},{"name":"Pharmacie Kachkat","address":"9, Rue Imam Malik , 46300  YOUSSOUFIA","phone":"05 24 64 92 70","location":"https://www.telecontact.ma/plan-acces/pharmacie-kachkat-/0331500/youssoufia","city":"Youssoufia"},{"name":"Pharmacie la Municipalité","address":"1, rue Abou Bakr Essadik , q. Hassani YOUSSOUFIA","phone":"05 24 64 52 65","location":"","city":"Youssoufia"},{"name":"Pharmacie Moderne","address":"9, rue Laâyoune ,q. Hassani YOUSSOUFIA","phone":"05 24 64 96 69","location":"https://www.telecontact.ma/plan-acces/pharmacie-moderne-/3200656/youssoufia","city":"Youssoufia"},{"name":"Pharmacie Nejmi","address":"Rue Walili quart.Takadoum , 46300  YOUSSOUFIA","phone":"05 24 64 90 89","location":"https://www.telecontact.ma/plan-acces/pharmacie-nejmi-/1791100/youssoufia","city":"Youssoufia"},{"name":"Pharmacie Sidi Ahmed","address":"41, hay Mohamadi , Kariat Sidi Ahmed YOUSSOUFIA","phone":"05 24 64 97 19","location":"https://www.telecontact.ma/plan-acces/pharmacie-sidi-ahmed-/3200658/youssoufia","city":"Youssoufia"},{"name":"Pharmacie Youssoufia","address":"8, place des Far  YOUSSOUFIA","phone":"05 24 64 95 48","location":"https://www.telecontact.ma/plan-acces/pharmacie-youssoufia-/3200659/youssoufia","city":"Youssoufia"}]