[{"name":"Pharmacie Yassine","address":"278, bd Mohammed V  ZAGORA","phone":"05 24 84 87 19","location":"https://www.telecontact.ma/plan-acces/pharmacie-yassine-/3271105/zagora","city":"Zagora"},{"name":"Pharmacie Zagora","address":"bd Mohammed V  ZAGORA","phone":"05 24 84 71 95","location":"https://www.telecontact.ma/plan-acces/pharmacie-zagora-/3200665/zagora","city":"Zagora"},{"name":"Pharmacie Al Firdaous","address":"21, av. Allal Ben Abdellah  ZAGORA","phone":"05 24 84 64 93","location":"https://www.telecontact.ma/plan-acces/pharmacie-al-firdaous-/3270904/zagora","city":"Zagora"},{"name":"Pharmacie Al Mahata","address":"bd Mohamed V , hay Asrir ZAGORA","phone":"05 24 83 85 87","location":"https://www.telecontact.ma/plan-acces/pharmacie-al-mahata-/3273923/zagora","city":"Zagora"},{"name":"Pharmacie Assafar","address":"av Mohammed V  ZAGORA","phone":"05 24 84 62 71","location":"https://www.telecontact.ma/plan-acces/pharmacie-assafar-/3200663/zagora","city":"Zagora"},{"name":"Pharmacie ElBaraka","address":"17, bd Hassan II  ZAGORA","phone":"05 24 84 76 87","location":"","city":"Zagora"},{"name":"Pharmacie Israe","address":"hay El Qods  ZAGORA","phone":"05 24 84 88 19","location":"","city":"Zagora"},{"name":"Pharmacie Manssour Dahbi","address":"hay Mansour Dahbi , station Ahmed Benasser ZAGORA","phone":"05 24 83 81 16","location":"","city":"Zagora"},{"name":"Pharmacie Rihane","address":"bd Mohammed V , hay ElMassira ZAGORA","phone":"05 24 84 61 42","location":"","city":"Zagora"},{"name":"Pharmacie Salim","address":"bd Mohamed V  ZAGORA","phone":"05 24 84 65 62","location":"","city":"Zagora"}]